stop_id,stop_name,stop_lat,stop_lon
"10311","45-Glenferrie Rd/Wattletree Rd (Malvern)","-37.8624551974869","145.028508493713"
"10371","44-Duncraig Ave/Wattletree Rd (Armadale)","-37.8620693430544","145.025381503661"
"1083","42-Clyde St/Raleigh Rd (Maribyrnong)","-37.7696986370141","144.898841257317"
"11285","43-Egerton Rd/Wattletree Rd (Armadale)","-37.8617098209443","145.022753985843"
"1185","50-Vincent St/Wattletree Rd (Malvern East)","-37.8642262690974","145.043375161327"
"12599","42-Kooyong Rd/Wattletree Rd (Armadale)","-37.8613464183084","145.019899262258"
"1291","51-Erica Ave/Wattletree Rd (Malvern East)","-37.864612781781","145.046570531224"
"1292","38-Renown St/Sydney Rd (Coburg)","-37.7316189411008","144.964265699442"
"13401","28-Punt Rd/High St (Prahran)","-37.850563561435","144.98404670818"
"13995","44-Barb St/Raleigh Rd (Maribyrnong)","-37.7688912370673","144.891984560366"
"14033","29-Perth St/High St (Prahran)","-37.8510500877427","144.987727134116"
"14614","30-Prahran Station/High St (Prahran)","-37.8513186403397","144.989731474566"
"14728","31-Chapel St/High St (Prahran)","-37.8517564670519","144.99320872374"
"15559","45-Randall St/Raleigh Rd (Maribyrnong)","-37.7686294104224","144.888938214592"
"15699","32-Hornby St/High St (Prahran)","-37.8521989460309","144.996435851972"
"1575","52-Burke Rd/Wattletree Rd (Malvern East)","-37.8650763545074","145.050070824995"
"16610","33-The Avenue/High St (Prahran)","-37.8524343403657","144.998088827111"
"16713","34-Bell St/Sydney Rd (Coburg)","-37.7414709211939","144.966469738312"
"16714","33-Coburg Market/Sydney Rd (Coburg)","-37.7432587353623","144.96614843984"
"16715","32-Munro St/Sydney Rd (Coburg)","-37.7450647587369","144.965837974213"
"16716","31-Reynard St/Sydney Rd (Coburg)","-37.7487396573537","144.965203920471"
"16717","30-The Avenue/Sydney Rd (Coburg)","-37.7520732405765","144.96463589898"
"16718","34-Lewisham Rd/High St (Prahran)","-37.852650731286","144.999685499624"
"16719","28-Moreland Rd/Sydney Rd (Brunswick)","-37.7556402303938","144.964016018802"
"16720","27-Brunswick Tram Depot/Sydney Rd (Brunswick)","-37.7578145712198","144.963638581576"
"16721","26-Albion St/Sydney Rd (Brunswick)","-37.7609591755221","144.963086937258"
"16722","25-Stewart St/Sydney Rd (Brunswick)","-37.763232396797","144.962695373577"
"16723","24-Brunswick Baptist Church/Sydney Rd (Brunswick)","-37.7655776756168","144.962301804823"
"16724","23-Victoria St/Sydney Rd (Brunswick)","-37.7671410623407","144.962031845405"
"16725","22-Albert St/Sydney Rd (Brunswick)","-37.7689470622034","144.961721153568"
"16726","21-Brunswick Town Hall/Sydney Rd (Brunswick)","-37.7716426455718","144.961261128651"
"16727","20-Barkly Square/115 Sydney Rd (Brunswick)","-37.7748418604588","144.960741813361"
"16728","19-Brunswick Rd/Sydney Rd (Brunswick)","-37.7775912839539","144.960268872629"
"16730","17-Ievers St/Royal Pde (Parkville)","-37.7818880286309","144.959639798693"
"16731","16-Visy Park/Royal Pde (Parkville)","-37.7848555886672","144.959274308767"
"16732","15-Leonard St/Royal Pde (Parkville)","-37.7879310385251","144.958894459914"
"16733","14-Macarthur Rd/Royal Pde (Parkville)","-37.7900174319344","144.958643998437"
"16734","13-Gatehouse St/Royal Pde (Parkville)","-37.7926791219262","144.958309546413"
"16735","12-Morrah St/Royal Pde (Parkville)","-37.7956556771266","144.957943682365"
"16738","35-Williams Rd/High St (Prahran)","-37.8530109496482","145.00232392275"
"16739","36-Chatsworth Rd/High St (Prahran)","-37.8535555751998","145.006275808897"
"16740","37-Airlie Ave/High St (Prahran)","-37.8538661890989","145.008654223863"
"16741","38-Orrong Rd/High St (Prahran)","-37.8542198880742","145.011452032342"
"16742","39-Auburn Gr/High St (Armadale)","-37.8546848695886","145.014974291975"
"16743","40-Armadale Station/High St (Armadale)","-37.8551185160191","145.018247388115"
"16744","41-Kooyong Rd/High St (Armadale)","-37.8554191187573","145.020580711877"
"16745","42-Huntingtower Rd/High St (Armadale)","-37.8558315436456","145.023672587281"
"16746","43-Mercer Rd/High St (Armadale)","-37.856121889071","145.025938034936"
"16747","44-Glenferrie Rd/High St (Malvern)","-37.8565364575488","145.029166307829"
"16748","45-De La Salle College/High St (Malvern)","-37.8569417407273","145.032383499148"
"16749","46-Fraser St/High St (Malvern)","-37.8573831577328","145.035611134122"
"16750","47-Dixon St/High St (Malvern)","-37.8576935640629","145.038012543333"
"16751","48-Tooronga Rd/High St (Glen Iris)","-37.8580775671546","145.041048539388"
"16752","49-Harold Holt Swim Centre/High St (Glen Iris)","-37.8584543727723","145.044198422562"
"16753","50-Belmont Ave/High St (Glen Iris)","-37.8589452563504","145.048254647391"
"16754","51-Burke Rd/High St (Glen Iris)","-37.8593096654652","145.051211702637"
"16755","52-Boyanda Rd/High St (Glen Iris)","-37.859613754829","145.053795276896"
"16757","53-Malvern Rd/High St (Glen Iris)","-37.8599981088197","145.056331298164"
"16758","52-Boyanda Rd/High St (Glen Iris)","-37.8597824715494","145.054188670717"
"16759","51-Burke Rd/High St (Glen Iris)","-37.8594857058341","145.051502596794"
"16760","50-Belmont Ave/High St (Glen Iris)","-37.8591100354785","145.048409431862"
"16761","49-Harold Holt Swim Centre/High St (Glen Iris)","-37.8586700474993","145.044704211228"
"16762","48-Tooronga Rd/High St (Glen Iris)","-37.8582720256692","145.041361649363"
"16764","47-Dixon St/High St (Malvern)","-37.8578196735554","145.038009199396"
"16765","46-Fraser St/High St (Malvern)","-37.8575575292418","145.035799731109"
"16766","45-De La Salle College/High St (Malvern)","-37.8571574650518","145.032889240976"
"16767","44-Glenferrie Rd/High St (Malvern)","-37.8567043037384","145.029502820561"
"16768","43-Mercer Rd/High St (Armadale)","-37.8562889822335","145.026229094256"
"16769","42-Huntingtower Rd/High St (Armadale)","-37.8559963534887","145.023827309352"
"16770","41-Kooyong Rd/High St (Armadale)","-37.8555850786378","145.020803590933"
"16771","40-Armadale Station/High St (Armadale)","-37.8552743249172","145.018402337578"
"16772","39-Auburn Gr/High St (Armadale)","-37.8548715368877","145.015355721945"
"16773","38-Orrong Rd/High St (Armadale)","-37.8543864403031","145.011708968352"
"16774","37-Airlie Ave/High St (Prahran)","-37.8539928730083","145.00868491183"
"16775","36-Chatsworth Rd/High St (Prahran)","-37.8537639403472","145.006872572986"
"16776","35-Williams Rd/High St (Prahran)","-37.8531690918265","145.002615157312"
"16777","34-Lewisham Rd/High St (Prahran)","-37.8528292112533","145.000112562951"
"16778","33-The Avenue/High St (Prahran)","-37.8526233788789","144.998606523124"
"1696","51-Nott St/Wattletree Rd (Malvern East)","-37.8647820884175","145.046998020808"
"17306","40-North Coburg Terminus/Sydney Rd (Coburg North)","-37.7275799981811","144.963650151836"
"17307","39-Mercy College/Sydney Rd (Coburg North)","-37.7298906497183","144.963859170438"
"17308","38-Carr St/Sydney Rd (Coburg North)","-37.7321118173946","144.964626647697"
"17309","37-Gaffney St/Sydney Rd (Coburg North)","-37.7338555772281","144.965407237242"
"17310","36-Rogers St/Sydney Rd (Coburg)","-37.7355343214202","144.966076166701"
"17311","35-St Pauls Catholic Church/Sydney Rd (Coburg)","-37.737504633048","144.96693005852"
"17312","34-Bell St/Sydney Rd (Coburg)","-37.7411587871097","144.966659853407"
"17313","33-Coburg Market/Sydney Rd (Coburg)","-37.7431361532864","144.966356069976"
"17314","32-Harding St/Sydney Rd (Coburg)","-37.7448883276398","144.966058433153"
"17315","31-Edward St/Sydney Rd (Coburg)","-37.7484735438123","144.965449547379"
"17316","30-The Avenue/Sydney Rd (Coburg)","-37.7518605863176","144.96484602495"
"17317","29-Moore St/Sydney Rd (Coburg)","-37.7535046614609","144.964551270641"
"17318","28-Moreland Rd/Sydney Rd (Coburg)","-37.7553108713585","144.96425205716"
"17319","27-Brunswick Tram Depot/Sydney Rd (Brunswick)","-37.7574221603365","144.963876357798"
"17320","26-Albion St/Sydney Rd (Brunswick)","-37.760737713783","144.963308686831"
"17321","25-Stewart St/Sydney Rd (Brunswick)","-37.7630828003213","144.962903807963"
"17322","24-Blyth St/Sydney Rd (Brunswick)","-37.7653560197319","144.962512224513"
"17323","23-Victoria St/Sydney Rd (Brunswick)","-37.7669822636576","144.962229192841"
"17324","22-Albert St/Sydney Rd (Brunswick)","-37.7687612416296","144.961919248584"
"17325","21-Glenlyon Rd/Sydney Rd (Brunswick)","-37.7713669471568","144.961473053776"
"17327","19-Brunswick Rd/Sydney Rd (Brunswick)","-37.7776474907507","144.960392220028"
"17329","17-Ievers St/Royal Pde (Parkville)","-37.7816841980783","144.959838430183"
"17330","16-Walker St/Royal Pde (Parkville)","-37.7845892964729","144.959508732384"
"17331","15-Leonard St/Royal Pde (Parkville)","-37.787673755032","144.959128647263"
"17332","14-Cemetery Road West/Royal Pde (Parkville)","-37.7897151117946","144.95887943293"
"17333","13-Gatehouse St/Royal Pde (Parkville)","-37.7924218402835","144.958543751493"
"17334","12-Morrah St/Royal Pde (Parkville)","-37.7955605312187","144.95817343435"
"17591","7-Russell St/Bourke St (Melbourne City)","-37.8127688688847","144.968354387869"
"17593","6-Swanston St/Bourke St (Melbourne City)","-37.8134835508039","144.965903891989"
"17594","5-Elizabeth St/Bourke St (Melbourne City)","-37.814217177095","144.963509626128"
"17596","4-Queen St/Bourke St (Melbourne City)","-37.8152529948439","144.959834721279"
"17597","3-William St/Bourke St (Melbourne City)","-37.8158815560882","144.957624990924"
"17602","32-Hornby St/High St (Prahran)","-37.8523538155005","144.99653394762"
"17603","31-Chapel St/High St (Prahran)","-37.8519512424085","144.993533036311"
"17604","30-Prahran Station/High St (Windsor)","-37.8513923354165","144.98929759429"
"17605","29-Perth St/High St (Windsor)","-37.8512067115971","144.987927449006"
"17606","28-Punt Rd/High St (Windsor)","-37.8507583612467","144.9843709904"
"1784","37-Gaffney St/Sydney Rd (Coburg)","-37.7340974118289","144.965321186506"
"17848","1-Spencer St/Bourke St (Melbourne City)","-37.8170628127479","144.953514231716"
"17849","1-Spencer St/Bourke St (Melbourne City)","-37.8168459149205","144.95399733594"
"17850","1-Flinders Street Railway Station/Elizabeth St (Melbourne City)","-37.8177174258525","144.964765269617"
"17851","2-Collins St/Elizabeth St (Melbourne City)","-37.8154275172888","144.963669478383"
"17852","3-Bourke Street Mall/Elizabeth St (Melbourne City)","-37.8134471934146","144.962758349579"
"17854","5-Melbourne Central Station/Elizabeth St (Melbourne City)","-37.8105584510391","144.961429251208"
"17856","7-Queen Victoria Market/Elizabeth St (Melbourne City)","-37.8065611461511","144.959574202515"
"17857","8-Peel St/Victoria St (Melbourne City)","-37.8059352033252","144.956218050354"
"17858","9-William St/Victoria St (Melbourne City)","-37.8056878135902","144.953907809577"
"17859","10-Chetwynd St/Victoria St (Melbourne City)","-37.8055172520153","144.95239052996"
"17860","11-Errol St/Victoria St (Melbourne City)","-37.8051956671521","144.949446316709"
"17861","11-Victoria St/Errol St (North Melbourne)","-37.8049594975034","144.949339269252"
"17862","10-Chetwynd St/Victoria St (Melbourne City)","-37.805402845346","144.952030231038"
"17863","9-Howard St/Victoria St (Melbourne City)","-37.8055636148541","144.953502345242"
"17864","8-Peel St/Victoria St (Melbourne City)","-37.805809829916","144.955744464068"
"17866","9-Pelham St/Elizabeth St (Melbourne City)","-37.8019465824229","144.95746376637"
"17867","10-Royal Melbourne Hospital-Parkville Station/Royal Pde (Melbourne City)","-37.7999287135423","144.957507998648"
"17868","10-Royal Melbourne Hospital-Parkville Station/Royal Pde (Parkville)","-37.7995427706665","144.957598130719"
"17869","9-Pelham St/Elizabeth St (Melbourne City)","-37.802148290668","144.957662646183"
"17871","7-Queen Victoria Market/Elizabeth St (Melbourne City)","-37.8068903326377","144.959849099642"
"17873","5-Melbourne Central Station/Elizabeth St (Melbourne City)","-37.8111051886965","144.961777700547"
"17875","3-Bourke Street Mall/Elizabeth St (Melbourne City)","-37.8140393577577","144.963128291711"
"17876","2-Collins St/Elizabeth St (Melbourne City)","-37.8159288189722","144.963996494564"
"17877","1-Flinders Street Railway Station/Elizabeth St (Melbourne City)","-37.8178989492868","144.964839803919"
"17878","11-Melbourne Museum/Nicholson St (Fitzroy)","-37.8057579934106","144.973600940288"
"17880","10-Albert St/Nicholson St (Fitzroy)","-37.8096759024878","144.972948608293"
"17882","9-Spring St/Bourke St (Melbourne City)","-37.8115439967457","144.972579462043"
"17885","3-William St/Bourke St (Melbourne City)","-37.8157063305466","144.957913812583"
"17886","4-Queen St/Bourke St (Melbourne City)","-37.8151216206897","144.960054170574"
"17887","5-Elizabeth St/Bourke St (Melbourne City)","-37.8140309655058","144.963685134904"
"17888","6-Swanston St/Bourke St (Melbourne City)","-37.8132664041915","144.966375584494"
"17889","7-Russell St/Bourke St (Melbourne City)","-37.8124675120642","144.969169152948"
"1789","50-Anderson St/Wattletree Rd (Malvern East)","-37.8643850684591","145.04371198053"
"17891","9-Spring St/Bourke St (Melbourne City)","-37.8115230492592","144.972409649014"
"17892","10-Albert St/Nicholson St (East Melbourne)","-37.8094227142143","144.972898738855"
"17894","11-Melbourne Museum/Nicholson St (Fitzroy)","-37.8056759486605","144.973546392178"
"17895","12-St Vincents Plaza/Victoria Pde (East Melbourne)","-37.8082797817104","144.976133114639"
"17896","11-Albert St/Gisborne St (East Melbourne)","-37.8093902785595","144.975727953801"
"17897","10-Parliament Railway Station/Macarthur St (East Melbourne)","-37.8123788849696","144.974487687436"
"17898","8-Spring St/Collins St (Melbourne City)","-37.8135567646798","144.973285477789"
"17901","6-Melbourne Town Hall/Collins St (Melbourne City)","-37.8156743324507","144.96595735414"
"17902","5-Elizabeth St/Collins St (Melbourne City)","-37.8164232231115","144.963403560134"
"17903","3-William St/Collins St (Melbourne City)","-37.8176070447287","144.959429108105"
"17905","1-Spencer St/Collins St (Melbourne City)","-37.8188468786192","144.955055379167"
"17906","1-Spencer St/Collins St (Melbourne City)","-37.8187409587523","144.955183264106"
"17908","3-William St/Collins St (Melbourne City)","-37.8173721073394","144.959912695737"
"17910","5-Elizabeth St/Collins St (Melbourne City)","-37.8162058910242","144.963863924245"
"17911","6-Melbourne Town Hall/Collins St (Melbourne City)","-37.8155176891872","144.966279724644"
"17914","8-Spring St/Collins St (Melbourne City)","-37.8134159662352","144.973482437481"
"17915","10-Parliament Railway Station/Macarthur St (East Melbourne)","-37.8121695630818","144.974368457376"
"17917","46-Rosamond Rd/Raleigh Rd (Maribyrnong)","-37.7688871740111","144.8867285213"
"17918","48-Raleigh Rd/Wests Rd (Maribyrnong)","-37.7696369311472","144.882813269946"
"17919","49-Highpoint Shopping Centre/Wests Rd (Maribyrnong)","-37.7731040767943","144.882180771024"
"17920","50-Wests Rd/Williamson Rd (Maribyrnong)","-37.7752121401742","144.882143317618"
"17921","51-Williamson Rd/Rosamond Rd (Maidstone)","-37.7760397198123","144.885571153739"
"17922","52-Rosamond Rd/River St (Maribyrnong)","-37.7793321963247","144.885749826094"
"17923","53-Maribyrnong College/River St (Maribyrnong)","-37.7795940236529","144.887786089038"
"17924","54-Gordon St/River St (Maribyrnong)","-37.780001835806","144.890930915909"
"17925","55-Lyric St/Gordon St (Maribyrnong)","-37.782240680503","144.891151132568"
"17926","56-Edgewater Square/Gordon St (Maribyrnong)","-37.7848982493047","144.890598682875"
"17927","57-Titch St/Gordon St (Footscray)","-37.7886440453647","144.889924389874"
"17928","58-Ballarat Rd/Gordon St (Footscray)","-37.7904757982596","144.889554318125"
"17929","59-Droop St/Ballarat Rd (Footscray)","-37.7925843536271","144.893571127357"
"17930","60-Tiernan St/Droop St (Footscray)","-37.7948900649391","144.895515713716"
"17931","61-Geelong Rd/Droop St (Footscray)","-37.7967933530039","144.897131128735"
"17932","62-Nicholson St/Hopkins St (Footscray)","-37.7998407375815","144.899736344219"
"17933","63-Footscray Market/Leeds St (Footscray)","-37.8000805887204","144.901058340646"
"17934","64-Footscray Station/Leeds St (Footscray)","-37.8013667890687","144.900919711216"
"17935","40-Epsom Rd/Maribyrnong Rd (Moonee Ponds)","-37.770432300962","144.905121206151"
"17936","39-Bowen St/Maribyrnong Rd (Moonee Ponds)","-37.7708617445224","144.909003068239"
"17937","38-Hotham St/Maribyrnong Rd (Moonee Ponds)","-37.7712361719293","144.912330238095"
"17938","37-Union Rd/Maribyrnong Rd (Moonee Ponds)","-37.771643551427","144.915997103508"
"17940","35-Moore St/Maribyrnong Rd (Moonee Ponds)","-37.7722119714722","144.921135380945"
"17941","34-Ascot Vale Rd/Maribyrnong Rd (Moonee Ponds)","-37.7724735799673","144.923705183016"
"17942","33-Chaucer St/Ascot Vale Rd (Moonee Ponds)","-37.7700506031205","144.92428383218"
"17944","49-Central Park Ave/Cordite Ave (Maribyrnong)","-37.7688559983501","144.877976733352"
"17945","36-St Leonards Rd/Union Rd (Ascot Vale)","-37.7735711076074","144.915942976992"
"17946","35-Bloomfield Rd/Union Rd (Ascot Vale)","-37.7758893602274","144.91555997454"
"17948","33-Melbourne Showgrounds/Union Rd (Ascot Vale)","-37.78035451832","144.914787348936"
"17949","32-Sandown Rd/Epsom Rd (Ascot Vale)","-37.7825874341141","144.916711634274"
"17950","31-Racing Victoria/161 Epsom Rd (Ascot Vale)","-37.7840182538593","144.918124863273"
"17951","30-Flemington Racecourse/Epsom Rd (Ascot Vale)","-37.7860427496269","144.919987053643"
"17952","29-Flemington Racecourse/Racecourse Rd (Flemington)","-37.7873490387964","144.922005728467"
"17953","28-Smithfield Rd/Racecourse Rd (Flemington)","-37.7876262501032","144.92495034544"
"17954","26-Newmarket Plaza/Racecourse Rd (Flemington)","-37.7879710321535","144.928154271914"
"17955","25-Wellington St/Racecourse Rd (Flemington)","-37.7882414761998","144.931235393251"
"17956","24-Victoria St/Racecourse Rd (Flemington)","-37.7884432609967","144.933489501867"
"17957","23-Stubbs St/Racecourse Rd (Flemington)","-37.7887678095782","144.936580515234"
"17958","22-Boundary Rd/Racecourse Rd (North Melbourne)","-37.7891314841086","144.939852159566"
"17959","20-Melrose St/Flemington Rd (North Melbourne)","-37.7903935405692","144.943485020389"
"17961","19-Abbotsford St Interchange/Abbotsford St (North Melbourne)","-37.794106297423","144.947095593477"
"18006","11-Albert St/Gisborne St (East Melbourne)","-37.8096945835504","144.975606054967"
"18009","10-Nicholson St/Victoria Pde (East Melbourne)","-37.8080192780025","144.973561839542"
"18010","9-La Trobe St/Victoria St (Melbourne City)","-37.8076142069161","144.970971823836"
"18011","8-Exhibition St/La Trobe St (Melbourne City)","-37.8081033710233","144.969027481611"
"18030","6-Swanston St/La Trobe St (Melbourne City)","-37.8095499505462","144.964080860759"
"18031","5-Elizabeth St/La Trobe St (Melbourne City)","-37.8102909785482","144.961595632073"
"18032","4-Queen St/La Trobe St (Melbourne City)","-37.8110051269644","144.959122453397"
"18033","3-William St/La Trobe St (Melbourne City)","-37.8117113966312","144.956717599289"
"18035","1-Spencer St/La Trobe St (Melbourne City)","-37.8131122095197","144.951760408638"
"18037","D10-New Quay Prom/Docklands Dr (Docklands)","-37.8137810526464","144.940507505458"
"18038","D11-Waterfront City/Docklands Dr (Docklands)","-37.8143451402616","144.938753833648"
"18039","D10-NewQuay Prom/Docklands Dr (Docklands)","-37.8133119284866","144.941508800813"
"18040","D1-Stadium Precinct/La Trobe St (Docklands)","-37.8145779368141","144.946403652144"
"18041","119-Spencer St/La Trobe St (Melbourne City)","-37.8132106196206","144.951201083433"
"18042","2-King St/La Trobe St (Melbourne City)","-37.8124796139342","144.953731671522"
"18043","3-William St/La Trobe St (Melbourne City)","-37.8117914217833","144.956136079756"
"18044","4-Queen St/La Trobe St (Melbourne City)","-37.8110610943178","144.958711989118"
"18045","5-Elizabeth St/La Trobe St (Melbourne City)","-37.810354782673","144.961116804687"
"18046","6-Swanston St/La Trobe St (Melbourne City)","-37.8093406405031","144.964484165349"
"18047","7-Russell St/La Trobe St (Melbourne City)","-37.8089089194139","144.966097591997"
"18048","8-Exhibition St/La Trobe St (Melbourne City)","-37.8081850251622","144.968536826555"
"18049","9-Victoria St/La Trobe St (Melbourne City)","-37.8076561212508","144.970266451121"
"18050","10-Nicholson St/Victoria Pde (Carlton)","-37.8078356284083","144.972839915879"
"18051","12-St Vincents Plaza/Victoria Pde (Fitzroy)","-37.8082311995661","144.976452481155"
"18052","D2-Central Pier/Harbour Esp (Docklands)","-37.8147049135881","144.944900677865"
"18053","D3-Stadium Precinct - Bourke St/Harbour Esp (Docklands)","-37.8178194046413","144.94624565748"
"18054","D4-Docklands Park/Harbour Esp (Docklands)","-37.8214659111449","144.947610087905"
"18055","D5-South Wharf/Wurundjeri Way (Docklands)","-37.8218350513363","144.951212536428"
"18056","D6-Flinders Street West/Flinders St (Docklands)","-37.821471187941","144.95360831672"
"18059","16-Haines St/Abbotsford St (North Melbourne)","-37.79828366042","144.946343951475"
"18060","15-Arden St/Abbotsford St (North Melbourne)","-37.800996570324","144.945848584264"
"18061","14-Queensberry St/Abbotsford St (North Melbourne)","-37.8023895483524","144.945628267309"
"18064","24-Elliott Ave/Royal Park (Parkville)","-37.7880155404028","144.949751010823"
"18065","25-State Netball Hockey Centre/Royal Park (Parkville)","-37.7845392927605","144.94884785629"
"18066","26-Melbourne Zoo/Royal Park (Parkville)","-37.7826172336282","144.949218925335"
"18067","27-Royal Park Station/Royal Park (Parkville)","-37.7807530016103","144.951359647705"
"18068","28-Park St/Royal Park (Parkville)","-37.7770671436394","144.949803762185"
"18069","29-Brunswick Rd/Grantham St (Brunswick West)","-37.7755376903349","144.948915029137"
"18071","30-Union Square Shopping Centre/Grantham St (Brunswick West)","-37.7722592536014","144.94953922604"
"18072","31-Grantham St/Dawson St (Brunswick West)","-37.7700512394837","144.949532108192"
"18075","34-Smith St/Melville Rd (Brunswick)","-37.767311472568","144.943318644467"
"18076","35-Victoria St/Melville Rd (Brunswick West)","-37.7647080305542","144.943890252582"
"18077","36-Hope St/Melville Rd (Brunswick West)","-37.7620401454963","144.944384140438"
"18078","37-Albion St/Melville Rd (Brunswick West)","-37.7585631683503","144.944991188599"
"18079","38-Jacobs Reserve/Melville Rd (Brunswick West)","-37.7566234933539","144.945385384708"
"18081","40-Moreland Rd/Melville Rd (Brunswick West)","-37.7531629379725","144.945901075068"
"18083","42-Reynard St/Melville Rd (Pascoe Vale South)","-37.7463986381296","144.944556004701"
"18084","43-Princes Tce/Melville Rd (Pascoe Vale South)","-37.7439281114754","144.94499886262"
"18085","44-Brearley Pde/Melville Rd (Pascoe Vale South)","-37.74159210025","144.945403922719"
"18086","45-Bell St/Melville Rd (Pascoe Vale South)","-37.7401174433025","144.945592224149"
"18087","3-Market St/Flinders St (Melbourne City)","-37.8190629091851","144.96179737731"
"18089","4-Elizabeth St/Flinders St (Melbourne City)","-37.8182377005876","144.964626018031"
"18090","5-Swanston St/Flinders St (Melbourne City)","-37.8175600608649","144.967132468933"
"18091","6-Russell St/Flinders St (Melbourne City)","-37.8165637698302","144.970499593731"
"18092","8-Spring St/Flinders St (Melbourne City)","-37.8153188585204","144.974611804409"
"18093","9-Lansdowne St/Wellington Pde (East Melbourne)","-37.8154528504952","144.977164070048"
"18094","10-Jolimont Rd/Wellington Pde (East Melbourne)","-37.8157502872708","144.979791408019"
"18095","11-Jolimont Station-MCG/Wellington Pde (East Melbourne)","-37.8163411003071","144.984819064115"
"18097","13-Simpson St/Wellington Pde (East Melbourne)","-37.8165403338635","144.986983379958"
"18098","14-Punt Rd/Wellington Pde (Melbourne City)","-37.8173883754326","144.989675381289"
"18099","14-Punt Rd/Bridge Rd (Richmond)","-37.8175327939776","144.99021674427"
"18100","13-Simpson St/Wellington Pde (East Melbourne)","-37.8166031929767","144.986970312459"
"18102","11-Jolimont Station-MCG/Wellington Pde (East Melbourne)","-37.8162458431635","144.983992388041"
"18103","10-Jolimont Rd/Wellington Pde (East Melbourne)","-37.8157693218374","144.979325139981"
"18104","9-Lansdowne St/Wellington Pde (Melbourne City)","-37.8154712893636","144.976663740613"
"18105","8-Spring St/Flinders St (Melbourne City)","-37.8155366244416","144.974174184247"
"18108","7B-Rod Laver Arena/MCG Gates 1-3 (Melbourne City)","-37.8195869683565","144.979130145964"
"18116","7C-MCG Gates 4-7/John Cain Arena (Melbourne City)","-37.8223839591357","144.983529989582"
"18118","7D-Olympic Boulevard (Melbourne City)","-37.8241350986216","144.986856550027"
"18155","7D-Olympic Boulevard (Melbourne City)","-37.8238268987793","144.986751315461"
"18161","7C-MCG Gates 4-7/John Cain Arena (Melbourne City)","-37.8221371188385","144.982798261415"
"18172","7B-Rod Laver Arena/MCG Gates 1-3 (Melbourne City)","-37.8193494992741","144.978420925071"
"18174","6-Russell St/Flinders St (Melbourne City)","-37.8166571764313","144.970167599675"
"18175","5-Swanston St/Flinders St (Melbourne City)","-37.8177562532722","144.966490925417"
"18176","4-Elizabeth St/Flinders St (Melbourne City)","-37.8184119611328","144.964280427753"
"18178","3-Market St/Flinders St (Melbourne City)","-37.8193062717416","144.961279471667"
"18179","D6-Victoria Police Centre/Flinders St (Southbank)","-37.8217256919555","144.953215026386"
"18180","D5-South Wharf/Wurundjeri Way (Docklands)","-37.8220010540961","144.95091256906"
"18181","D4-Docklands Park/Harbour Esp (Docklands)","-37.8217253435803","144.947500655579"
"18182","D3-Stadium Precinct - Bourke St/Harbour Esp (Docklands)","-37.8174629673351","144.945960178574"
"18183","D2-Central Pier/Harbour Esp (Docklands)","-37.814248797711","144.944583903162"
"18184","125-Clarendon St/Whiteman St (Southbank)","-37.8256880330893","144.95668432986"
"18185","124A-Casino/MCEC/Clarendon St (Southbank)","-37.8232890428396","144.956057488426"
"18186","124-Batman Park/Spencer St (Melbourne City)","-37.8215540351991","144.955264672763"
"18187","122-Southern Cross Railway Station/Spencer St (Melbourne City)","-37.8187670600794","144.954091969303"
"18189","120-Lonsdale St/Spencer St (Melbourne City)","-37.8153128594823","144.95238116034"
"18190","119-La Trobe St/Spencer St (Melbourne City)","-37.8134051088372","144.951502408285"
"18192","120-Lonsdale St/Spencer St (Melbourne City)","-37.8149601881859","144.952311388325"
"18194","122-Southern Cross Railway Station/Spencer St (Melbourne City)","-37.818318987851","144.953718098738"
"18196","124-Batman Park/Spencer St (Melbourne City)","-37.8217727767997","144.955406323598"
"18197","124A-Casino/MCEC/Clarendon St (Southbank)","-37.8235908215218","144.956310462767"
"18199","5-Bourke St/William St (Melbourne City)","-37.8158743716326","144.958249973131"
"18201","7-Flagstaff Railway Station/William St (Melbourne City)","-37.8119962853439","144.956516639946"
"18203","10-Victoria St/Peel St (West Melbourne)","-37.8053912095221","144.956028602687"
"18204","10-Victoria St/Peel St (West Melbourne)","-37.8056984480575","144.956076921927"
"18205","9-Queen Victoria Market/Peel St (North Melbourne)","-37.8074415572095","144.955778972872"
"18206","9-Queen Victoria Market/39 Peel St (North Melbourne)","-37.8072157798245","144.95575112424"
"18208","7-Flagstaff Railway Station/William St (Melbourne City)","-37.8124607875298","144.956799171009"
"18210","5-Bourke St/William St (Melbourne City)","-37.8154402422266","144.958159697872"
"18211","4-Collins St/William St (Melbourne City)","-37.8174570216486","144.959092440851"
"18214","1-Flinders St/Queens Bridge St (Melbourne City)","-37.8195128534186","144.961239706552"
"18215","115-Casino/Southbank/Queens Bridge St (Southbank)","-37.8221169909628","144.961224848515"
"18217","117-York St/Kings Way (South Melbourne)","-37.829765885134","144.964229720859"
"18218","118-Sturt St/Kings Way (Southbank)","-37.8305362552248","144.965003884104"
"18219","119-Wells St/Park St (South Melbourne)","-37.8328001789356","144.969816114378"
"18221","119-Wells St/Park St (South Melbourne)","-37.8328900579328","144.9698022881"
"18222","118-Sturt St/Kings Way (Southbank)","-37.8310743690952","144.965375408369"
"18223","117-York St/Kings Way (South Melbourne)","-37.8295710333263","144.963905583629"
"18224","20-Kings Way/Sturt St (Southbank)","-37.8300913780358","144.965334241114"
"18225","19-Miles St/Sturt St (Southbank)","-37.8284314728154","144.96575477424"
"18226","18-Grant St/Sturt St (Southbank)","-37.8257791888977","144.966634261356"
"18227","17-Arts Precinct/Sturt St (Southbank)","-37.823816355007","144.967256185629"
"18229","17-Arts Precinct/Sturt St (Southbank)","-37.8240944106503","144.967180389921"
"18230","18-Grant St/Sturt St (Southbank)","-37.8259238968993","144.966664372939"
"18231","19-Miles St/Sturt St (Southbank)","-37.8281843649542","144.966056962891"
"18232","20-Kings Way/Sturt St (Southbank)","-37.8301193817448","144.965390281367"
"18233","116-City Rd/Kings Way (Southbank)","-37.8262601810025","144.960576837407"
"18341","24-Grattan St/Church St (Hawthorn)","-37.8179058144328","145.018606890618"
"18342","25-Brook St/Church St (Hawthorn)","-37.8159207279923","145.02060249978"
"18343","26-Barkers Rd/Church St (Hawthorn)","-37.8132526789773","145.02325235056"
"18347","34-Pakington St/High St (Kew)","-37.8056166149172","145.033837438581"
"18348","35-Cobden St/High St (Kew)","-37.8049872710116","145.035546498284"
"18349","36-Parkhill Rd/High St (Kew)","-37.8034893267966","145.039754558615"
"18350","37-Kew Cemetery/High St (Kew)","-37.8024726579742","145.04256410053"
"18351","38-Victoria Park/High St (Kew)","-37.8012587220986","145.045980720355"
"18352","39-Harp Rd/High St (Kew)","-37.7994130280903","145.050436009764"
"18353","40-Harp Village/High St (Kew East)","-37.7986282334932","145.052023941163"
"18354","41-Clyde St/High St (Kew East)","-37.7974387967532","145.05475816506"
"18355","42-Irymple Ave/High St (Kew East)","-37.7963969997992","145.057159084077"
"18356","43-Kew High School/High St (Kew East)","-37.7946503666035","145.061088810231"
"18357","44-Burke Rd/High St (Kew)","-37.7935301622717","145.063661944687"
"18359","46-Wattle Ave/Doncaster Rd (Balwyn North)","-37.7928353855842","145.067450396979"
"18360","47-North Balwyn Shopping Centre/Doncaster Rd (Balwyn North)","-37.7927115271199","145.071439703874"
"18361","48-Sunburst Ave/Doncaster Rd (Balwyn North)","-37.7932173767713","145.074265659009"
"18362","49-Cityview Rd/Doncaster Rd (Balwyn North)","-37.7937562996026","145.077465561587"
"18363","50-Hill Rd/Doncaster Rd (Balwyn North)","-37.7942586046724","145.081188863697"
"18364","36-St Kilda Primary School/Brighton Rd (Elwood)","-37.8701204626632","144.988345180965"
"18365","38-Wimbledon Ave/Brighton Rd (Elwood)","-37.8728806139146","144.990077695551"
"18367","39-Glen Eira Rd/Brighton Rd (Elwood)","-37.87595969016","144.992017684911"
"18368","40-Scott St/Brighton Rd (Elwood)","-37.8789474996696","144.993892090283"
"18369","41-Coleridge St/Brighton Rd (Elwood)","-37.8808421799761","144.995079982449"
"18370","42-Hotham St/Brighton Rd (St Kilda East)","-37.8828643097504","144.996344069577"
"18371","43-Brighton Rd/Glenhuntly Rd (Elsternwick)","-37.8839036362993","144.997577995153"
"18372","44-Elsternwick Railway Station/Glenhuntly Rd (Elsternwick)","-37.8843057551575","145.000557492297"
"18373","45-Elsternwick Shopping Centre/Glenhuntly Rd (Elsternwick)","-37.8847507705186","145.003945198274"
"18374","46-Orrong Rd/Glenhuntly Rd (Elsternwick)","-37.8850505247537","145.00621118979"
"18375","47-Shoobra Rd/Glenhuntly Rd (Elsternwick)","-37.8853880281913","145.009112930687"
"18376","48-Parkside St/Glenhuntly Rd (Elsternwick)","-37.8857563235299","145.012241282169"
"18392","49-Kooyong Rd/Glenhuntly Rd (Elsternwick)","-37.8861017288539","145.015086015621"
"18393","50-Royal Pde/Glenhuntly Rd (Caulfield)","-37.8864976556089","145.018259171635"
"18394","51-Hawthorn Rd/Glenhuntly Rd (Caulfield)","-37.8869781693467","145.022180568643"
"18395","52-Jasmine St/Glenhuntly Rd (Caulfield)","-37.8872183777132","145.024141288394"
"18396","53-Glenhuntly Tram Depot/Glenhuntly Rd (Caulfield)","-37.8876106330262","145.027109967466"
"18397","54-Bambra Rd/Glenhuntly Rd (Caulfield)","-37.8878388967862","145.02890047642"
"18398","55-Fallon St/Glenhuntly Rd (Caulfield)","-37.8881081096232","145.030985550381"
"18399","56-Kean St/Glenhuntly Rd (Caulfield)","-37.8884193957524","145.033433392361"
"18400","57-Laura St/Glenhuntly Rd (Caulfield)","-37.8886699443641","145.035484883526"
"18401","58-Booran Rd/Glenhuntly Rd (Caulfield)","-37.8889610376065","145.037808218733"
"18403","60-Glenhuntly Shops/Glenhuntly Rd (Glen Huntly)","-37.8893077236607","145.040766882954"
"18404","61-Glen Huntly Railway Station/Glen Huntly Rd (Glen Huntly)","-37.8895480036196","145.042750470597"
"18405","62-Grange Rd/Glenhuntly Rd (Glen Huntly)","-37.8898383883786","145.045039769465"
"18406","63-Maroona Rd/Glenhuntly Rd (Carnegie)","-37.89014320618","145.047658473016"
"18407","64-Mernda Ave/Glenhuntly Rd (Carnegie)","-37.8904057194758","145.049903061288"
"18408","65-Mimosa Rd/Glenhuntly Rd (Carnegie)","-37.8907139821897","145.052191945965"
"18409","66-Glenhuntly Rd/Truganini Rd (Carnegie)","-37.8910691060569","145.05404750214"
"18410","67-Centre Rd/Truganini Rd (Carnegie)","-37.8926965346448","145.054368542811"
"18411","68-Carnegie/Truganini Rd (Carnegie)","-37.8938647686792","145.055804755968"
"18412","68-East Brighton/Hawthorn Rd (Brighton East)","-37.914221659373","145.016889725769"
"18413","67-Howell St/Hawthorn Rd (Brighton East)","-37.911094096468","145.017394569948"
"18414","66-Union St/Hawthorn Rd (Brighton East)","-37.9087302621321","145.017765128012"
"18415","65-Davey Ave/Hawthorn Rd (Brighton East)","-37.9065737922549","145.018141468691"
"18416","64-Taylor St/Hawthorn Rd (Brighton East)","-37.9040941933344","145.01859469276"
"18417","63-North Rd/Hawthorn Rd (Brighton East)","-37.9015699353616","145.019071826209"
"18418","62-Gardenvale Rd/Hawthorn Rd (Caulfield South)","-37.8994958650403","145.019525482734"
"18419","61-Raynes St/Hawthorn Rd (Caulfield South)","-37.8967023261962","145.020066624959"
"18420","60-Dover St/Hawthorn Rd (Caulfield South)","-37.895058322177","145.020372232699"
"18421","59-Princes Park/Hawthorn Rd (Caulfield South)","-37.8931350787063","145.020685304602"
"18422","58-Sycamore St/Hawthorn Rd (Caulfield South)","-37.8899377125606","145.021328127566"
"18423","57-Glenhuntly Rd/Hawthorn Rd (Caulfield South)","-37.8870807213653","145.021848072136"
"18424","56-Lockhart St/Hawthorn Rd (Caulfield)","-37.8845838422531","145.022346966917"
"18425","55-Sylverly Gr/Hawthorn Rd (Caulfield)","-37.8825804731335","145.022718924465"
"18426","54-Glen Eira Rd/Hawthorn Rd (Caulfield)","-37.8801284344977","145.023205184034"
"18427","53-Crotonhurst Ave/Hawthorn Rd (Caulfield North)","-37.8774876116983","145.023719192313"
"18428","52-Halstead St/Hawthorn Rd (Caulfield North)","-37.8752509872003","145.024154146063"
"18429","51-Balaclava Rd/Hawthorn Rd (Caulfield North)","-37.8728884421459","145.024603802704"
"18430","50-Inkerman Rd/Hawthorn Rd (Caulfield North)","-37.8696990890386","145.025189186653"
"18431","49-Wanda Rd/Hawthorn Rd (Caulfield North)","-37.8679923854162","145.025518951528"
"18432","48A-Dandenong Rd/Hawthorn Rd (Caulfield North)","-37.8658991093827","145.025904486581"
"18437","44-Bailey Ave/Dandenong Rd (Armadale)","-37.8646180957159","145.023676576505"
"18438","43-Matlock Ct/Dandenong Rd (Armadale)","-37.8638224720688","145.021913183252"
"18439","42-Kooyong Rd/Dandenong Rd (Armadale)","-37.8625090302906","145.018833748922"
"18441","40-Wattletree Rd/Dandenong Rd (Armadale)","-37.860808186089","145.014696343366"
"18443","38-Orrong Rd/Dandenong Rd (Armadale)","-37.8603013981425","145.010833920435"
"18444","37-Lansdowne Rd/Dandenong Rd (Prahran)","-37.8598267016304","145.007277584972"
"18445","36-Alexandra St/Dandenong Rd (Prahran)","-37.8594247781098","145.004299024122"
"18446","35-Williams Rd/Dandenong Rd (Prahran)","-37.8590734124182","145.001648757502"
"18447","34-Westbury St/Dandenong Rd (St Kilda East)","-37.8585079035247","144.997538051526"
"18448","33-Hornby St/Dandenong Rd (Windsor)","-37.8582791841018","144.995748367"
"18449","32-Chapel St/Dandenong Rd (Windsor)","-37.8574260047319","144.99169102666"
"18450","115-Casino/Southbank/Queens Bridge St (Southbank)","-37.8217114589476","144.961224647748"
"18451","64-Darling Rd/Waverley Rd (Malvern East)","-37.877268865229","145.058765199666"
"18452","63-Hughes St/Waverley Rd (Malvern East)","-37.8771029896018","145.056904990124"
"18453","62-Macgregor St/Waverley Rd (Malvern East)","-37.8768732783491","145.055000991536"
"18454","61-Tennyson St/Waverley Rd (Malvern East)","-37.8763758510286","145.051080341314"
"18455","60-Burke Rd/Waverley Rd (Malvern East)","-37.8760508446434","145.048326211396"
"18456","59-Dandenong Rd/Waverley Rd (Caulfield East)","-37.8758435792758","145.045068755208"
"18457","57-Caulfield Railway Station/Derby Rd (Caulfield East)","-37.8764043464106","145.04193877863"
"18459","56-Caulfield Racecourse/Normanby Rd (Caulfield East)","-37.8753567990701","145.039101530512"
"18460","55-Balaclava Rd/Normanby Rd (Caulfield East)","-37.8744935892236","145.038135329903"
"18461","54-Kambrook Rd/Balaclava Rd (Caulfield East)","-37.874144769771","145.036132305669"
"18462","53-Caulfield Park/Balaclava Rd (Caulfield North)","-37.8736438707955","145.032041499049"
"18463","52-Caulfield Park Bowling Club/Balaclava Rd (Caulfield North)","-37.8731370601641","145.028144174684"
"18464","51-Hawthorn Rd/Balaclava Rd (Caulfield North)","-37.8727950786498","145.024947353927"
"18465","1-Flinders St/Queens Bridge St (Melbourne City)","-37.8194294268593","144.961105678988"
"18468","47-Caulfield Junior College/Balaclava Rd (Caulfield North)","-37.8722991449958","145.021174889251"
"18469","4-Collins St/William St (Melbourne City)","-37.8178188940397","144.959173353644"
"18479","50-Wharton St/Whitehorse Rd (Surrey Hills)","-37.8141062233783","145.091375899354"
"18481","22-Dorcas St/Eastern Rd (South Melbourne)","-37.8322296576342","144.964957353186"
"18482","23-Moray St/Park St (South Melbourne)","-37.8344724623746","144.96385036257"
"18483","24-Clarendon St/Park St (South Melbourne)","-37.8352034675969","144.961307745501"
"18484","25-Cecil St/Park St (South Melbourne)","-37.8359459837063","144.95891247788"
"18485","41-Maribyrnong Park/Maribyrnong Rd (Ascot Vale)","-37.7702967957006","144.902570689436"
"18486","42-Clyde St/Raleigh Rd (Maribyrnong)","-37.7698291901493","144.899087317594"
"18487","43-Van Ness Ave/Raleigh Rd (Maribyrnong)","-37.7695059139636","144.896122114149"
"18488","44-Warrs Rd/Raleigh Rd (Maribyrnong)","-37.7690570205089","144.892184195586"
"18489","45-Maribyrnong Community Centre/Raleigh Rd (Maribyrnong)","-37.7687394682671","144.889548112026"
"18490","46-Rosamond Rd/Raleigh Rd (Maribyrnong)","-37.7690029940959","144.887156614938"
"18491","48-Wests Rd/Raleigh Rd (Maribyrnong)","-37.7693804810929","144.882082675867"
"18492","49-Highpoint Shopping Centre/Wests Rd (Maribyrnong)","-37.7732858504732","144.882266408168"
"18493","50-Williamson Rd/Wests Rd (Maribyrnong)","-37.7749300643271","144.881992421634"
"18494","51-Williamson Rd/Rosamond Rd (Maidstone)","-37.7762933443159","144.885643401535"
"18495","52-River St/Rosamond Rd (Maribyrnong)","-37.7785023648488","144.885205778992"
"18496","53-Maribyrnong College/River St (Maribyrnong)","-37.7795454755236","144.888094029505"
"18497","54-Gordon St/River St (Maribyrnong)","-37.7799172509715","144.891239880395"
"18498","55-Lyric St/Gordon St (Maribyrnong)","-37.7821180351613","144.891347643817"
"18499","56-Edgewater Square/Gordon St (Maribyrnong)","-37.7844435616199","144.890872771593"
"18500","57-Titch St/Gordon St (Footscray)","-37.788799809469","144.890067579346"
"18501","58-Ballarat Rd/Gordon St (Footscray)","-37.7905509057733","144.889722516515"
"18505","59-Droop St/Ballarat Rd (Footscray)","-37.7923129221562","144.893510700869"
"18506","60-Tiernan St/Droop St (Footscray)","-37.7946192428221","144.895489330331"
"18507","61-Geelong Rd/Droop St (Footscray)","-37.796137947887","144.896763591665"
"18508","62-Nicholson St/Droop St (Footscray)","-37.799276221077","144.899411623325"
"18509","63-Leeds St/Hopkins St (Footscray)","-37.7998527797809","144.900917146808"
"18511","33-Chaucer St/Ascot Vale Rd (Moonee Ponds)","-37.7700534023976","144.924442690687"
"18512","34-Maribyrnong Rd/Ascot Vale Rd (Moonee Ponds)","-37.7724521582164","144.924023666149"
"18513","35-Moore St/Maribyrnong Rd (Moonee Ponds)","-37.7723398760832","144.921233975035"
"18515","37-Union Rd/Maribyrnong Rd (Moonee Ponds)","-37.7718115039935","144.916321621127"
"18516","38-Ferguson St/Maribyrnong Rd (Ascot Vale)","-37.7714149512623","144.912756616321"
"18517","39-Bowen St/Maribyrnong Rd (Moonee Ponds)","-37.7710270975166","144.90918005379"
"18518","40-Epsom Rd/Maribyrnong Rd (Ascot Vale)","-37.7706313395249","144.905671869778"
"18519","37-Maribyrnong Rd/Union Rd (Ascot Vale)","-37.7718701385719","144.91607021136"
"18520","36-St Leonards Rd/Union Rd (Ascot Vale)","-37.7737034056895","144.915780317421"
"18521","35-Munro St/Union Rd (Ascot Vale)","-37.7761027229309","144.915395031775"
"18522","34-Burrowes St/Union Rd (Ascot Vale)","-37.7786271344086","144.914949432846"
"18524","32-Sandown Rd/Epsom Rd (Ascot Vale)","-37.7826678972303","144.916675311185"
"18525","31-Racing Victoria/400 Epsom Rd (Flemington)","-37.7844251857291","144.918204282016"
"18526","30-Flemington Racecourse/Epsom Rd (Flemington)","-37.7859130396799","144.919786299787"
"18527","29-Flemington Racecourse/Racecourse Rd (Flemington)","-37.7874461163286","144.921889456058"
"18528","28-Smithfield Rd/Racecourse Rd (Flemington)","-37.7877413360257","144.925344562833"
"18529","26-Newmarket Plaza/Racecourse Rd (Kensington)","-37.7880743053534","144.928389850634"
"18530","25-Wellington St/Racecourse Rd (Flemington)","-37.7883540193018","144.930460084241"
"18531","24-Collett St/Racecourse Rd (Kensington)","-37.7885069098808","144.933521795017"
"18532","23-Stubbs St/Racecourse Rd (Flemington)","-37.788748515492","144.935479567202"
"18533","22-Boundary Rd/Racecourse Rd (North Melbourne)","-37.7892087048952","144.94014526012"
"18536","19-Abbotsford St Interchange/Abbotsford St (North Melbourne)","-37.793728975234","144.947162819947"
"18538","17-Canning St/Abbotsford St (North Melbourne)","-37.7967189448354","144.946534924683"
"18539","16-Haines St/Abbotsford St (North Melbourne)","-37.7979678073505","144.946318628585"
"18540","15-Arden St/Abbotsford St (North Melbourne)","-37.8006719079368","144.945834864528"
"18541","14-Abbotsford St/Queensberry St (North Melbourne)","-37.8026629387914","144.945802414164"
"18544","24-Elliott Ave/Royal Park (Parkville)","-37.7878780577301","144.949618546012"
"18545","25-State Netball Hockey Centre/Royal Park (Parkville)","-37.7843830036686","144.948670499631"
"18546","26-Melbourne Zoo/Royal Park (Parkville)","-37.7823750206183","144.949282393347"
"18547","27-Royal Park Station/Royal Park (Parkville)","-37.7808716041843","144.950924908276"
"18548","28-Park St/Royal Park (Parkville)","-37.7769174930869","144.949489992512"
"18550","30-Union Square Shopping Centre/Grantham St (Brunswick West)","-37.7724446569625","144.949318396074"
"18551","31-Dawson St/Grantham St (Brunswick West)","-37.7702981938879","144.949740987485"
"18553","33-Daly St/Dawson St (Brunswick)","-37.7695927397749","144.94442475252"
"18554","34-Smith St/Melville Rd (Brunswick West)","-37.7676139610294","144.943094570105"
"18555","35-Victoria St/Melville Rd (Brunswick West)","-37.7649116367367","144.943680279729"
"18556","36-Hope St/Melville Rd (Brunswick West)","-37.7621622898558","144.944153729554"
"18557","37-Albion St/Melville Rd (Brunswick West)","-37.7587395569857","144.94477063931"
"18560","40-Moreland Rd/Melville Rd (Brunswick West)","-37.7534290080524","144.945655363689"
"18563","43-Princes Tce/Melville Rd (Pascoe Vale South)","-37.7441223188957","144.944766516849"
"18564","44-Brearley Pde/Melville Rd (Pascoe Vale South)","-37.741965865023","144.945132574678"
"18566","51-Balwyn Rd/Doncaster Rd (Balwyn North)","-37.7946480802281","145.084631214901"
"18567","50-Dight Ave/Doncaster Rd (Balwyn North)","-37.7943716414894","145.08093609335"
"18568","49-Buchanan Ave/Doncaster Rd (Balwyn North)","-37.7939407239204","145.077721981573"
"18569","48-Osburn Ave/Doncaster Rd (Balwyn North)","-37.793411558256","145.074567241659"
"18570","47-North Balwyn Shopping Centre/Doncaster Rd (Balwyn North)","-37.7927268388024","145.07072385523"
"18571","46-Wattle Ave/Doncaster Rd (Balwyn North)","-37.793005793994","145.067400531095"
"18573","26-Ferrars St/Park St (South Melbourne)","-37.83663243366","144.956405081018"
"18574","43-Kew High School/High St (Kew East)","-37.7946997048905","145.061348723102"
"18575","42-Woodlands Ave/High St (Kew East)","-37.7963243537125","145.05767204718"
"18576","41-Station St/High St (Kew East)","-37.797965773335","145.05392662752"
"18577","40-Harp Village/High St (Kew East)","-37.7987211298783","145.052191859392"
"18578","39-Harp Rd/High St (Kew East)","-37.7995635325352","145.050273049413"
"18579","38-Victoria Park/High St (Kew East)","-37.801315971918","145.046172291303"
"18580","37-Kew Cemetery/High St (Kew)","-37.8025822627309","145.042652069325"
"18581","36-Gladstone St/High St (Kew)","-37.8035387125788","145.040014485951"
"18582","35-Charles St/High St (Kew)","-37.8050124828236","145.035977441083"
"18583","34-Union St/High St (Kew)","-37.805640127381","145.034166204928"
"18584","33-Kew Shopping Centre/High St (Kew)","-37.8066738452287","145.031310542664"
"18588","25-Brook St/Church St (Hawthorn)","-37.8157558782666","145.020981776622"
"18589","24-Hill St/Church St (Hawthorn)","-37.8179713527907","145.018752819938"
"18591","65-Victoria St/Church St (Richmond)","-37.8107258278768","145.000624428984"
"18592","64-Elizabeth St/Church St (Richmond)","-37.8125924856365","145.000165137604"
"18593","63-Tweedie Pl/Church St (Richmond)","-37.8143179106696","144.999880026309"
"18594","62-Highett St/Church St (Richmond)","-37.8159618792762","144.999574379231"
"18595","61-Bridge Rd/Church St (Richmond)","-37.8187291036681","144.999079343986"
"18596","60-Abinger St/Church St (Richmond)","-37.8203015856985","144.998809668777"
"18597","59-St Ignatius Church/Church St (Richmond)","-37.8218380357494","144.99854095401"
"18598","58-Gipps St/Church St (Richmond)","-37.824057521806","144.998162882355"
"18599","57-Swan St/Church St (Richmond)","-37.825781970696","144.997820888066"
"18601","55-Adelaide St/Church St (Cremorne)","-37.8289717661741","144.997268832342"
"18602","54-Cotter St/Church St (Cremorne)","-37.8303311472776","144.997186626684"
"18603","53-Howard St/Church St (Richmond)","-37.8326675296013","144.996793935274"
"18605","51-Malcolm St/Chapel St (South Yarra)","-37.8363636741965","144.996341697966"
"18606","50-Toorak Rd/Chapel St (South Yarra)","-37.8396477024843","144.995502842379"
"18607","49-Palermo St/Chapel St (South Yarra)","-37.8415724307938","144.995280275108"
"18608","48-Cliff St/Chapel St (South Yarra)","-37.8438326750811","144.994650864592"
"18609","47-Commercial Rd/Chapel St (Prahran)","-37.8469762394048","144.994031567932"
"18610","46-Chatham St/Chapel St (Prahran)","-37.8491060059051","144.993678360375"
"18611","45-High St/Chapel St (Prahran)","-37.8519559896141","144.993282870626"
"18612","44-Duke St/Chapel St (Windsor)","-37.8541020226226","144.992826879242"
"18613","43-Windsor Railway Station/Chapel St (Windsor)","-37.8562404011835","144.992450628088"
"18614","42-Dandenong Rd/Chapel St (St Kilda East)","-37.8579205539782","144.992154985004"
"18615","41-St Michaels Grammar School/Chapel St (St Kilda)","-37.8595288385058","144.991872643898"
"18616","40-Alma Rd/Chapel St (St Kilda East)","-37.8615773288683","144.991510137615"
"18617","39-Argyle St/Chapel St (St Kilda East)","-37.8633922021748","144.991188053912"
"18618","38-Inkerman St/Chapel St (St Kilda East)","-37.8654401062017","144.990791418645"
"18619","37-Chapel St/Carlisle St (Balaclava)","-37.8682495743369","144.990135342766"
"18620","36-St Kilda Town Hall/Carlisle St (St Kilda)","-37.8680896152362","144.988684612135"
"18621","37-Carlisle St/Chapel St (St Kilda)","-37.8684765092384","144.990231486673"
"18622","36-Brighton Rd/Chapel St (St Kilda)","-37.8710911053768","144.989773915158"
"18623","35-St Kilda Rd/Carlisle St (St Kilda)","-37.8678280964868","144.98656595474"
"18624","34-Greeves St/Carlisle St (St Kilda)","-37.8674778827283","144.98400639009"
"18625","33-Barkly St/Carlisle St (St Kilda)","-37.8670673324762","144.981084733389"
"18632","38-Balaclava Station/Carlisle St (Balaclava)","-37.8688061534855","144.994235400325"
"18633","39-Orange Gr/Carlisle St (Balaclava)","-37.869070243738","144.996513196934"
"18634","40-Hotham St/Carlisle St (Balaclava)","-37.8694328664005","144.999288537143"
"18635","41-Empress Rd/Balaclava Rd (St Kilda East)","-37.869706060393","145.001577494854"
"18636","42-Sidwell Ave/Balaclava Rd (Caulfield North)","-37.8701660070026","145.005316551372"
"18637","43-Orrong Rd/Balaclava Rd (Caulfield North)","-37.8705527854353","145.008466479524"
"18638","44-Ontario St/Balaclava Rd (Caulfield North)","-37.8710692482078","145.012363262445"
"18639","45-Lumeah Rd/Balaclava Rd (Caulfield North)","-37.8713435323053","145.014731872539"
"18640","46-Kooyong Rd/Balaclava Rd (Caulfield North)","-37.871725659401","145.017620555848"
"18641","47-Elmhurst Rd/Balaclava Rd (Caulfield North)","-37.8721446765192","145.0210994432"
"18645","51-Hawthorn Rd/Balaclava Rd (Caulfield North)","-37.8725701199242","145.024430409025"
"18646","52-Caulfield Park Bowling Club/Balaclava Rd (Caulfield North)","-37.8730806690068","145.028543580246"
"18647","53-Caulfield Park/Balaclava Rd (Caulfield North)","-37.873396365054","145.031252278024"
"18648","54-Kambrook Rd/Balaclava Rd (Caulfield North)","-37.8739593041396","145.035818905419"
"18649","55-Normanby Rd/Balaclava Rd (Caulfield North)","-37.8741979510685","145.037699789503"
"18650","56-Caulfield Racecourse/Normanby Rd (Caulfield North)","-37.8754157684583","145.039395560857"
"18651","57-Caulfield Railway Station/Derby Rd (Caulfield East)","-37.8763999974","145.041677403112"
"18652","58-Dandenong Rd/Derby Rd (Caulfield North)","-37.8757092321314","145.041866233101"
"18653","59-Dandenong Rd/Waverley Rd (Malvern East)","-37.8757604322604","145.044945893703"
"18654","60-Burke Rd/Waverley Rd (Malvern East)","-37.8758929994823","145.048046150235"
"18655","61-Tennyson St/Waverley Rd (Malvern East)","-37.8762472943681","145.050935930707"
"18656","62-The Avenue/Waverley Rd (Malvern East)","-37.876696869327","145.054687293494"
"18657","63-Oak Gr/Waverley Rd (Malvern East)","-37.8769168269615","145.056546065792"
"18658","27-Park St/Montague St (South Melbourne)","-37.837521926021","144.954176103245"
"18659","28-Montague St/Bridport St (Albert Park)","-37.8406789927993","144.95538430779"
"18660","29-Bridport St/Victoria Ave (Albert Park)","-37.8415626137144","144.953337174597"
"18661","30-Richardson St/Victoria Ave (Albert Park)","-37.8439420130323","144.951282689199"
"18662","31-Graham St/Victoria Ave (Albert Park)","-37.8456739260667","144.949825585401"
"18663","32-Beaconsfield Pde/Victoria Ave (Albert Park)","-37.8471237204084","144.948728530957"
"18699","124-Walsh St/Toorak Rd (South Yarra)","-37.8381903032441","144.984565450662"
"18700","125-Punt Rd/Toorak Rd (South Yarra)","-37.8384167758731","144.986741024869"
"18703","127-South Yarra Railway Station/Toorak Rd (South Yarra)","-37.8391312147682","144.992164637961"
"18704","128-Chapel St/Toorak Rd (South Yarra)","-37.8395889036602","144.995754429505"
"18705","129-Tivoli Rd/Toorak Rd (South Yarra)","-37.8399268089112","144.998665695402"
"18706","130-Hawksburn Rd/Toorak Rd (South Yarra)","-37.840367635577","145.002335568977"
"18707","131-Williams Rd/Toorak Rd (Toorak)","-37.8407253196035","145.005360001571"
"18708","132-Toorak Village/Toorak Rd (Toorak)","-37.8410930873424","145.008452375512"
"18709","133-Canterbury Rd/Toorak Rd (Toorak)","-37.8413865911029","145.010887680221"
"18710","43-Deepdene Shopping Centre/Whitehorse Rd (Balwyn)","-37.8109251083011","145.064877385056"
"18712","120-Brunswick Rd/Lygon St (Brunswick)","-37.7784552218973","144.97063402343"
"18713","121-Weston St/Lygon St (Brunswick East)","-37.7756673701865","144.970971395206"
"18714","122-Glenlyon Rd/Lygon St (Brunswick East)","-37.7727371530937","144.971414806368"
"18715","123-Albert St/Lygon St (Brunswick East)","-37.7697814721327","144.971949694329"
"18716","124-Victoria St/Lygon St (Brunswick East)","-37.7682002377273","144.972231297201"
"18717","125-Blyth St/Lygon St (Brunswick East)","-37.7666640399093","144.972511656487"
"18718","126-Stewart St/Lygon St (Brunswick East)","-37.764426809528","144.972901960098"
"18719","127-Albion St/Lygon St (Brunswick East)","-37.7623693382071","144.973264627087"
"18720","128-Mitchell St/Holmes St (Brunswick East)","-37.7593867796572","144.97433358207"
"18721","129-Moreland Rd/Holmes St (Brunswick)","-37.7568796992021","144.97475384338"
"18722","130-Barrow St/Moreland Rd (Coburg)","-37.7562057262277","144.970152531973"
"18723","131-De Carle St/Moreland Rd (Coburg)","-37.7558096407272","144.966519839367"
"18724","132-Sydney Rd/Moreland Rd (Coburg)","-37.7555636714998","144.964279178773"
"18725","133-Moreland Station/Moreland Rd (Coburg)","-37.7552604943155","144.96238061662"
"18726","130-The Avenue/Nicholson St (Coburg)","-37.7535657870341","144.975945182351"
"18727","131-Rennie St/Nicholson St (Coburg)","-37.7513404661078","144.976505218934"
"18728","132-Crozier St/Nicholson St (Coburg)","-37.7494176998587","144.97684133757"
"18729","133-Harding St/Nicholson St (Coburg)","-37.7463707271779","144.977310189942"
"18730","134-Merribell Ave/Nicholson St (Coburg)","-37.7443592421389","144.977728115884"
"18732","44-Deepdene Park/Whitehorse Rd (Balwyn)","-37.8113749003676","145.068670976708"
"18733","45-Hardwicke St/Whitehorse Rd (Balwyn)","-37.8117503613007","145.071784993009"
"18734","46-Balwyn Cinema/Whitehorse Rd (Balwyn)","-37.8122417172593","145.075929733415"
"18735","47-Balwyn Rd/Whitehorse Rd (Balwyn)","-37.8129187627106","145.081523733038"
"18736","48-Balwyn Shopping Centre/Whitehorse Rd (Balwyn)","-37.8131989588091","145.083788383113"
"18737","49-Northcote Ave/Whitehorse Rd (Balwyn)","-37.8136902651194","145.08795601163"
"18738","51-Narrak Rd/Whitehorse Rd (Mont Albert)","-37.8145641781887","145.095169619074"
"18781","134-Orrong Rd/Toorak Rd (Toorak)","-37.8417553648268","145.014048267462"
"18782","135-Woorigoleen Rd/Toorak Rd (Toorak)","-37.8421663982819","145.017582763006"
"18783","136-Irving Rd/Toorak Rd (Toorak)","-37.842460861303","145.020086300228"
"18784","137-Kooyong Rd/Toorak Rd (Toorak)","-37.8428443540781","145.023064766889"
"18785","138-Moonga Rd/Toorak Rd (Toorak)","-37.8432312005568","145.026247728844"
"18786","139-Glenbervie Rd/Toorak Rd (Toorak)","-37.8436154182831","145.02981717481"
"18789","112-Lygon St/Elgin St (Carlton)","-37.7971128122442","144.967159382059"
"18790","113-Lytton St/Lygon St (Carlton)","-37.7941268220161","144.968024826119"
"18791","114-Princes St/Lygon St (Carlton North)","-37.792689141354","144.968268627874"
"18792","115-Melbourne Cemetery/Lygon St (Carlton North)","-37.7895801678204","144.968796663836"
"18793","116-Fenwick St/Lygon St (Carlton North)","-37.7873699872764","144.969186491288"
"18794","117-Richardson St/Lygon St (Carlton North)","-37.784036011472","144.96973195313"
"18795","118-Pigdon St/Lygon St (Carlton North)","-37.7819241250575","144.970073608606"
"18899","26-Alfred Hospital/Commercial Rd (South Yarra)","-37.8452784977421","144.982224629844"
"18918","27-Punt Rd/Commercial Rd (South Yarra)","-37.8456300906103","144.984862934232"
"18923","28-Braille Library/Commercial Rd (South Yarra)","-37.8458990033426","144.987412597577"
"18931","29-Porter St/Commercial Rd (South Yarra)","-37.846313641237","144.990583367726"
"18933","30-Prahran Market/Commercial Rd (South Yarra)","-37.846540687392","144.992270511911"
"18934","31-Chapel St/Commercial Rd (South Yarra)","-37.8467596699227","144.994014707992"
"18935","32-Surrey Rd/Malvern Rd (South Yarra)","-37.847292851484","144.997807400891"
"18936","33-Francis St/Malvern Rd (South Yarra)","-37.8476529136599","145.000434263634"
"18937","34-Williams Rd/Malvern Rd (South Yarra)","-37.8480037175439","145.003050037989"
"18938","35-Mathoura Rd/Malvern Rd (Toorak)","-37.8484798725151","145.006685293031"
"18939","36-A'Beckett St/Malvern Rd (Toorak)","-37.848923324685","145.009991894365"
"18940","37-Orrong Rd/Malvern Rd (Toorak)","-37.8491928416877","145.012075793724"
"18941","38-Clendon Rd/Malvern Rd (Toorak)","-37.849617745661","145.015360229143"
"18942","39-Irving Rd/Malvern Rd (Toorak)","-37.8500521403419","145.018678544963"
"18943","40-Kooyong Rd/Malvern Rd (Toorak)","-37.8504027342801","145.021305868207"
"18944","41-Albany Rd/Malvern Rd (Toorak)","-37.8507626593922","145.023955698564"
"18945","42-Lauriston Girls School/Malvern Rd (Toorak)","-37.851051661893","145.026141472152"
"18946","43-Glenferrie Rd/Malvern Rd (Toorak)","-37.8515466482599","145.029867458764"
"18947","44-Plant St/Malvern Rd (Malvern)","-37.8518969952407","145.032494898837"
"18948","45-Elizabeth St/Malvern Rd (Malvern)","-37.8522593259901","145.035303893569"
"18949","46-Meredith St/Malvern Rd (Malvern)","-37.8527844554538","145.039233787824"
"18950","47-Tooronga Rd/Malvern Rd (Malvern)","-37.8531276665807","145.041986529882"
"18951","48-Edgar St/Malvern Rd (Malvern)","-37.8535564610825","145.045555364265"
"18952","49-Kenilworth Gr/Malvern Rd (Malvern)","-37.853899714247","145.048319531445"
"18953","50-Burke Rd/Malvern Rd (Malvern)","-37.8543217372174","145.051490818937"
"18954","51-Gardiner Railway Station/Burke Rd (Hawthorn East)","-37.8528544212179","145.052677373871"
"18955","52-Harris Ave/Burke Rd (Hawthorn East)","-37.8497784136696","145.053042434127"
"18957","54-Toorak Rd/Burke Rd (Glen Iris)","-37.8457999273983","145.053874405179"
"18958","55-Middle Rd/Burke Rd (Hawthorn East)","-37.8437964172957","145.054245271951"
"18959","56-Anderson Rd/Burke Rd (Hawthorn East)","-37.8418561480772","145.054625818386"
"18960","57-Pine Ave/Burke Rd (Hawthorn East)","-37.8402572398414","145.054940557117"
"18961","58-Leura Gr/Burke Rd (Hawthorn East)","-37.8381640188493","145.055336443408"
"18962","59-Pleasant Rd/Burke Rd (Hawthorn East)","-37.8354145278276","145.055829075546"
"18964","61-Riversdale Rd/Burke Rd (Hawthorn East)","-37.8315696237988","145.056566298142"
"18965","62-Camberwell Shopping Centre/755 Burke Rd (Hawthorn East)","-37.8302039752526","145.056818011573"
"18966","63-Prospect Hill Rd/Burke Rd (Hawthorn East)","-37.8282190246689","145.057222300586"
"18967","64-Camberwell Station/Burke Rd (Hawthorn East)","-37.8260539119746","145.057631289595"
"18969","66-Rathmines Rd/Burke Rd (Hawthorn East)","-37.8214806497233","145.058466917176"
"18970","67-Camberwell Girls Grammar/Burke Rd (Hawthorn East)","-37.8185885015994","145.059053914387"
"18971","68-Mont Albert Rd/Burke Rd (Kew)","-37.8159921150376","145.059542237365"
"18972","69-Sackville St/Burke Rd (Kew)","-37.8141321360376","145.059874929881"
"18973","36-St Kilda Primary School/Brighton Rd (Balaclava)","-37.870058575252","144.988415072862"
"18974","37-Chapel St/Brighton Rd (Balaclava)","-37.8717712137282","144.9894939561"
"18975","38-Brunning St/Brighton Rd (Balaclava)","-37.8728003223432","144.99012535189"
"18976","39-Glen Eira Rd/Brighton Rd (Balaclava)","-37.8766355539546","144.992545048148"
"18977","40-Scott St/Brighton Rd (Balaclava)","-37.8788858028708","144.993973350569"
"18978","41-Coleridge St/Brighton Rd (Balaclava)","-37.8807984975096","144.995160755396"
"18979","42-Hotham St/Brighton Rd (Balaclava)","-37.8829570942516","144.996500736004"
"18980","43-Brighton Rd/Glenhuntly Rd (Elsternwick)","-37.8837999932146","144.997842317854"
"18981","44-Elsternwick Railway Station/Glenhuntly Rd (Elsternwick)","-37.8841495365907","145.000379793258"
"18982","45-Elsternwick Shopping Centre/Glenhuntly Rd (Elsternwick)","-37.8846133432047","145.003812464922"
"18983","46-Orrong Rd/Glenhuntly Rd (Elsternwick)","-37.8848617063577","145.005704614646"
"18984","47-Shoobra Rd/Glenhuntly Rd (Elsternwick)","-37.8852711213931","145.009127449904"
"18985","48-Parkside St/Glenhuntly Rd (Elsternwick)","-37.885648615833","145.012266919693"
"18986","49-Kooyong Rd/Glenhuntly Rd (Elsternwick)","-37.8859629714235","145.014873700607"
"18987","50-Royal Pde/Glenhuntly Rd (Caulfield)","-37.8863907119689","145.018330262858"
"19000","67-Rogers Ave/Hawthorn Rd (Brighton East)","-37.9110783802344","145.017531485414"
"19001","66-Union St/Hawthorn Rd (Brighton East)","-37.9085173350363","145.017964201952"
"19002","65-Davey Ave/Hawthorn Rd (Brighton East)","-37.9063696804151","145.018328925217"
"19003","64-Taylor St/Hawthorn Rd (Brighton East)","-37.9037823715805","145.018807776984"
"19004","63-North Rd/Hawthorn Rd (Brighton East)","-37.9011958242484","145.019332062502"
"19005","62-Gardenvale Rd/Hawthorn Rd (Caulfield South)","-37.8989688136416","145.019801180754"
"19006","61-Stone St/Hawthorn Rd (Caulfield South)","-37.8965522561103","145.020252601934"
"19007","60-Dover St/Hawthorn Rd (Caulfield South)","-37.8948810372102","145.020547561835"
"19008","59-Princes Park/Hawthorn Rd (Caulfield South)","-37.8930396268474","145.020903923296"
"19009","58-Sycamore St/Hawthorn Rd (Caulfield South)","-37.8896080594236","145.021553005294"
"19010","57-Glenhuntly Rd/Hawthorn Rd (Caulfield)","-37.8866613719451","145.022098079946"
"19011","56-Briggs St/Hawthorn Rd (Caulfield)","-37.8848377766799","145.022442506967"
"19012","55-Sylverly Gr/Hawthorn Rd (Caulfield North)","-37.882448603715","145.022915742565"
"19013","54-Glen Eira Rd/Hawthorn Rd (Caulfield North)","-37.8799335100543","145.023403680338"
"19014","53-Northcote Ave/Hawthorn Rd (Caulfield North)","-37.8772116166384","145.023919846525"
"19015","52-Halstead St/Hawthorn Rd (Caulfield North)","-37.8749389602034","145.024355754896"
"19016","51-Balaclava Rd/Hawthorn Rd (Caulfield North)","-37.8724414888382","145.024820375023"
"19017","50-Inkerman Rd/Hawthorn Rd (Caulfield North)","-37.8695135490161","145.025410134126"
"19018","49-Arthur St/Hawthorn Rd (Caulfield North)","-37.8676899345509","145.025754381235"
"19019","48-Hawthorn Rd/Dandenong Rd (Caulfield North)","-37.8654282291711","145.025769276383"
"19023","44-Bailey Ave/Dandenong Rd (Armadale)","-37.8645577124979","145.023837332042"
"19024","43-Egerton Rd/Dandenong Rd (Armadale)","-37.8637887325406","145.022050491669"
"19025","42-Kooyong Rd/Dandenong Rd (Armadale)","-37.8625695782844","145.019218605212"
"19027","40-Wattletree Rd/Dandenong Rd (Armadale)","-37.8608252416017","145.01517328785"
"19028","38-Orrong Rd/Dandenong Rd (Prahran)","-37.8602701673244","145.011118925761"
"19029","37-Lansdowne Rd/Dandenong Rd (St Kilda East)","-37.8598039100967","145.007528262894"
"19030","36-Closeburn Ave/Dandenong Rd (St Kilda East)","-37.8593945261227","145.004640834535"
"19031","35-Williams Rd/Dandenong Rd (Prahran)","-37.8590625333257","145.002069609047"
"19032","34-The Avenue/Dandenong Rd (Windsor)","-37.8584126084986","144.997233740058"
"19033","33-Hornby St/Dandenong Rd (Windsor)","-37.858206156099","144.995693513789"
"19034","32-Chapel St/Dandenong Rd (Windsor)","-37.8574942910816","144.99199605969"
"19035","31-Queens Way/Queens Way (Windsor)","-37.856154261779","144.987406480348"
"19036","70-Cotham Rd/Burke Rd (Kew)","-37.8108727029148","145.060596362879"
"19037","69-Peverill St/Burke Rd (Balwyn)","-37.8141082922824","145.060068667587"
"19038","68-Mont Albert Rd/Burke Rd (Camberwell)","-37.8157434461329","145.059764586304"
"19039","67-Camberwell Girls Grammar/Burke Rd (Canterbury)","-37.8184922212526","145.059226840723"
"19040","66-Canterbury Rd/Burke Rd (Camberwell)","-37.8212865932263","145.058721938192"
"19041","65-Victoria Rd/Burke Rd (Camberwell)","-37.8234336969988","145.058313485493"
"19042","64-Camberwell Station/Burke Rd (Camberwell)","-37.8259668296706","145.057815355893"
"19043","63-Prospect Hill Rd/Burke Rd (Camberwell)","-37.828024222305","145.05743192138"
"19044","61-Camberwell Junction/Burke Rd (Camberwell)","-37.8310875054675","145.056840279961"
"19046","59-Seymour Gr/Burke Rd (Camberwell)","-37.8351932675924","145.056073504272"
"19047","58-Currajong Ave/Burke Rd (Camberwell)","-37.8380859491497","145.055520306426"
"19048","57-Pine Ave/Burke Rd (Camberwell)","-37.8400622553708","145.055138860544"
"19049","56-Anderson Rd/Burke Rd (Camberwell)","-37.8415894762075","145.054848738236"
"19050","55-Middle Rd/Burke Rd (Camberwell)","-37.8436556697339","145.054453525864"
"19051","54-Toorak Rd/Burke Rd (Camberwell)","-37.8456141410828","145.054083849542"
"19053","52-Bickleigh St/Burke Rd (Glen Iris)","-37.8498805068575","145.053221590132"
"19054","51-Gardiner Station/Burke Rd (Glen Iris)","-37.8529623281635","145.052663168923"
"19056","50-Glenarm Rd/Malvern Rd (Glen Iris)","-37.8544176269081","145.051295075595"
"19057","49-Belmont Ave/Malvern Rd (Glen Iris)","-37.8540455356066","145.048417977268"
"19058","48-Edgar St/Malvern Rd (Glen Iris)","-37.8537323260003","145.045834861624"
"19059","47-Tooronga Rd/Malvern Rd (Glen Iris)","-37.8533041065414","145.042300098639"
"19060","46-Shaftesbury Ave/Malvern Rd (Malvern)","-37.8528587127326","145.038822661161"
"19061","45-Elizabeth St/Malvern Rd (Malvern)","-37.8524338873479","145.035503837709"
"19062","44-Plant St/Malvern Rd (Malvern)","-37.8520837965043","145.032887721824"
"19063","43-Glenferrie Rd/Malvern Rd (Malvern)","-37.8517234997798","145.030203711227"
"19064","42-Lauriston Girls School/Malvern Rd (Armadale)","-37.8511900166161","145.026330991536"
"19065","41-Murray St/Malvern Rd (Malvern)","-37.8508791880994","145.023918491684"
"19066","40-Kooyong Rd/Malvern Rd (Toorak)","-37.8505878536196","145.021596413052"
"19067","39-Densham Rd/Malvern Rd (Toorak)","-37.8501560262237","145.01842573207"
"19068","38-Clendon Rd/Malvern Rd (Toorak)","-37.8497932969892","145.015616917301"
"19069","37-Orrong Rd/Malvern Rd (Toorak)","-37.8493797093521","145.012468548068"
"19070","51-Hawthorn Rd/Glenhuntly Rd (Caulfield)","-37.8868089622137","145.021764379373"
"19071","52-Jasmine St/Glenhuntly Rd (Caulfield)","-37.8871099036274","145.024121446577"
"19072","53-Glenhuntly Tram Depot/Glenhuntly Rd (Caulfield)","-37.8874514036043","145.02675035089"
"19073","54-Bambra Rd/Glenhuntly Rd (Caulfield)","-37.8876731402947","145.028688850249"
"19074","55-Fallon St/Glenhuntly Rd (Caulfield)","-37.8879306860778","145.030615036731"
"19075","56-Kambrook Rd/Glenhuntly Rd (Caulfield)","-37.8882513674285","145.033085363076"
"19076","57-Clarke Ave/Glenhuntly Rd (Caulfield East)","-37.8885015423876","145.035114116219"
"19077","58-Booran Rd/Glenhuntly Rd (Caulfield East)","-37.8887943487838","145.037539738627"
"19078","60-Glenhuntly Shops/Glenhuntly Rd (Caulfield East)","-37.8891316550578","145.040475901269"
"19079","61-Glen Huntly Railway Station/Glen Huntly Rd (Caulfield South)","-37.8893073028647","145.041824410744"
"19081","62-Grange Rd/Glenhuntly Rd (Caulfield East)","-37.8896326624621","145.044590363136"
"19082","63-Maroona Rd/Glenhuntly Rd (Carnegie)","-37.8899382445095","145.04725452222"
"19083","64-Mernda Ave/Glenhuntly Rd (Carnegie)","-37.8902366082396","145.049486785265"
"19084","65-Mimosa Rd/Glenhuntly Rd (Carnegie)","-37.8905174789653","145.051753642235"
"19085","66-Truganini Rd/Glenhuntly Rd (Carnegie)","-37.8907810426204","145.054066458455"
"19086","67-Centre Rd/Truganini Rd (Carnegie)","-37.8926535626736","145.054494762706"
"19087","64-Baker St/Church St (Richmond)","-37.812254435639","145.000424162544"
"19088","63-Kent St/Church St (Richmond)","-37.8143296183856","145.00003874401"
"19089","62-Highett St/Church St (Richmond)","-37.8157489742457","144.99977324265"
"19090","61-Bridge Rd/Church St (Richmond)","-37.8184263160619","144.999292003764"
"19091","60-Abinger St/Church St (Richmond)","-37.8203221098884","144.998956800493"
"19092","59-St Ignatius Church/Church St (Richmond)","-37.8217418467799","144.998713962808"
"19093","58-Gipps St/Church St (Richmond)","-37.823727327574","144.998353580674"
"19094","57-Swan St/Church St (Richmond)","-37.8255512476413","144.998031626954"
"19095","56-East Richmond Railway Station/Church St (Richmond)","-37.8266384699156","144.99784318342"
"19096","55-Gibbons St/Church St (Richmond)","-37.8287676811395","144.997456138762"
"19097","54-Balmain St/Church St (Richmond)","-37.8304715985788","144.996966950233"
"19098","53-Howard St/Church St (Richmond)","-37.8328265749583","144.99660783509"
"19100","51-Malcolm St/Chapel St (South Yarra)","-37.8369443368435","144.996041910312"
"19101","50-Toorak Rd/Chapel St (South Yarra)","-37.8393460847083","144.995783729323"
"19102","49-Arthur St/Chapel St (South Yarra)","-37.8420267894211","144.994972513077"
"19103","48-Wilson St/Chapel St (South Yarra)","-37.8436385709593","144.994894767515"
"19104","47-Malvern Rd/Chapel St (South Yarra)","-37.8467006815162","144.994254961325"
"19105","46-Chatham St/Chapel St (Prahran)","-37.8489479349016","144.993921307202"
"19106","45-High St/Chapel St (Prahran)","-37.8517252781626","144.993493701506"
"19107","44-Duke St/Chapel St (Prahran)","-37.8539886045331","144.993045902504"
"19108","43-Windsor Railway Station/Chapel St (Prahran)","-37.8561265965407","144.992646936971"
"19109","42-Dandenong Rd/Chapel St (Prahran)","-37.8574203932919","144.992418612893"
"19110","41-St Michaels Grammar School/Chapel St (St Kilda East)","-37.8593791987042","144.99208130161"
"19111","40-Alma Rd/Chapel St (St Kilda East)","-37.8613738384252","144.991731630607"
"19112","39-Argyle St/Chapel St (St Kilda East)","-37.863323632047","144.991394523042"
"19113","38-Inkerman St/Chapel St (St Kilda East)","-37.8652009752919","144.991036628319"
"19115","36-St Kilda Town Hall/Carlisle St (St Kilda)","-37.8682260874983","144.988760475647"
"19116","37-Carlisle St/Chapel St (St Kilda)","-37.868210357313","144.990477442805"
"19118","35-Brighton Rd/Carlisle St (St Kilda)","-37.8680813364844","144.987673104101"
"19119","34-Mitchell St/Carlisle St (St Kilda)","-37.8675943964705","144.983969111243"
"19123","36-Canterbury Rd/Malvern Rd (Toorak)","-37.8489480230832","145.009320702226"
"19124","35-Lorne Rd/Malvern Rd (Toorak)","-37.8485937018973","145.006489025512"
"19125","34-Williams Rd/Malvern Rd (Toorak)","-37.8481900365363","145.003408683336"
"19126","33-Hobson St/Malvern Rd (South Yarra)","-37.8478814439351","145.001155430987"
"19127","32-Bendigo St/Malvern Rd (Prahran)","-37.8474500381547","144.998041806299"
"19128","31-Chapel St/Malvern Rd (Prahran)","-37.8469342984255","144.994214537294"
"19129","30-Prahran Market/Commercial Rd (Prahran)","-37.8467055362461","144.992425143675"
"19130","29-Porter St/Commercial Rd (Prahran)","-37.8465141347354","144.990714298728"
"19131","28-Braille Library/Commercial Rd (Prahran)","-37.8460726716226","144.987555612942"
"19132","27-Punt Rd/Commercial Rd (Prahran)","-37.8457702592073","144.98515459154"
"19133","26-Alfred Hospital/Commercial Rd (Prahran)","-37.8453611231497","144.982313291874"
"19135","33-Barkly St/Carlisle St (St Kilda)","-37.8672527445218","144.981386599004"
"19136","32-Havelock St/Carlisle St (St Kilda)","-37.8670424411412","144.978584537723"
"19250","13-Curzon St/Queensberry St (North Melbourne)","-37.8028264503094","144.94794448714"
"19251","12-North Melbourne Town Hall/Queensberry St (North Melbourne)","-37.8029870715557","144.949405186951"
"19253","14-Royal Melbourne Hospital/Flemington Rd (Parkville)","-37.7994776707423","144.954885554567"
"19256","19-Royal Childrens Hospital/Flemington Rd (North Melbourne)","-37.7942815777317","144.948362656125"
"19259","22-Flemington Bridge Station/Flemington Rd (North Melbourne)","-37.7882762269742","144.940931970457"
"19260","23-Flemington Community Centre/Mt Alexander Rd (Flemington)","-37.7859273818626","144.939055449337"
"19261","24-Mooltan St/Mt Alexander Rd (Flemington)","-37.7839358226898","144.936998788049"
"19262","25-Mount Alexander College/Mt Alexander Rd (Flemington)","-37.7824403340823","144.933940582442"
"19263","26-Wellington St/Mt Alexander Rd (Flemington)","-37.7811195768605","144.932626195249"
"19264","27-Essendon Tram Depot/Mt Alexander Rd (Ascot Vale)","-37.7794367181809","144.931219762945"
"19265","28-Middle St/Mt Alexander Rd (Ascot Vale)","-37.7774568012461","144.929833034342"
"19266","29-Warrick St/Mt Alexander Rd (Ascot Vale)","-37.7755415175034","144.92853540122"
"19267","30-Ormond Rd/Mt Alexander Rd (Moonee Ponds)","-37.7724308622352","144.926907922291"
"19268","31-Montgomery St/Mt Alexander Rd (Moonee Ponds)","-37.7705985972162","144.926232526283"
"19269","32-Moonee Ponds Junction/Pascoe Vale Rd (Moonee Ponds)","-37.7669346565477","144.924915868237"
"19270","34-Moonee Valley Civic Centre/Pascoe Vale Rd (Moonee Ponds)","-37.7643127084652","144.925454579183"
"19271","35-Queens Park/Pascoe Vale Rd (Moonee Ponds)","-37.7625256420642","144.925811004811"
"19272","36-Salisbury St/Pascoe Vale Rd (Moonee Ponds)","-37.7597403555784","144.926286100142"
"19274","38-Pascoe Vale Rd/Fletcher St (Essendon)","-37.7558119710615","144.925816929405"
"19275","39-Hoddle St/Fletcher St (Essendon)","-37.7554697654223","144.922761880627"
"19276","40-Nicholson St/Fletcher St (Essendon)","-37.7551723240886","144.920205022545"
"19277","41-Fletcher St/Napier St (Essendon)","-37.7549280695651","144.917601293409"
"19278","8-Richmond Station/Swan St (Richmond)","-37.8246773658793","144.989057231435"
"19279","9-Lennox St/Swan St (Richmond)","-37.8252395307137","144.993484203375"
"19280","10-Swan Street Shopping Centre/Swan St (Richmond)","-37.825526640382","144.996055432255"
"19281","11-Church St/Swan St (Richmond)","-37.8257595821896","144.998094164396"
"19282","12-Coppin St/Swan St (Richmond)","-37.8262593203546","145.002579765766"
"19283","13-Edinburgh St/Swan St (Burnley)","-37.8265059691861","145.004902206986"
"19294","14-Burnley St/Swan St (Burnley)","-37.8267909098957","145.007359972022"
"19295","15-Stawell St/Swan St (Burnley)","-37.8270482007598","145.009784415187"
"19296","16-Park Gr/Swan St (Burnley)","-37.8272621245425","145.011778300751"
"19297","17-Madden Gr/Swan St (Burnley)","-37.8274681084553","145.016510555016"
"19298","18-Yarra Bvd/Swan St (Burnley)","-37.8266632230585","145.019554259453"
"19299","29-Power St/Riversdale Rd (Hawthorn)","-37.8273929533763","145.025442777658"
"19300","30-Through St/Riversdale Rd (Hawthorn)","-37.8282106910613","145.029068093197"
"19301","31-Fordholm Rd/Riversdale Rd (Hawthorn)","-37.8285058478969","145.031628001106"
"19302","32-Glenferrie Rd/Riversdale Rd (Hawthorn)","-37.8288417211911","145.034470895645"
"19303","33-Berkeley St/Riversdale Rd (Hawthorn)","-37.8291585641692","145.037257511958"
"19304","125-Port Junction/79 Whiteman St (Southbank)","-37.8260762782834","144.956207808002"
"19305","22-Dorcas St/Eastern Rd (South Melbourne)","-37.8321705314369","144.965186222453"
"19306","23-Moray St/Park St (South Melbourne)","-37.8345081265221","144.964349335667"
"19307","24-Clarendon St/Park St (South Melbourne)","-37.8352234872222","144.961943504985"
"19308","25-Cecil St/Park St (South Melbourne)","-37.8361382390442","144.9585662937"
"19309","26-Ferrars St/Park St (South Melbourne)","-37.8366422900881","144.956972953963"
"19310","27-Montague St/Park St (South Melbourne)","-37.83732869744","144.954465517126"
"19311","28-Bridport St/Montague St (Albert Park)","-37.8404234988181","144.955720904527"
"19312","29-Bridport St/Victoria Ave (Albert Park)","-37.8417253389461","144.953366767017"
"19313","30-Richardson St/Victoria Ave (Albert Park)","-37.8437867986519","144.951684724393"
"19314","31-Graham St/Victoria Ave (Albert Park)","-37.8457673625587","144.950016190422"
"19322","124-Walsh St/Toorak Rd (South Yarra)","-37.8380275838487","144.98453579035"
"19323","125-Punt Rd/Toorak Rd (South Yarra)","-37.8382104504164","144.986269380867"
"19325","127-South Yarra Railway Station/Toorak Rd (South Yarra)","-37.8389857371351","144.99208903976"
"19326","128-Chapel St/Toorak Rd (South Yarra)","-37.8393761201755","144.995430651271"
"19327","129-Tivoli Rd/Toorak Rd (South Yarra)","-37.8397705894993","144.998488102886"
"19328","130-Hawksburn Rd/Toorak Rd (South Yarra)","-37.8401979800664","145.00189696908"
"19329","131-Williams Rd/Toorak Rd (South Yarra)","-37.8405138691449","145.004581611353"
"19330","132-Toorak Village/Toorak Rd (Toorak)","-37.8409650581383","145.008342182917"
"19331","133-Grange Rd/Toorak Rd (Toorak)","-37.8412282779567","145.010585113771"
"19332","134-Orrong Rd/Toorak Rd (Toorak)","-37.8416148833637","145.013733850464"
"19333","135-Woorigoleen Rd/Toorak Rd (Toorak)","-37.8420299432929","145.017506870067"
"19334","136-Irving Rd/Toorak Rd (Toorak)","-37.8423144448057","145.019953849376"
"19335","137-Kooyong Rd/Toorak Rd (Toorak)","-37.8426870252813","145.022818961415"
"19336","138-Moonga Rd/Toorak Rd (Toorak)","-37.8431665649628","145.026692649002"
"19338","139-Glenferrie Rd/Toorak Rd (Toorak)","-37.8436182697485","145.029987560396"
"19340","112-Lygon St/Elgin St (Carlton)","-37.7970268371685","144.966355403588"
"19341","113-Lytton St/Lygon St (Carlton)","-37.7941375921516","144.968126738586"
"19342","114-Princes St/Lygon St (Carlton North)","-37.792124799385","144.968465785209"
"19343","115-Melbourne Cemetery/Lygon St (Carlton North)","-37.7892854635251","144.96895235769"
"19344","116-Fenwick St/Lygon St (Carlton North)","-37.787200800826","144.969304676493"
"19345","117-Richardson St/Lygon St (Carlton North)","-37.7840826143605","144.969821516627"
"19346","118-Pigdon St/Lygon St (Carlton North)","-37.7815393424526","144.970231744247"
"19348","120-Brunswick Rd/Lygon St (Brunswick)","-37.7781152803858","144.970779567753"
"19349","121-Weston St/Lygon St (Brunswick East)","-37.7755528128665","144.971122123583"
"19350","122-Glenlyon Rd/Lygon St (Brunswick East)","-37.7725152855689","144.971613873111"
"19351","123-Albert St/Lygon St (Brunswick East)","-37.7696490932269","144.972112248378"
"19352","124-Victoria St/Lygon St (Brunswick East)","-37.768077256511","144.972416295282"
"19353","125-Blyth St/Lygon St (Brunswick East)","-37.7664423650292","144.972722049743"
"19354","126-Stewart St/Lygon St (Brunswick East)","-37.7642948192739","144.973087193349"
"19355","127-Albion St/Holmes St (Brunswick East)","-37.7618873859251","144.974061034217"
"19356","128-Mitchell St/Holmes St (Brunswick East)","-37.7592637942337","144.974518554184"
"19357","129-Moreland Rd/Nicholson St (Coburg)","-37.7565411148071","144.974978739565"
"19358","129-Moreland Rd/Holmes St (Brunswick)","-37.7565710993107","144.974626051647"
"19359","130-Barrow St/Moreland Rd (Coburg)","-37.7560584767826","144.969974947722"
"19360","131-De Carle St/Moreland Rd (Coburg)","-37.7556625818727","144.966353608621"
"19361","132-Sydney Rd/Moreland Rd (Coburg)","-37.7553400394708","144.963853991965"
"19362","133-Moreland Station/Cameron St (Coburg)","-37.7552920111445","144.962118691852"
"19363","130-The Avenue/Nicholson St (Coburg)","-37.7533717117811","144.976188824924"
"19364","131-Rennie St/Nicholson St (Coburg)","-37.7512172816081","144.97667882242"
"19365","132-Crozier St/Nicholson St (Coburg)","-37.7493932092785","144.976989548887"
"19366","133-Harding St/Nicholson St (Coburg)","-37.7460589643416","144.977522961256"
"19367","134-Merribell Ave/Nicholson St (Coburg)","-37.7443709754677","144.977886679609"
"19368","135-Bell St/Nicholson St (Coburg)","-37.7428611914594","144.978132044886"
"19369","125A-Southbank Tram Depot/Light Rail (South Melbourne)","-37.8274525720452","144.953988428214"
"19370","126-Montague St/Light Rail (South Melbourne)","-37.830240275287","144.948469066745"
"19371","127-North Port Station/Light Rail (Port Melbourne)","-37.8332083694984","144.943489671098"
"19372","128-Graham St/Light Rail (Port Melbourne)","-37.8370542901159","144.937190060719"
"19374","13-Lansdowne St/Victoria Pde (Fitzroy)","-37.8084349096705","144.978343806944"
"19376","42-Grice Cres/Mt Alexander Rd (Essendon)","-37.7526629629306","144.915894211921"
"19377","16-Wellington St/Victoria Pde (Collingwood)","-37.8092713479421","144.98613580753"
"19379","18-Hoddle St/Victoria Pde (Collingwood)","-37.8097268618161","144.990644242438"
"19381","19-North Richmond Railway Station/Victoria St (Abbotsford)","-37.8096943003706","144.992962325195"
"19382","20-Lennox St/Victoria St (Abbotsford)","-37.8099942795975","144.995759844086"
"19383","21-Church St/Victoria St (Abbotsford)","-37.8104897001135","145.000517209106"
"19384","22-McKay St/Victoria St (Richmond)","-37.8108288437013","145.004040713844"
"19385","23-Flockhart St/Victoria St (Abbotsford)","-37.811111123158","145.006872878208"
"19386","24-Burnley St/Victoria St (Richmond)","-37.8114408785326","145.010385337817"
"19387","25-River Bvd/Victoria St (Richmond)","-37.8117684285687","145.013239057205"
"19389","27-Findon Cres/Barkers Rd (Kew)","-37.8127128084362","145.020620024291"
"19391","29-High St/Barkers Rd (Kew)","-37.8130261494592","145.023178876986"
"19393","31-Stevenson St/High St (Kew)","-37.8102284379553","145.026161391234"
"19394","32-Kew Junction/High St (Kew)","-37.8075924802723","145.028582806339"
"19395","33-Kew Shopping Centre/High St (Kew)","-37.8068136897691","145.030511737261"
"19396","34-QPO/Cotham Rd (Kew)","-37.8068869095569","145.031656996439"
"19397","35-Charles St/Cotham Rd (Kew)","-37.8073082750965","145.035303254178"
"19398","36-Glenferrie Rd/Cotham Rd (Kew)","-37.8076220504463","145.037907411745"
"19399","37-Belmont Ave/Cotham Rd (Kew)","-37.8081189285127","145.042312780151"
"19400","38-Marshall Ave/Cotham Rd (Kew)","-37.8085288868437","145.045834519302"
"19401","39-Florence Ave/Cotham Rd (Kew)","-37.8089374243072","145.049276824947"
"19402","40-St George's Hospital/Cotham Rd (Kew)","-37.8093760777036","145.052911480012"
"19403","41-Kew Traffic School/Cotham Rd (Kew)","-37.8099322539236","145.057667636762"
"19404","42-Burke Rd/Cotham Rd (Kew)","-37.8102763039383","145.060498377894"
"19405","43-Deepdene Shopping Centre/Whitehorse Rd (Balwyn)","-37.8107873754209","145.064721953423"
"19406","44-Deepdene Park/Whitehorse Rd (Balwyn)","-37.811237358526","145.068526891236"
"19407","45-Hardwicke St/Whitehorse Rd (Balwyn)","-37.8115905300743","145.071380218144"
"19408","46-Balwyn Cinema/Whitehorse Rd (Balwyn)","-37.8121131920014","145.075785398596"
"19409","47-Balwyn Rd/Whitehorse Rd (Balwyn)","-37.8127690825391","145.081186824158"
"19410","48-Balwyn Shopping Centre/Whitehorse Rd (Balwyn)","-37.8130610650752","145.08362155594"
"19411","49-Northcote Ave/Whitehorse Rd (Balwyn)","-37.8135518238865","145.087755110917"
"19412","50-Wharton St/Whitehorse Rd (Surrey Hills)","-37.8140301186862","145.091684570099"
"19413","51-Narrak Rd/Whitehorse Rd (Balwyn)","-37.8144047931079","145.094787485194"
"19414","53-Union Rd/Whitehorse Rd (Balwyn)","-37.8149455206987","145.09924934824"
"19416","54-Inglisby Rd/Whitehorse Rd (Mont Albert)","-37.81540450463","145.103122656658"
"19417","55-Hood St/Whitehorse Rd (Mont Albert)","-37.8161641892804","145.10945345671"
"19418","56-Elgar Rd/Whitehorse Rd (Box Hill)","-37.8169114393776","145.115591585928"
"19419","57-Nelson Rd/Whitehorse Rd (Box Hill)","-37.8174573123804","145.119860510164"
"19421","61-Elgar Rd/Riversdale Rd (Surrey Hills)","-37.8376093245051","145.110371934283"
"19422","60-Ferndale St/Riversdale Rd (Surrey Hills)","-37.8370900484113","145.106658047229"
"19423","59-Alandale St/Riversdale Rd (Surrey Hills)","-37.8368593357005","145.104641299056"
"19424","58-Wattle Park/Riversdale Rd (Surrey Hills)","-37.8365313668524","145.102183893886"
"19425","57-Glendale St/Riversdale Rd (Surrey Hills)","-37.8362036876071","145.10030602077"
"19426","56-Warrigal Rd/Riversdale Rd (Surrey Hills)","-37.8358969486946","145.098052647152"
"19427","55-Union Rd/Riversdale Rd (Surrey Hills)","-37.8355747284913","145.095401986954"
"19428","54-Through Rd/Riversdale Rd (Surrey Hills)","-37.8353406977528","145.093192233845"
"19429","53-Essex Rd/Riversdale Rd (Surrey Hills)","-37.8350880570991","145.090948886461"
"19430","52-Lockhart St/Riversdale Rd (Camberwell)","-37.8347540882486","145.088139512373"
"19431","51-Highfield Rd/Riversdale Rd (Canterbury)","-37.8343672535395","145.084854295222"
"19432","50-Wattle Valley Rd/Riversdale Rd (Canterbury)","-37.8341185345008","145.081201928841"
"19433","49-Glyndon Rd/Riversdale Rd (Camberwell)","-37.8338897986721","145.079333011759"
"19434","48-Cooloongatta Rd/Riversdale Rd (Camberwell)","-37.8336550979046","145.077100656852"
"19435","47-Willow Gr/Riversdale Rd (Canterbury)","-37.8331096013058","145.072399358304"
"19436","46-Spencer Rd/Riversdale Rd (Canterbury)","-37.8326984737198","145.0693080993"
"19438","44-Derby St/Riversdale Rd (Camberwell)","-37.83233590356","145.06588609774"
"19439","43-Trafalgar Rd/Riversdale Rd (Camberwell)","-37.8320624897202","145.063507137785"
"19440","42-Fermanagh Rd/Riversdale Rd (Camberwell)","-37.8316836077939","145.060199247267"
"19441","41-Camberwell Market/517 Riversdale Rd (Camberwell)","-37.8314068949538","145.057627259126"
"19442","40-Camberwell Junction/Riversdale Rd (Hawthorn East)","-37.8312699238383","145.05642645311"
"19443","39-Camberwell Tram Depot/Riversdale Rd (Hawthorn East)","-37.8310276616701","145.054308077781"
"19444","38-Hastings Rd/Riversdale Rd (Hawthorn East)","-37.8306901951957","145.051340059514"
"19445","37-Tooronga Rd/Riversdale Rd (Hawthorn East)","-37.8302593441228","145.047635995247"
"19446","36-Auburn Rd/Riversdale Rd (Hawthorn East)","-37.8297761672956","145.04350160212"
"19447","35-Robinson Rd/Riversdale Rd (Hawthorn)","-37.8295365086283","145.041553676203"
"19448","34-Kooyongkoot Rd/Riversdale Rd (Hawthorn)","-37.829178815916","145.038472697919"
"19449","33-Berkeley St/Riversdale Rd (Hawthorn)","-37.828970643668","145.036796655361"
"19450","32-Glenferrie Rd/Riversdale Rd (Hawthorn)","-37.8286348261282","145.033953742867"
"19451","31-Fordholm Rd/Riversdale Rd (Hawthorn)","-37.8283506261698","145.031507146698"
"19452","30-Through St/Riversdale Rd (Hawthorn)","-37.8280757639043","145.029083045127"
"19454","29-Power St/Riversdale Rd (Hawthorn)","-37.8276227190908","145.025709331996"
"19456","18-Yarra Bvd/Swan St (Burnley)","-37.8264197580619","145.020617382509"
"19457","17-Madden Gr/Swan St (Burnley)","-37.8272484624747","145.016845921852"
"19458","16-Park Gr/Swan St (Burnley)","-37.8271984997987","145.012279916519"
"19459","15-Stawell St/Swan St (Richmond)","-37.8269010057276","145.009606586093"
"19460","14-Burnley St/Swan St (Richmond)","-37.8265934826112","145.006876740819"
"19461","13-Edinburgh St/Swan St (Richmond)","-37.8263923328831","145.005109772975"
"19462","12-Coppin St/Swan St (Richmond)","-37.826102143812","145.002345415393"
"19463","11-Church St/Swan St (Richmond)","-37.825610052866","144.99778008962"
"19464","10-Swan Street Shopping Centre/Swan St (Richmond)","-37.8253798120452","144.995900346919"
"19465","9-Lennox St/Swan St (Richmond)","-37.8250919249537","144.993283700079"
"19466","8-Richmond Station/Swan St (Cremorne)","-37.8245315826701","144.988436328569"
"19467","43-Brewster St/Mt Alexander Rd (Essendon)","-37.7502272977098","144.91422607019"
"19468","44-Thorn St/Mt Alexander Rd (Essendon)","-37.7481014766145","144.912753614052"
"19469","45-Glass St/Mt Alexander Rd (Essendon)","-37.7464864816168","144.911630044843"
"19470","47-Mt Alexander Rd/Keilor Rd (Essendon)","-37.7439515823579","144.908943590641"
"19471","48-Service St/Keilor Rd (Essendon North)","-37.7426875938088","144.90576756594"
"19472","49-Essendon North PS/Keilor Rd (Essendon North)","-37.7415008299622","144.902884523759"
"19473","50-Cooper St/Keilor Rd (Essendon North)","-37.7400320541981","144.899351361242"
"19475","53-Keilor Rd/Matthews Ave (Niddrie)","-37.7352575818247","144.889364578953"
"19477","54-Fullarton Rd/Matthews Ave (Niddrie)","-37.7323551694388","144.889832794941"
"19478","55-Cameron St/Matthews Ave (Airport West)","-37.729911510274","144.890253909061"
"19479","56-Earl St/Matthews Ave (Airport West)","-37.7273235297058","144.890667740738"
"19480","57-Hawker St/Matthews Ave (Airport West)","-37.7230648732169","144.89138987291"
"19481","58-Marshall Rd/Matthews Ave (Airport West)","-37.7183730492486","144.892078810836"
"19482","59-Airport West/Matthews Ave (Airport West)","-37.7138400228503","144.89056241795"
"19489","1-Melbourne University/Swanston St (Carlton)","-37.7993054833284","144.964191828973"
"19491","3-Lincoln Square/Swanston St (Carlton)","-37.8023697789502","144.963687454425"
"19492","4-Queensberry St/Swanston St (Carlton)","-37.8056941086715","144.963107738558"
"19494","7-RMIT University/Swanston St (Melbourne City)","-37.8081394578355","144.963290430039"
"19495","8-Melbourne Central Station/Swanston St (Melbourne City)","-37.8103823689391","144.964273813952"
"19497","10-Bourke Street Mall/Swanston St (Melbourne City)","-37.8131986301158","144.965582292146"
"19498","11-City Square/Swanston St (Melbourne City)","-37.8163775306921","144.967017233192"
"19499","13-Federation Square/Swanston St (Melbourne City)","-37.8184759022448","144.967982072194"
"19500","14-Arts Precinct/St Kilda Rd (Southbank)","-37.8218456967555","144.969514222523"
"19502","17-Grant St-Police Memorial/St Kilda Rd (Southbank)","-37.8241692376238","144.970473028084"
"19504","19-Shrine of Remembrance/St Kilda Rd (Melbourne City)","-37.8287986918653","144.971368737885"
"19528","22-Toorak Rd/St Kilda Rd (Melbourne City)","-37.835761182497","144.975348155196"
"19539","23-Arthur St/St Kilda Rd (Melbourne City)","-37.8388552004564","144.976570328513"
"19560","24-Leopold St/St Kilda Rd (South Melbourne)","-37.8411585285465","144.97740510504"
"19561","25-Commercial Rd/St Kilda Rd (South Melbourne)","-37.8445229480003","144.978631424193"
"19562","26-Moubray St/St Kilda Rd (South Melbourne)","-37.8475515435722","144.97971927374"
"19563","27-High St/St Kilda Rd (South Melbourne)","-37.8498638592375","144.980553989355"
"19565","29-Union St/St Kilda Rd (St Kilda)","-37.8530016979083","144.981707199861"
"19566","30-St Kilda Junction/St Kilda Rd (St Kilda)","-37.8552957912207","144.982531162691"
"19567","31-Queens Way/Queens Way (St Kilda)","-37.8562458912203","144.987494915841"
"19568","30-St Kilda Junction/St Kilda Rd (St Kilda)","-37.8550312627859","144.982345156678"
"19569","29-Union St/St Kilda Rd (St Kilda)","-37.8524833993287","144.981437200807"
"19571","27-Lorne St/St Kilda Rd (Melbourne City)","-37.8499177094608","144.98054115504"
"19572","26-Beatrice St/St Kilda Rd (Melbourne City)","-37.8478946090319","144.979755368523"
"19573","25-Commercial Rd/St Kilda Rd (Melbourne City)","-37.8440132605297","144.978338511775"
"19574","24-Leopold St/St Kilda Rd (Melbourne City)","-37.8414831893445","144.977418962752"
"19575","23-Arthur St/St Kilda Rd (Melbourne City)","-37.8392975446767","144.976615056476"
"19589","13-Curzon St/Queensberry St (North Melbourne)","-37.8029418579126","144.948361528022"
"19590","12-North Melbourne Town Hall/Errol St (North Melbourne)","-37.8032236364863","144.94953493664"
"19591","14-Royal Melbourne Hospital/Flemington Rd (North Melbourne)","-37.7998256705405","144.955205315941"
"19594","19-Royal Childrens Hospital/Flemington Rd (North Melbourne)","-37.794141126911","144.948059919953"
"19595","20-Melrose St/Flemington Rd (North Melbourne)","-37.7904742107835","144.943460072048"
"19597","22-Flemington Bridge Station/Flemington Rd (North Melbourne)","-37.7880542946114","144.940608824109"
"19598","23-Flemington Community Centre/Mt Alexander Rd (Flemington)","-37.7858427403732","144.938853409566"
"19599","24-Mooltan St/Mt Alexander Rd (Flemington)","-37.7842182318786","144.937172611839"
"19600","25-Mount Alexander College/Mt Alexander Rd (Travancore)","-37.7825652426002","144.933868976617"
"19601","26-Wellington St/Mt Alexander Rd (Flemington)","-37.7814356310489","144.932662806085"
"19602","27-Essendon Tram Depot/Mt Alexander Rd (Ascot Vale)","-37.7798078134081","144.931311603327"
"19603","28-Middle St/Mt Alexander Rd (Ascot Vale)","-37.7776990022244","144.929769508257"
"19604","29-Warrick St/Mt Alexander Rd (Ascot Vale)","-37.775747688425","144.928472878621"
"19605","30-Maribyrnong Rd/Mt Alexander Rd (Ascot Vale)","-37.7730083302024","144.926948557247"
"19606","31-Montgomery St/Mt Alexander Rd (Moonee Ponds)","-37.7706858736447","144.926071149588"
"19608","32-Moonee Ponds Junction/Pascoe Vale Rd (Moonee Ponds)","-37.7666534304091","144.924810208497"
"19609","34-Moonee Valley Civic Centre/Pascoe Vale Rd (Moonee Ponds)","-37.7640046605522","144.925361021904"
"19623","35-Queens Park/Pascoe Vale Rd (Moonee Ponds)","-37.7627019929807","144.9255903994"
"19624","36-Murray St/Pascoe Vale Rd (Moonee Ponds)","-37.7598628633833","144.926078359424"
"19625","37-Buckley St/Pascoe Vale Rd (Moonee Ponds)","-37.7582545419328","144.926350296456"
"19626","38-Fletcher St/Pascoe Vale Rd (Essendon)","-37.7561132084531","144.926035525528"
"19627","39-Hoddle St/Fletcher St (Essendon)","-37.7556931421985","144.923164247793"
"19628","40-Nicholson St/Fletcher St (Essendon)","-37.755455960349","144.920957554971"
"19657","41-Fletcher St/Napier St (Essendon)","-37.7548792227315","144.917387007537"
"19658","42-Shamrock St/Mt Alexander Rd (Essendon)","-37.7524964161667","144.915649187051"
"19659","43-Thistle St/Mt Alexander Rd (Essendon)","-37.7506622587155","144.914361401185"
"19660","44-Thorn St/Mt Alexander Rd (Essendon)","-37.7483546855881","144.912803245555"
"19661","45-Leake St/Mt Alexander Rd (Essendon)","-37.7463843853209","144.911462680271"
"19662","46-Lincoln Rd/Mt Alexander Rd (Essendon)","-37.7447695803552","144.910350507015"
"19663","47-Mt Alexander Rd/Keilor Rd (Essendon)","-37.7441615680195","144.909096561287"
"19664","48-Service St/Keilor Rd (Essendon)","-37.7428214929741","144.905695701091"
"19665","49-Essendon North Primary School/Keilor Rd (Essendon North)","-37.7416825899195","144.902970179523"
"19666","50-Cooper St/Keilor Rd (Essendon)","-37.7402044048036","144.899414576755"
"19667","51-Bradshaw St/Keilor Rd (Essendon)","-37.7387723675538","144.895925896243"
"19669","53A-Matthews Ave/Keilor Rd (Essendon)","-37.7365516321446","144.890167536147"
"19670","53-Keilor Rd/Matthews Ave (Niddrie)","-37.7349593292217","144.889316313532"
"19671","54-Fullarton Rd/Matthews Ave (Airport West)","-37.7323707465012","144.889696191093"
"19672","55-Cameron St/Matthews Ave (Airport West)","-37.7299633197834","144.89012762778"
"19673","56-Earl St/Matthews Ave (Airport West)","-37.7272052181601","144.890603021762"
"19674","57-Hawker St/Matthews Ave (Airport West)","-37.7231170902155","144.891286283489"
"19675","58-Marshall Rd/Matthews Ave (Airport West)","-37.7184162598861","144.891975483906"
"19676","22-Toorak Rd/St Kilda Rd (Melbourne City)","-37.8354764801698","144.975037782389"
"19679","19-Shrine of Remembrance/St Kilda Rd (Melbourne City)","-37.8289314561186","144.97122876072"
"19681","17-Grant St-Police Memorial/St Kilda Rd (Southbank)","-37.8246344921254","144.970801114029"
"19684","14-Arts Precinct/St Kilda Rd (Southbank)","-37.8215165307965","144.969239228948"
"19685","13-Federation Square/Swanston St (Melbourne City)","-37.8180650776683","144.967675256845"
"19686","11-City Square/Swanston St (Melbourne City)","-37.815729960042","144.966569251293"
"19687","10-Bourke Street Mall/Swanston St (Melbourne City)","-37.8127592078779","144.965185421937"
"19689","8-Melbourne Central Station/Swanston St (Melbourne City)","-37.8098890941494","144.963889804126"
"19690","35-Carlisle St/St Kilda Rd (St Kilda)","-37.867726614542","144.986955220129"
"19691","7-RMIT University/Swanston St (Melbourne City)","-37.8077987182032","144.962868170303"
"19693","4-Queensberry St/Swanston St (Carlton)","-37.8051354479851","144.963111730898"
"19694","3-Lincoln Square/Swanston St (Carlton)","-37.8026288369272","144.963555404388"
"19696","1-Melbourne University/Swanston St (Carlton)","-37.7987656217477","144.96424072282"
"19697","34-Inkerman St/St Kilda Rd (St Kilda)","-37.8651132026482","144.985900977974"
"19698","34-Inkerman St/St Kilda Rd (St Kilda)","-37.8640691703037","144.98545198338"
"19699","15-Murphy St/Flemington Rd (North Melbourne)","-37.7975869591791","144.952393756915"
"19700","33-Argyle St/St Kilda Rd (St Kilda)","-37.8624825453795","144.984892743809"
"19701","33-Argyle St/St Kilda Rd (St Kilda)","-37.8620860198372","144.984892177911"
"19702","32-Alma Rd/St Kilda Rd (St Kilda)","-37.8599448746027","144.984052541346"
"19703","32-Alma Rd/St Kilda Rd (St Kilda)","-37.860980098731","144.984513100315"
"19704","31-Barkly St/St Kilda Rd (St Kilda)","-37.8579683899333","144.983356223396"
"19705","31-Barkly St/St Kilda Rd (St Kilda)","-37.8582607180469","144.983586947413"
"19706","15-Epworth Hospital/Bridge Rd (Richmond)","-37.8179094450735","144.993807675048"
"19708","17-Bosisto St/Bridge Rd (Richmond)","-37.8183608039965","144.996499172296"
"19709","18-Church St/Bridge Rd (Richmond)","-37.8184718715713","144.998790925637"
"19710","19-Richmond Town Hall/Bridge Rd (Richmond)","-37.8187500446208","145.001373544529"
"19711","20-Coppin St/Bridge Rd (Richmond)","-37.8189765776233","145.003571325794"
"19712","21-Burnley St/Bridge Rd (Richmond)","-37.8195349641183","145.008872928227"
"19713","22-Yarra Bvd/Bridge Rd (Richmond)","-37.8200986743279","145.013969983787"
"19714","22-Yarra Bvd/Bridge Rd (Richmond)","-37.8201521504783","145.013400527047"
"19715","21-Burnley St/Bridge Rd (Richmond)","-37.8194803018933","145.007772442828"
"19716","20-Coppin St/Bridge Rd (Richmond)","-37.8190825926943","145.003977439561"
"19717","19-Richmond Town Hall/Bridge Rd (Richmond)","-37.8188130983874","145.001371843736"
"19718","18-Church St/Bridge Rd (Richmond)","-37.8186177923666","144.999423156076"
"19719","17-Waltham St/Bridge Rd (Richmond)","-37.8182189999558","144.996639328219"
"19721","125A-Southbank Tram Depot/Light Rail (South Melbourne)","-37.8276910352237","144.953709164785"
"19722","126-Montague St/Light Rail (South Melbourne)","-37.8301913759141","144.948765830494"
"19723","127-North Port Station/Light Rail (Port Melbourne)","-37.8334309737548","144.943335778364"
"19724","128-Graham St/Light Rail (Port Melbourne)","-37.8370320441718","144.937463390669"
"19725","129-Beacon Cove/Light Rail (Port Melbourne)","-37.8407894585844","144.932813317564"
"19726","13-Lansdowne St/Victoria Pde (East Melbourne)","-37.8085509912351","144.978806344494"
"19728","15-Smith St/Victoria Pde (East Melbourne)","-37.8089248642991","144.982215113924"
"19729","16-Wellington St/Victoria Pde (East Melbourne)","-37.809291574141","144.985737701673"
"19731","18-Hoddle St/Victoria Pde (Collingwood)","-37.8097950479178","144.99041521719"
"19732","19-North Richmond Railway Station/Victoria St (Richmond)","-37.8097864172602","144.992550912591"
"19733","20-Lennox St/Victoria St (Richmond)","-37.8101729610031","144.996198009626"
"19734","15-Epworth Hospital/Bridge Rd (Richmond)","-37.8180226748017","144.993577407243"
"19735","22-McKay St/Victoria St (Richmond)","-37.8109762385552","145.004229848209"
"19736","23-Leslie St/Victoria St (Richmond)","-37.8113129668903","145.00761715073"
"19737","24-Burnley St/Victoria St (Richmond)","-37.8115085277889","145.010122261699"
"19738","25-River Bvd/Victoria St (Richmond)","-37.8118259268989","145.012908099429"
"19740","27-Findon St/Barkers Rd (Hawthorn)","-37.8128776207223","145.020774653558"
"19742","29-Barkers Rd/High St (Kew)","-37.8129639975183","145.023771222561"
"19744","31-Stevenson St/High St (Kew)","-37.8100810138287","145.026506085495"
