census_year,property_id,building_address,trading_name,number_of_patrons,longitude,latitude,location
2009,100160,196-200 A'Beckett Street MELBOURNE 3000,Nomads Industry Backpackers,200,144.95744282655,-37.80999191344412,"-37.80999191344412, 144.95744282655"
2011,100441,118-126 Ireland Street WEST MELBOURNE 3003,Railway Hotel,241,144.94210293190025,-37.806072915200005,"-37.806072915200005, 144.94210293190025"
2002,100514,204-206 Arden Street NORTH MELBOURNE 3051,North Melbourne Football Club Social Club,210,144.9413101818877,-37.79888820561025,"-37.79888820561025, 144.9413101818877"
2005,100727,5-9 Bank Place MELBOURNE 3000,Mitre Tavern,300,144.96029792995742,-37.816805469325374,"-37.816805469325374, 144.96029792995742"
2016,100730,12-16 Bank Place MELBOURNE 3000,Melbourne Savage Club,90,144.96058680913345,-37.81654648184162,"-37.81654648184162, 144.96058680913345"
2017,100820,38-44 Barrett Street KENSINGTON 3031,Henry St Brewhouse,75,144.93431735762147,-37.798103410950006,"-37.798103410950006, 144.93431735762147"
2002,101023,25 Bennetts Lane MELBOURNE 3000,Bennetts Lane Jazz Club,360,144.9675664368846,-37.80889326950825,"-37.80889326950825, 144.9675664368846"
2004,101099,16-26 Bond Street MELBOURNE 3000,Bond Lounge,500,144.96306731565613,-37.818147200690255,"-37.818147200690255, 144.96306731565613"
2002,101109,39-43 Bourke Street MELBOURNE 3000,Spleen Central,100,144.9720552011901,-37.81193701505745,"-37.81193701505745, 144.9720552011901"
2012,101113,59-63 Bourke Street MELBOURNE 3000,Madam Brussels,256,144.9715655658,-37.81212342712261,"-37.812123427122614, 144.9715655658"
2017,101116,79-85 Bourke Street MELBOURNE 3000,Good Heavens,400,144.97103973560002,-37.81218018337256,"-37.81218018337256, 144.97103973560002"
2014,101119,137-141 Bourke Street MELBOURNE 3000,Levels Nightclub,400,144.969167321,-37.81279275577653,"-37.81279275577653, 144.969167321"
2022,101124,169 Bourke Street MELBOURNE VIC 3000,Bouvardia Melbourne,150,144.9685634125,-37.812947112085325,"-37.812947112085325, 144.9685634125"
2012,101130,193-199 Bourke Street MELBOURNE 3000,The Carlton Hotel,366,144.9676457082,-37.8132044156083,"-37.8132044156083, 144.9676457082"
2018,101133,209-215 Bourke Street MELBOURNE 3000,Treasure Star,150,144.9672985356574,-37.8132801326,"-37.8132801326, 144.9672985356574"
2011,101136,231-233 Bourke Street MELBOURNE 3000,Red Violin,303,144.96684122755,-37.81343594770618,"-37.81343594770618, 144.96684122755"
2008,101152,457-471 Bourke Street MELBOURNE 3000,Alluva Restaurant Bar Lounge,513,144.9601728802,-37.81549193252656,"-37.815491932526555, 144.9601728802"
2008,101154,483-501 Bourke Street MELBOURNE 3000,RACV City Club,440,144.95958443725,-37.81588561771079,"-37.81588561771079, 144.95958443725"
2022,101165,669-675 Bourke Street MELBOURNE VIC 3000,V Wine Salon,70,144.9541002451,-37.8172183934914,"-37.8172183934914, 144.9541002451"
2021,101180,Equity Chambers 472-478 Bourke Street MELBOURNE VIC 3000,The Douglas Club,70,144.9595996598,-37.81486039782858,"-37.81486039782858, 144.9595996598"
2010,101193,338-352 Bourke Street MELBOURNE 3000,Alto Events,400,144.96328859750002,-37.813603510907534,"-37.813603510907534, 144.96328859750002"
2016,101194,314-336 Bourke Street MELBOURNE 3000,Mural Hall,900,144.96394447638255,-37.81340927935104,"-37.813409279351035, 144.96394447638255"
2013,101202,206-218 Bourke Street MELBOURNE 3000,Wonderland Karaoke,400,144.96687115185,-37.81267380947152,"-37.81267380947152, 144.96687115185"
2021,101206,188 Bourke Street MELBOURNE VIC 3000,Heros Rooftop Bar,302,144.9676138651,-37.81269719786064,"-37.81269719786064, 144.9676138651"
2004,101207,184-186 Bourke Street MELBOURNE 3000,Hollywood Karaoke Bar,204,144.96769718945876,-37.81267738920575,"-37.812677389205746, 144.96769718945876"
2020,101212,152-158 Bourke Street MELBOURNE VIC 3000,Ballers Clubhouse,1500,144.9685177241,-37.81195835501776,"-37.81195835501776, 144.9685177241"
2014,101214,146-150 Bourke Street MELBOURNE 3000,FM Karaoke Bar,100,144.96874244775,-37.81235427007714,"-37.812354270077144, 144.96874244775"
2005,101216,21-25 Croft Alley MELBOURNE 3000,The Croft Institute,250,144.9690969005816,-37.812064674892135,"-37.812064674892135, 144.9690969005816"
2004,101217,124-128 Bourke Street MELBOURNE 3000,Welcome Stranger,350,144.9692738016126,-37.812071111195024,"-37.812071111195024, 144.9692738016126"
2009,101218,118-122 Bourke Street MELBOURNE 3000,December Entertainment,72,144.96954824584998,-37.812074580591286,"-37.812074580591286, 144.96954824584998"
2008,101219,100-116 Bourke Street MELBOURNE 3000,Bass Lounge,350,144.9697608853,-37.81172679600914,"-37.81172679600914, 144.9697608853"
2011,101221,94-96 Bourke Street MELBOURNE 3000,The Elephant and Wheelbarrow,450,144.9702435871,-37.81191580668391,"-37.81191580668391, 144.9702435871"
2019,101230,54-62 Bourke Street MELBOURNE 3000,Romeo Lane,99,144.97136417975338,-37.81155874855,"-37.81155874855, 144.97136417975338"
2019,101236,12 Bourke Street MELBOURNE 3000,Angel Music Bar,125,144.97250851245002,-37.81124810433032,"-37.81124810433032, 144.97250851245002"
2018,101238,2-8 Bourke Street MELBOURNE 3000,Imperial Hotel,894,144.9726756216,-37.81120076789737,"-37.81120076789737, 144.9726756216"
2002,101450,223-227 Canning Street CARLTON 3053,Dan O'Connell Hotel,600,144.9733974847086,-37.79303186454882,"-37.79303186454882, 144.9733974847086"
2012,101593,91-95 Cardigan Street CARLTON 3053,Hotel Lincoln,154,144.96450571738808,-37.8044853175,"-37.8044853175, 144.96450571738808"
2006,101613,377-391 Cardigan Street CARLTON 3053,Clyde Hotel,239,144.96576379262143,-37.79725684086871,"-37.79725684086871, 144.96576379262143"
2022,101789,252-254 Flinders Lane MELBOURNE VIC 3000,Lustre Bar,85,144.96559654045,-37.81660289619204,"-37.81660289619204, 144.96559654045"
2007,102064,69-71 Collins Street MELBOURNE 3000,The Trader Bar,280,144.97135862426046,-37.81434554629959,"-37.814345546299585, 144.97135862426046"
2021,102073,141-165 Collins Street MELBOURNE VIC 3000,Dessous,161,144.96876152725,-37.81545151804356,"-37.81545151804356, 144.96876152725"
2012,102098,415-417 Collins Street MELBOURNE 3000,The Sherlock Holmes Inn,131,144.96086833855,-37.81746943527568,"-37.81746943527568, 144.96086833855"
2008,102099,419-429 Collins Street MELBOURNE 3000,Silk Road on Collins,911,144.96065267909762,-37.81752823875,"-37.81752823875, 144.96065267909762"
2016,102102,471-485 Collins Street MELBOURNE 3000,State of Grace,200,144.95855671707193,-37.81841762805868,"-37.81841762805868, 144.95855671707193"
2022,102113,McPherson's Building 546-566 Collins Street MELBOURNE VIC 3000,Pulo Pool Parlour,120,144.95584419736474,-37.81824450365,"-37.81824450365, 144.95584419736474"
2003,102117,500-514 Collins Street MELBOURNE 3000,Menzies Tavern,250,144.9574852972072,-37.81756404569752,"-37.81756404569752, 144.9574852972072"
2010,102118,480-490 Collins Street MELBOURNE 3000,Paloma,80,144.95795310975024,-37.81765020885,"-37.81765020885, 144.95795310975024"
2015,102123,446-452 Collins Street MELBOURNE 3000,Menzies Tavern Hotel,197,144.9594432475203,-37.8173045178,"-37.8173045178, 144.9594432475203"
2012,102124,430-442 Collins Street MELBOURNE 3000,The Brasilian Bean,80,144.959761676,-37.81703292444878,"-37.81703292444878, 144.959761676"
2019,102131,394 Collins Street MELBOURNE 3000,The Bank On Collins,300,144.96107938833774,-37.8166130827,"-37.8166130827, 144.96107938833774"
2022,102135,344-350 Collins Street MELBOURNE VIC 3000,Little Ramen Bar,72,144.96268877625,-37.81601648208985,"-37.81601648208985, 144.96268877625"
2003,102141,280-292 Collins Street MELBOURNE 3000,The Charles Dickens Tavern,450,144.96457927162226,-37.81563097004982,"-37.81563097004982, 144.96457927162226"
2002,102143,258-274 Collins Street MELBOURNE 3000,Australia On Collins Bar,11,144.96491857864146,-37.81541503501324,"-37.81541503501324, 144.96491857864146"
2007,102152,162-168 Collins Street MELBOURNE 3000,Long Room,620,144.9678570562652,-37.814504250153206,"-37.814504250153206, 144.9678570562652"
2013,102157,90-98 Collins Street MELBOURNE 3000,Massoni Wine Bar,112,144.9702869013,-37.81401767527591,"-37.814017675275906, 144.9702869013"
2008,102158,86-88 Collins Street MELBOURNE 3000,Collins Quarter,373,144.97058439120002,-37.81393676544812,"-37.81393676544812, 144.97058439120002"
2008,102198,22-26 Corrs Lane MELBOURNE 3000,Cash Box Ktv,200,144.96832424768246,-37.81099753355,"-37.81099753355, 144.96832424768246"
2012,102199,16-20 Corrs Lane MELBOURNE 3000,Eurotrash Cafeteria & Bar,569,144.9683853239258,-37.8111293175,"-37.8111293175, 144.9683853239258"
2022,102200,12-14 Corrs Lane MELBOURNE VIC 3000,Fad Gallery,80,144.96843180726552,-37.8112296141,"-37.8112296141, 144.96843180726552"
2002,102236,56-58 Courtney Street NORTH MELBOURNE 3051,The Castle Hotel,317,144.95304334746442,-37.800899770504216,"-37.800899770504216, 144.95304334746442"
2022,102272,10-26 Crossley Street MELBOURNE VIC 3000,Bard's Apothecary,80,144.97120960655002,-37.811383624034974,"-37.811383624034974, 144.97120960655002"
2005,102352,171-173 Curzon Street NORTH MELBOURNE 3051,Albion Hotel,150,144.9485601867388,-37.79890018784259,"-37.79890018784259, 144.9485601867388"
2004,102503,161-173 Domain Road SOUTH YARRA 3141,Botanical Hotel,245,144.98170944683866,-37.834318199305386,"-37.834318199305386, 144.98170944683866"
2009,102596,22 Drewery Place MELBOURNE 3000,Sister Bellas,80,144.96381670235002,-37.81135526892763,"-37.81135526892763, 144.96381670235002"
2003,102597,2-20 Drewery Place MELBOURNE 3000,Embassy Bar,303,144.96397969116956,-37.811304482155336,"-37.811304482155336, 144.96397969116956"
2022,102714,350-352 Drummond Street CARLTON VIC 3053,Taquito Bar,100,144.9692712073831,-37.7977107422,"-37.7977107422, 144.9692712073831"
2004,103102,171-175 Elgin Street CARLTON 3053,Pugg Mahones,500,144.96871691208585,-37.797507504118016,"-37.797507504118016, 144.96871691208585"
2003,103165,1-5 Elizabeth Street MELBOURNE 3000,Hosies Tavern,270,144.96461741084877,-37.81805796983434,"-37.81805796983434, 144.96461741084877"
2002,103172,31-39 Elizabeth Street MELBOURNE 3000,Connells Tavern,350,144.964321660097,-37.81742610667125,"-37.81742610667125, 144.964321660097"
2013,103174,55-57 Elizabeth Street MELBOURNE 3000,E-Fiftyfive,88,144.96412997133174,-37.8169723947,"-37.8169723947, 144.96412997133174"
2003,103207,315-321 Elizabeth Street MELBOURNE 3000,Tabaret At Melbourne Central,250,144.96148178405576,-37.81125084399573,"-37.81125084399573, 144.96148178405576"
2016,103219,413-417 Elizabeth Street MELBOURNE 3000,Workshop,230,144.9605312399362,-37.80918871835853,"-37.80918871835853, 144.9605312399362"
2010,103239,547-549 Elizabeth Street MELBOURNE 3000,Musicbox  - Karaoke Bar,150,144.95847822256616,-37.80538135475,"-37.80538135475, 144.95847822256616"
2012,103272,642-644 Elizabeth Street MELBOURNE 3000,City Mic Bar Karaoke,70,144.95861439882248,-37.80328698255,"-37.80328698255, 144.95861439882248"
2009,103276,614-616 Elizabeth Street MELBOURNE 3000,The Arthouse,250,144.95890990861932,-37.8038839788,"-37.8038839788, 144.95890990861932"
2002,103293,502-504 Elizabeth Street MELBOURNE 3000,Stork Hotel,180,144.9602753362627,-37.80718226960321,"-37.80718226960321, 144.9602753362627"
2021,103300,452-472 Elizabeth Street MELBOURNE VIC 3000,Chef David,189,144.96062400307895,-37.80783716475,"-37.80783716475, 144.96062400307895"
2003,103301,442-450 Elizabeth Street MELBOURNE 3000,Melbourne International Backpackers,365,144.96086818659967,-37.808309445012966,"-37.808309445012966, 144.96086818659967"
2009,103393,7 Errol Street NORTH MELBOURNE 3051,Rrose Cellar and Bar,60,144.9490139057437,-37.80479713245,"-37.80479713245, 144.9490139057437"
2002,103402,33 Errol Street NORTH MELBOURNE 3051,Townhall Hotel North Melbourne,220,144.94880405469888,-37.80412846488931,"-37.80412846488931, 144.94880405469888"
2002,103507,86-90 Errol Street NORTH MELBOURNE 3051,Court House Hotel,140,144.94996492010188,-37.80287917339365,"-37.80287917339365, 144.94996492010188"
2011,103592,11-37 Exhibition Street MELBOURNE 3000,Eleven 37,123,144.97172640115,-37.81546126739551,"-37.815461267395506, 144.97172640115"
2005,103605,231-233 Exhibition Street MELBOURNE 3000,The Sen Bar,120,144.96952230092296,-37.810509029672616,"-37.810509029672616, 144.96952230092296"
2004,103615,333-351 Exhibition Street MELBOURNE 3000,The Owl & The Pussycat,100,144.96806936930756,-37.80780226572104,"-37.80780226572104, 144.96806936930756"
2002,103618,242-284 Exhibition Street MELBOURNE 3000,Coopers Inn,400,144.96998500471204,-37.809416385753934,"-37.809416385753934, 144.96998500471204"
2005,103621,174-192 Exhibition Street MELBOURNE 3000,CBD Cafe Bar,190,144.97060728433877,-37.811220324974286,"-37.811220324974286, 144.97060728433877"
2022,103626,114-122 Exhibition Street MELBOURNE VIC 3000,European Bier Cafe,735,144.9711969512,-37.81286229010783,"-37.81286229010783, 144.9711969512"
2009,103809,1-3 Flemington Road NORTH MELBOURNE 3051,Tufclub,629,144.95639469832102,-37.8012831175,"-37.8012831175, 144.95639469832102"
2006,103810,5-17 Flemington Road NORTH MELBOURNE 3051,RMIT Village Old Melbourne,356,144.9558564154721,-37.80143739836392,"-37.80143739836392, 144.9558564154721"
2002,103818,75-79 Flemington Road NORTH MELBOURNE 3051,Redback Brewery Hotel,670,144.95335716198912,-37.79895204865818,"-37.79895204865818, 144.95335716198912"
2019,103914,31-35 Flinders Lane MELBOURNE 3000,White Lane by Food & Desire,250,144.97329295039998,-37.81489767993339,"-37.81489767993339, 144.97329295039998"
2016,103921,91-93 Flinders Lane MELBOURNE 3000,Papa Goose,440,144.97122719454467,-37.815414152739145,"-37.815414152739145, 144.97122719454467"
2012,103922,95-101 Flinders Lane MELBOURNE 3000,Rosati Restaurant,840,144.97109866789998,-37.81552719560389,"-37.81552719560389, 144.97109866789998"
2022,103923,103-105 Flinders Lane MELBOURNE VIC 3000,Bar Bambi,200,144.97096432815,-37.81556721749156,"-37.81556721749156, 144.97096432815"
2012,103924,107-109 Flinders Lane MELBOURNE 3000,Bambu Bar,230,144.97083438375,-37.81560654663205,"-37.815606546632054, 144.97083438375"
2002,103925,121-123 Flinders Lane MELBOURNE 3000,Velour,350,144.97052296371248,-37.815673646380745,"-37.815673646380745, 144.97052296371248"
2014,103926,125-127 Flinders Lane MELBOURNE 3000,Gogo,300,144.97039992735,-37.81568919542343,"-37.81568919542343, 144.97039992735"
2022,103928,133-135 Flinders Lane MELBOURNE VIC 3000,Meatball & Wine Bar,110,144.97015887790002,-37.81573933184235,"-37.81573933184235, 144.97015887790002"
2012,103938,187 Flinders Lane MELBOURNE 3000,Mon Bijou,180,144.96837518889998,-37.81635841852694,"-37.81635841852694, 144.96837518889998"
2002,103944,277-279 Flinders Lane MELBOURNE 3000,De Biers,400,144.96530699086,-37.81724194023457,"-37.81724194023457, 144.96530699086"
2007,103946,313-315 Flinders Lane MELBOURNE 3000,Mack Daddy Soprano,200,144.96386031352995,-37.8176413198668,"-37.817641319866794, 144.96386031352995"
2014,103947,317-323 Flinders Lane MELBOURNE 3000,Sebel Melbourne - Flinders Lane,60,144.96375568035,-37.81773165451008,"-37.81773165451008, 144.96375568035"
2017,103950,335-339 Flinders Lane MELBOURNE 3000,Bartronica,200,144.96322586075,-37.81784716661798,"-37.81784716661798, 144.96322586075"
2007,103951,341-347 Flinders Lane MELBOURNE 3000,Bull And Bear Tavern,415,144.96304046635782,-37.81782473321002,"-37.81782473321002, 144.96304046635782"
2022,103952,349-351 Flinders Lane MELBOURNE VIC 3000,Akai Ito / Ototo,120,144.9628576858,-37.8178728705466,"-37.8178728705466, 144.9628576858"
2022,103954,381-387 Flinders Lane MELBOURNE VIC 3000,Yarra Falls,33,144.9613890915,-37.81825089919776,"-37.81825089919776, 144.9613890915"
2004,103964,30-44 Manchester Lane MELBOURNE 3000,Manchester Lane,250,144.9662091829816,-37.81642295306987,"-37.81642295306987, 144.9662091829816"
2018,103982,705-729 Flinders Street DOCKLANDS 3008,The Flying Angel Club,200,144.9513316632238,-37.8224727038,"-37.8224727038, 144.9513316632238"
2018,103984,566-580 Flinders Street MELBOURNE 3000,UBar,128,144.95533640614002,-37.82071127185,"-37.82071127185, 144.95533640614002"
2011,103985,562-564 Flinders Street MELBOURNE 3000,Bertha Brown,270,144.95563480894998,-37.820595115918415,"-37.820595115918415, 144.95563480894998"
2008,103993,508-514 Flinders Street MELBOURNE 3000,Waterside Hotel,983,144.9571504479,-37.82016599792704,"-37.820165997927035, 144.9571504479"
2022,103994,502-504 Flinders Street MELBOURNE VIC 3000,Insignia On Flinders,200,144.95765644665,-37.82005688946613,"-37.82005688946613, 144.95765644665"
2012,104003,2-8 Queen Street MELBOURNE 3000,Candela Nuevo,300,144.96271041413254,-37.8185876429,"-37.8185876429, 144.96271041413254"
2006,104018,172-192 Flinders Street MELBOURNE 3000,Purple Emerald,110,144.96857255170303,-37.81660399617599,"-37.816603996175985, 144.96857255170303"
2015,104020,150-162 Flinders Street MELBOURNE 3000,Forum Theatre Bar,1500,144.9693864777,-37.81648558712138,"-37.81648558712138, 144.9693864777"
2011,104026,104-112 Flinders Street MELBOURNE 3000,24 Moons,195,144.97115550425,-37.81600505948468,"-37.81600505948468, 144.97115550425"
2009,104034,207-361 Flinders Street MELBOURNE 3000,Clocks At Flinders Street Station,300,144.96577579920842,-37.8186817775,"-37.8186817775, 144.96577579920842"
2014,104085,167-175 Franklin Street MELBOURNE 3000,Velvet Underground,200,144.95915618785,-37.80897727672806,"-37.80897727672806, 144.95915618785"
2018,104086,211-213 Franklin Street MELBOURNE 3000,Island Somewhere,120,144.95784035309998,-37.809682591259424,"-37.809682591259424, 144.95784035309998"
2013,104103,34-38 Franklin Street MELBOURNE 3000,Captain Melville,355,144.96162023070002,-37.8075189651329,"-37.8075189651329, 144.96162023070002"
2002,104376,14-20 A'Beckett Street MELBOURNE 3000,Word Events,200,144.96074103693925,-37.81328770989657,"-37.81328770989657, 144.96074103693925"
2020,104461,Prince Alfred Hotel 191-197 Grattan Street CARLTON VIC 3053,The Prince Alfred Rooftop and Bar,492,144.96220862045,-37.800457587011714,"-37.800457587011714, 144.96220862045"
2002,104468,156-292 Grattan Street PARKVILLE 3010,University House,611,144.9611927667791,-37.79677692115583,"-37.796776921155825, 144.9611927667791"
2015,104653,21-25 Hardware Lane MELBOURNE 3000,Campari House,326,144.96131410750897,-37.81409145355,"-37.81409145355, 144.96131410750897"
2007,104659,67-73 Hardware Lane MELBOURNE 3000,Charlie's Bar,143,144.9609175559748,-37.81323599535919,"-37.81323599535919, 144.9609175559748"
2006,104662,106-112 Hardware Street MELBOURNE 3000,Pugg Mahones Irish Bar,200,144.96069018343826,-37.8121377273313,"-37.812137727331304, 144.96069018343826"
2012,104665,68-78 Hardware Lane MELBOURNE 3000,Pop,280,144.96110619765,-37.81307030069858,"-37.81307030069858, 144.96110619765"
2010,104824,11A Highlander Lane MELBOURNE 3000,Highlander Bar,202,144.95797023375002,-37.819703139272704,"-37.819703139272704, 144.95797023375002"
2021,105294,27-31 King Street MELBOURNE VIC 3000,State Of Grace,245,144.95694857715296,-37.81975555235,"-37.81975555235, 144.95694857715296"
2022,105295,509 Flinders Lane MELBOURNE VIC 3000,The Q,150,144.9568890728645,-37.81962534015,"-37.81962534015, 144.9568890728645"
2022,105306,189-195 King Street MELBOURNE VIC 3000,Showgirls Bar 20,285,144.95508140553954,-37.8156958826,"-37.8156958826, 144.95508140553954"
2015,105308,203-207 King Street MELBOURNE 3000,Bar Humbug,30,144.9549686385438,-37.8153887167,"-37.8153887167, 144.9549686385438"
2003,105318,277-287 King Street MELBOURNE 3000,Golden Age Hotel,200,144.95420939183657,-37.81367692848996,"-37.81367692848996, 144.95420939183657"
2005,105384,204-208 King Street MELBOURNE 3000,Great Western Hotel,390,144.95549294464604,-37.815213231403405,"-37.815213231403405, 144.95549294464604"
2008,105392,120-138 King Street MELBOURNE 3000,The Exchange Hotel,1240,144.95640730135,-37.81703244730132,"-37.81703244730132, 144.95640730135"
2020,105394,62-66 King Street MELBOURNE VIC 3000,KSR Art Bar,240,144.95714694640196,-37.81874468575,"-37.81874468575, 144.95714694640196"
2006,105399,26-32 King Street MELBOURNE 3000,Fourth Watch,222,144.9574751291228,-37.81953042594921,"-37.81953042594921, 144.9574751291228"
2013,105401,14-20 King Street MELBOURNE 3000,Spearmint Rhino Gentlemen's Club,660,144.95771378031566,-37.81977597285,"-37.81977597285, 144.95771378031566"
2011,105449,293-299 La Trobe Street MELBOURNE 3000,Duke of Kent Hotel,200,144.96050879212538,-37.81081448395,"-37.81081448395, 144.96050879212538"
2015,105493,52 La Trobe Street MELBOURNE 3000,Karaoke Box,300,144.96724634790002,-37.80828526461921,"-37.80828526461921, 144.96724634790002"
2004,105636,46-50 Leveson Street NORTH MELBOURNE 3051,The Leveson,400,144.95146865346058,-37.80370161232632,"-37.80370161232632, 144.95146865346058"
2008,105657,21 Liverpool Street MELBOURNE 3000,Double Happiness Bar,164,144.97126461041296,-37.81118096215,"-37.81118096215, 144.97126461041296"
2015,105673,103-105 Lonsdale Street MELBOURNE 3000,Bomba Tapas Bar and Rooftop,145,144.96925328869995,-37.81049413885108,"-37.81049413885108, 144.96925328869995"
2008,105675,113 Lonsdale Street MELBOURNE 3000,Seamstress Pty Ltd,160,144.96901108085,-37.810565338267146,"-37.810565338267146, 144.96901108085"
2013,105677,117-121 Lonsdale Street MELBOURNE 3000,The Key Club,440,144.9689026007,-37.81079279084446,"-37.81079279084446, 144.9689026007"
2020,105679,131-137 Lonsdale Street MELBOURNE VIC 3000,True Colour Lounge,170,144.96851480934998,-37.810927165145536,"-37.810927165145536, 144.96851480934998"
2019,105691,209-211 Lonsdale Street MELBOURNE 3000,Boilermaker House,180,144.96626025195002,-37.81143143651185,"-37.81143143651185, 144.96626025195002"
2009,105694,233-237 Lonsdale Street MELBOURNE 3000,The Emerald Peacock,300,144.96554872374998,-37.81158019629334,"-37.81158019629334, 144.96554872374998"
2012,105695,239 Lonsdale Street MELBOURNE 3000,Ferdydurke,100,144.96537788515,-37.8115943269761,"-37.8115943269761, 144.96537788515"
2018,105700,359-363 Lonsdale Street MELBOURNE 3000,Whitehart,200,144.96187567925,-37.81275160036885,"-37.81275160036885, 144.96187567925"
2017,105704,377-381 Lonsdale Street MELBOURNE 3000,Trapt Bar & Escape Rooms,331,144.96145448655,-37.8128794732693,"-37.8128794732693, 144.96145448655"
2002,105716,597-603 Lonsdale Street MELBOURNE 3000,The Men's Gallery,675,144.9545005101703,-37.81490643957871,"-37.81490643957871, 144.9545005101703"
2022,105723,560-566 Lonsdale Street MELBOURNE VIC 3000,Hwayo,59,144.95558460935,-37.81374534650281,"-37.81374534650281, 144.95558460935"
2022,105726,Joan Rosanove Chambers 550 Lonsdale Street MELBOURNE VIC 3000,Sao Bar & BBQ,100,144.95600158025002,-37.81346261063083,"-37.81346261063083, 144.95600158025002"
2005,105746,183-265 La Trobe Street MELBOURNE 3000,Kingpin Melbourne Central Pty Ltd,760,144.9627658649244,-37.81051474418151,"-37.81051474418151, 144.9627658649244"
2022,105747,272-282 Lonsdale Street MELBOURNE VIC 3000,SEAFOOD MINGLE,50,144.96399639656,-37.81152916515,"-37.81152916515, 144.96399639656"
2022,105748,268-270 Lonsdale Street MELBOURNE VIC 3000,Her Rooftop,120,144.96414510925,-37.81148566819091,"-37.81148566819091, 144.96414510925"
2004,105749,278-300 Swanston Street MELBOURNE 3000,Three Degrees,457,144.96573447495646,-37.8106799743433,"-37.8106799743433, 144.96573447495646"
2022,105757,Sexton's Cottage Wesley Uniting Church 139-141 Little Lonsdale Street MELBOURNE VIC 3000,Caretakers Cottage,50,144.96817418196383,-37.80994367235,"-37.80994367235, 144.96817418196383"
2004,105828,19-25 Little Bourke Street MELBOURNE 3000,Cheers On Little Bourke Street,350,144.97199956168686,-37.8107442049127,"-37.8107442049127, 144.97199956168686"
2019,105829,37-41 Little Bourke Street MELBOURNE 3000,Juliet Melbourne,100,144.97150588717997,-37.8108360072,"-37.810836007199995, 144.97150588717997"
2019,105831,47-55 Little Bourke Street MELBOURNE 3000,Bodega Underground,60,144.9711096464,-37.81102403390212,"-37.81102403390212, 144.9711096464"
2011,105852,401-405 Little Bourke Street MELBOURNE 3000,The Apartment Restaurant Club Lounge,250,144.9610341172,-37.81403280616105,"-37.81403280616105, 144.9610341172"
2008,105858,590-592 Little Bourke Street MELBOURNE 3000,POD Nite Club,700,144.95469854225,-37.8153398439392,"-37.8153398439392, 144.95469854225"
2011,105867,428-432 Little Bourke Street MELBOURNE 3000,DANSK Restaurant,100,144.95972661780002,-37.81392425618554,"-37.813924256185544, 144.95972661780002"
2019,105870,380-384 Little Bourke Street MELBOURNE 3000,Kirk's Public Bar,98,144.96132807458443,-37.8135435217,"-37.8135435217, 144.96132807458443"
2013,105875,318-322 Little Bourke Street MELBOURNE 3000,M.O.O.,200,144.96312748625002,-37.81292588925007,"-37.81292588925007, 144.96312748625002"
2013,105878,242-244 Little Bourke Street MELBOURNE 3000,NG Karaoke Bar,334,144.96558664045,-37.81209405621503,"-37.81209405621503, 144.96558664045"
2022,105900,40-46 Little Bourke Street MELBOURNE VIC 3000,LONGSONG,260,144.9711821656,-37.81059080656873,"-37.81059080656873, 144.9711821656"
2022,105919,267 Little Collins Street MELBOURNE VIC 3000,Fika Island,190,144.9656017104,-37.81483197706808,"-37.814831977068074, 144.9656017104"
2022,105929,335-349 Little Collins Street MELBOURNE VIC 3000,Maniax Axe Throwing Melbourne CBD,300,144.96330054055,-37.815577516659154,"-37.815577516659154, 144.96330054055"
2003,105933,425-427 Little Collins Street MELBOURNE 3000,The Irish Times,170,144.9605449167531,-37.816255721754686,"-37.816255721754686, 144.9605449167531"
2010,105934,429 Little Collins Street MELBOURNE 3000,Cafe De Tuscany,117,144.96045197655002,-37.81627858713537,"-37.81627858713537, 144.96045197655002"
2012,105936,433 Little Collins Street MELBOURNE 3000,Dikstein's Corner Bar,145,144.96034180595,-37.81631387227728,"-37.81631387227728, 144.96034180595"
2002,105937,435-443 Little Collins Street MELBOURNE 3000,The Kitchen Restaurant,200,144.96010676156988,-37.816397070511165,"-37.816397070511165, 144.96010676156988"
2012,105948,582-584 Little Collins Street MELBOURNE 3000,Saint & Rogue,300,144.9553519104,-37.817418958497775,"-37.817418958497775, 144.9553519104"
2008,105954,422-428 Little Collins Street MELBOURNE 3000,The Balcony,200,144.9603262827,-37.81590751094318,"-37.81590751094318, 144.9603262827"
2006,105960,318-322 Little Collins Street MELBOURNE 3000,Club F4,380,144.96401670012526,-37.81488232647624,"-37.81488232647624, 144.96401670012526"
2022,105962,Council House 2 218-242 Little Collins Street MELBOURNE VIC 3000,Glamp Bar,200,144.96680036332666,-37.8141314686,"-37.8141314686, 144.96680036332666"
2007,105963,196-212 Little Collins Street MELBOURNE 3000,Hairy Canary,50,144.9671623655484,-37.81390258825656,"-37.81390258825656, 144.9671623655484"
2007,105964,188-194 Little Collins Street MELBOURNE 3000,Gin Palace,150,144.9675905726475,-37.813908781055495,"-37.813908781055495, 144.9675905726475"
2002,105968,62-66 Little Collins Street MELBOURNE 3000,Bridie O'Reillys,300,144.97145124751802,-37.81281107608043,"-37.81281107608043, 144.97145124751802"
2003,106017,391-393 Little Lonsdale Street MELBOURNE 3000,La La Land,175,144.9603507674639,-37.8118754125278,"-37.8118754125278, 144.9603507674639"
2011,106018,395-397 Little Lonsdale Street MELBOURNE 3000,Horse Bazaar,158,144.96024997335002,-37.811900537748286,"-37.811900537748286, 144.96024997335002"
2018,106019,399-401 Little Lonsdale Street MELBOURNE 3000,Novotel/Ibis Melbourne Central,786,144.96013610345,-37.81204551781832,"-37.81204551781832, 144.96013610345"
2017,106037,324-328 Little Lonsdale Street MELBOURNE 3000,Alchemist's Refuge,60,144.9599405236,-37.8116745095178,"-37.8116745095178, 144.9599405236"
2006,106057,106 Little Lonsdale Street MELBOURNE 3000,Troika Bar,60,144.9685990930347,-37.8091527973733,"-37.8091527973733, 144.9685990930347"
2011,106059,100 Little Lonsdale Street MELBOURNE 3000,Gami Chicken and Beer,73,144.96871967445,-37.8091371854497,"-37.8091371854497, 144.96871967445"
2010,106081,27-31 Lygon Street CARLTON 3053,John Curtin Hotel,350,144.96569857047632,-37.80619945955,"-37.80619945955, 144.96569857047632"
2021,106142,291-299 Lygon Street CARLTON VIC 3053,Johnny's Green Room,200,144.96704169330002,-37.79838895230975,"-37.79838895230975, 144.96704169330002"
2018,106153,331-335 Lygon Street CARLTON 3053,Wolfs Lair,80,144.9671719070076,-37.79751106105,"-37.79751106105, 144.9671719070076"
2004,106186,414-422 Lygon Street CARLTON 3053,Percys Bar & Bistro,120,144.96782181585178,-37.79694678651363,"-37.79694678651363, 144.96782181585178"
2008,106215,298 Lygon Street CARLTON 3053,Carlton Yacht Club Bar,60,144.96737629242227,-37.799985814950006,"-37.799985814950006, 144.96737629242227"
2003,106222,270-276 Lygon Street CARLTON 3053,University Hotel,111,144.9672535310201,-37.8005282520571,"-37.8005282520571, 144.9672535310201"
2003,106238,192-202 Lygon Street CARLTON 3053,Players On Lygon,200,144.96699165611432,-37.80254093983895,"-37.80254093983895, 144.96699165611432"
2006,106239,186-190 Lygon Street CARLTON 3053,Hotel Milan,540,144.96693072583696,-37.80264148995404,"-37.80264148995404, 144.96693072583696"
2004,106244,160-162 Lygon Street CARLTON 3053,Bar Centrale,500,144.96677971226654,-37.80344268484407,"-37.80344268484407, 144.96677971226654"
2003,106251,66-88 Lygon Street CARLTON 3053,Lagers On Lygon,80,144.9665840839516,-37.80530454659966,"-37.80530454659966, 144.9665840839516"
2020,106254,Trades Hall 2-40 Lygon Street CARLTON VIC 3053,Common Rooms At Trades Hall,174,144.96641242315002,-37.80644010968685,"-37.80644010968685, 144.96641242315002"
2009,106433,18-24 Market Lane MELBOURNE 3000,Ding Dong Lounge,396,144.96940300403708,-37.8117510901,"-37.8117510901, 144.96940300403708"
2009,106435,21-31 Market Street MELBOURNE 3000,The Trust Bar,350,144.96042042913956,-37.8186455756,"-37.8186455756, 144.96042042913956"
2010,106436,54-60 Market Street MELBOURNE 3000,Alexis Restaurant,370,144.960818722029,-37.8177773141,"-37.8177773141, 144.960818722029"
2022,106560,12-18 Meyers Place MELBOURNE VIC 3000,Lily Blacks,95,144.9724843766,-37.81225381732877,"-37.81225381732877, 144.9724843766"
2015,106798,557 St Kilda Road MELBOURNE 3004,"Village Melbourne - Garden, Arbor, Bistro & Terrace",790,144.9815191454286,-37.84746944815,"-37.84746944815, 144.9815191454286"
2004,107481,65-67 Peel Street WEST MELBOURNE 3003,Loki Bar,140,144.95550681833367,-37.806669084113175,"-37.806669084113175, 144.95550681833367"
2008,107887,351-359 Queensberry Street NORTH MELBOURNE 3051,The Keeper's Arm,240,144.95596742391035,-37.8039559844,"-37.8039559844, 144.95596742391035"
2009,107890,399-405 Queensberry Street NORTH MELBOURNE 3051,Royal Park Hotel/Pub,114,144.9543146186515,-37.8037874454,"-37.8037874454, 144.9543146186515"
2015,107987,562-564 Queensberry Street NORTH MELBOURNE 3051,Banter Wine Bar,50,144.94871248665,-37.802718662022784,"-37.802718662022784, 144.94871248665"
2011,108052,133 Queens Bridge Street SOUTHBANK 3006,Story,120,144.96050441636524,-37.82526180655,"-37.82526180655, 144.96050441636524"
2013,108054,40-56 Queens Bridge Street SOUTHBANK 3006,Mesh/Tonic Bar,300,144.96001929179084,-37.8239807135,"-37.8239807135, 144.96001929179084"
2005,108058,7-11 Queen Street MELBOURNE 3000,The Bliss Lounge,210,144.9619565192058,-37.81862081553311,"-37.81862081553311, 144.9619565192058"
2011,108064,85-91 Queen Street MELBOURNE 3000,Element Lounge,230,144.96102193243902,-37.8164972605,"-37.8164972605, 144.96102193243902"
2006,108065,93-95 Queen Street MELBOURNE 3000,Basemint Louge Bar,167,144.96098388303682,-37.816379357258064,"-37.816379357258064, 144.96098388303682"
2008,108067,103-105 Queen Street MELBOURNE 3000,Chaise Lounge,140,144.96081186476823,-37.81615489945,"-37.81615489945, 144.96081186476823"
2008,108068,111-129 Queen Street MELBOURNE 3000,CitiClub On Queen Hotel,1505,144.96063605132247,-37.81581228765,"-37.81581228765, 144.96063605132247"
2008,108069,131-141 Queen Street MELBOURNE 3000,The Turf Bar & Restaurant,527,144.96053356826647,-37.81549537675,"-37.81549537675, 144.96053356826647"
2014,108103,244-250 Queen Street MELBOURNE 3000,Golden Buddha Lounge,200,144.9599637899321,-37.8126899312,"-37.8126899312, 144.9599637899321"
2014,108154,49 Rathdowne Street CARLTON 3053,Epocha Restaurant,124,144.9685622356859,-37.8057719265,"-37.8057719265, 144.9685622356859"
2020,108202,415-421 Rathdowne Street CARLTON VIC 3053,Capitano,100,144.9704268719,-37.796520432794665,"-37.796520432794665, 144.9704268719"
2007,108456,43-49 Royal Parade PARKVILLE 3052,Naughtons Hotel,350,144.95754147493764,-37.79554574576514,"-37.79554574576514, 144.95754147493764"
2009,108532,27-37 Russell Street MELBOURNE 3000,Ondergronds Pty Ltd,250,144.96924761608688,-37.8159873994,"-37.8159873994, 144.96924761608688"
2010,108536,115-127 Russell Street MELBOURNE 3000,Portland Hotel,414,144.9681997688,-37.81366374512493,"-37.81366374512493, 144.9681997688"
2019,108537,131-141 Russell Street MELBOURNE 3000,QT Melbourne,885,144.96783665800314,-37.81342912795,"-37.81342912795, 144.96783665800314"
2013,108538,163-169 Russell Street MELBOURNE 3000,Eden Bar,350,144.9676472887188,-37.8124662829,"-37.8124662829, 144.9676472887188"
2007,108547,199-203 Russell Street MELBOURNE 3000,Exford Hotel,300,144.9673502172554,-37.8117932225202,"-37.8117932225202, 144.9673502172554"
2009,108550,213-217 Russell Street MELBOURNE 3000,Guandi Lounge & Bar,100,144.96723626331527,-37.811561475800005,"-37.811561475800005, 144.96723626331527"
2013,108561,50-58 MacKenzie Street MELBOURNE 3000,Blue Moon Bar,200,144.966105304364,-37.80749393235,"-37.80749393235, 144.966105304364"
2005,108565,312-318 Russell Street MELBOURNE 3000,Kivotos Cafe Bar,269,144.9668252164964,-37.80932654189252,"-37.80932654189252, 144.9668252164964"
2010,108567,300 Russell Street MELBOURNE 3000,Jankara Japanese Bar,80,144.9669050494816,-37.80951656025,"-37.80951656025, 144.9669050494816"
2011,108568,296-298 Russell Street MELBOURNE 3000,Ice Lounge & Ski Lounge,152,144.96692730524177,-37.809572120750005,"-37.809572120750005, 144.96692730524177"
2006,108572,272 Russell Street MELBOURNE 3000,Tilt,130,144.96714253225628,-37.81007370116682,"-37.81007370116682, 144.96714253225628"
2008,108573,270 Russell Street MELBOURNE 3000,So'bar,90,144.96716400951658,-37.81011057565,"-37.81011057565, 144.96716400951658"
2002,108580,244-246 Russell Street MELBOURNE 3000,Jagulla,200,144.9673347628442,-37.8104756448507,"-37.8104756448507, 144.9673347628442"
2005,108581,226-236 Russell Street MELBOURNE 3000,Mai Tai Restaurant,170,144.9676532556974,-37.8109838040537,"-37.8109838040537, 144.9676532556974"
2009,108591,114-120 Russell Street MELBOURNE 3000,Canary Club,150,144.96902133147304,-37.81349217105,"-37.81349217105, 144.96902133147304"
2003,108617,375-385 St Kilda Road MELBOURNE 3004,Royce On St Kilda Road,120,144.97555072266726,-37.83508390239305,"-37.83508390239305, 144.97555072266726"
2002,108642,497-503 St Kilda Road MELBOURNE 3004,Cafe Dom - The Granite Bar,500,144.97908599467,-37.84331889873595,"-37.84331889873595, 144.97908599467"
2013,108653,100 St Kilda Road SOUTHBANK 3006,Curve Bar,300,144.96817034075002,-37.82094204031448,"-37.82094204031448, 144.96817034075002"
2002,108844,1-5 Spencer Street DOCKLANDS 3005,Holiday Inn Melbourne,130,144.9551020463571,-37.82272095673378,"-37.82272095673378, 144.9551020463571"
2021,108845,Grand Central Apartments 33-71 Spencer Street DOCKLANDS VIC 3008,Gaylord Indian Restaurant,199,144.95420017295,-37.8201773024649,"-37.8201773024649, 144.95420017295"
2016,108856,475-477 Spencer Street WEST MELBOURNE 3003,Hotel Spencer Bar & Dining Room,150,144.9490789249233,-37.80966119178056,"-37.80966119178056, 144.9490789249233"
2020,108876,McMahon's Hotel 573-579 Spencer Street WEST MELBOURNE VIC 3003,McMahons Hotel,160,144.9469889092186,-37.807407157300005,"-37.807407157300005, 144.9469889092186"
2014,108963,672-696 Bourke Street MELBOURNE 3000,Mail Exchange Hotel,600,144.95359044056096,-37.8166305854,"-37.8166305854, 144.95359044056096"
2015,108965,134-160 Spencer Street MELBOURNE 3000,The Savoy Tavern,594,144.95375200770002,-37.81738965100429,"-37.81738965100429, 144.95375200770002"
2012,108966,122-132 Spencer Street MELBOURNE 3000,Vibe Savoy Hotel Melbourne,40,144.95392973346546,-37.81777222815,"-37.81777222815, 144.95392973346546"
2007,108967,66-70 Spencer Street MELBOURNE 3000,The Batman's Hill Hotel,1500,144.95475962673038,-37.81942775489416,"-37.81942775489416, 144.95475962673038"
2005,108971,561-585 Flinders Lane MELBOURNE 3000,Holiday Inn On Flinders Melbourne,100,144.95511371743692,-37.820201437795866,"-37.820201437795866, 144.95511371743692"
2002,108972,10-22 Spencer Street MELBOURNE 3000,Explorers Inn,50,144.95525416628004,-37.82051068881513,"-37.82051068881513, 144.95525416628004"
2009,108973,85-161 Spencer Street DOCKLANDS 3008,Loco Bar,400,144.9522268967,-37.81841291093311,"-37.818412910933105, 144.9522268967"
2019,108977,25-31 Spring Street MELBOURNE 3000,HiHou,80,144.97410115885282,-37.814545339350005,"-37.814545339350005, 144.97410115885282"
2002,108983,103-137 Spring Street MELBOURNE 3000,Hard Rock Cafe,500,144.9729329718854,-37.811995901555065,"-37.811995901555065, 144.9729329718854"
2010,108986,161 Spring Street MELBOURNE 3000,European,703,144.9724296950647,-37.81095112325,"-37.81095112325, 144.9724296950647"
2003,108991,267-271 Spring Street MELBOURNE 3000,Elm's Family Hotel,200,144.97145390976615,-37.80861007304316,"-37.808610073043155, 144.97145390976615"
2004,109257,1-7 Swanston Street MELBOURNE 3000,Young & Jackson,470,144.96703233636947,-37.817357255280335,"-37.817357255280335, 144.96703233636947"
2010,109271,125-133 Swanston Street MELBOURNE 3000,The Hi -Fi Melbourne,800,144.9657990277468,-37.81472248695,"-37.81472248695, 144.9657990277468"
2012,109284,191-205 Swanston Street MELBOURNE 3000,The Swanston Hotel Grand Mercure - Tabaret,200,144.96501083590144,-37.8130993047,"-37.8130993047, 144.96501083590144"
2022,109292,243-249 Swanston Street MELBOURNE VIC 3000,Dodee Bbq,300,144.9647362546334,-37.8123009589,"-37.8123009589, 144.9647362546334"
2012,109302,281-287 Swanston Street MELBOURNE 3000,Mui Karaoke,243,144.96435885063997,-37.8114318327,"-37.811431832699995, 144.96435885063997"
2022,109304,301-303 Swanston Street MELBOURNE VIC 3000,Dom's,250,144.96419264487724,-37.8110777883,"-37.8110777883, 144.96419264487724"
2007,109309,319-323 Swanston Street MELBOURNE 3000,Rue Bebelons,100,144.96405767037385,-37.810765085811454,"-37.810765085811454, 144.96405767037385"
2008,109314,401-405 Swanston Street MELBOURNE 3000,The Order of Melbourne,420,144.96321775747032,-37.80904299005,"-37.80904299005, 144.96321775747032"
2002,109315,407-409 Swanston Street MELBOURNE 3000,Basement 407,150,144.963192113967,-37.8089570116272,"-37.8089570116272, 144.963192113967"
2003,109317,427-433 Swanston Street MELBOURNE 3000,The Oxford Scholar Hotel,486,144.96293756796908,-37.80846017511618,"-37.80846017511618, 144.96293756796908"
2020,109318,427-457 Swanston Street MELBOURNE VIC 3000,The Oxford Scholar Hotel,700,144.9626891397,-37.80826398196408,"-37.808263981964075, 144.9626891397"
2004,109366,594-600 Swanston Street CARLTON 3053,Plough and Harrow Hotel,400,144.96395480388765,-37.80277137275811,"-37.80277137275811, 144.96395480388765"
2014,109390,264-266 Swanston Street MELBOURNE 3000,Goldilocks,300,144.96514740335823,-37.81181061845,"-37.81181061845, 144.96514740335823"
2007,109392,248-258 Swanston Street MELBOURNE 3000,The Toff In Town,345,144.96528084701362,-37.811994212317146,"-37.811994212317146, 144.96528084701362"
2008,109413,146 Swanston Street MELBOURNE 3000,Cabinet Bar,100,144.9662271969642,-37.8141693107,"-37.814169310699995, 144.9662271969642"
2007,109436,27-29 Tattersalls Lane MELBOURNE 3000,Section 8 Bar Pty Ltd,100,144.96539897055217,-37.81176297225633,"-37.81176297225633, 144.96539897055217"
2011,109493,143-151 Therry Street MELBOURNE 3000,The Mercant Cross Hotel,1081,144.95839499835,-37.80790398358428,"-37.80790398358428, 144.95839499835"
2002,109512,146W-150W Toorak Road SOUTH YARRA 3141,United Kingdom Settlers Association,100,144.9843804943388,-37.83764654440955,"-37.83764654440955, 144.9843804943388"
2007,109706,297-307 Victoria Street WEST MELBOURNE 3003,Jawa Bar,40,144.95138561917568,-37.805643840406425,"-37.805643840406425, 144.95138561917568"
2020,109709,313 Victoria Street WEST MELBOURNE VIC 3003,Westwood Coffee & Wine,50,144.95109256005,-37.80556536116882,"-37.80556536116882, 144.95109256005"
2010,109710,315 Victoria Street WEST MELBOURNE 3003,Barber Bar,50,144.95104717110002,-37.8055655109825,"-37.8055655109825, 144.95104717110002"
2022,109714,345 Victoria Street WEST MELBOURNE VIC 3003,Benchwarmer,90,144.94996132195,-37.805462861815215,"-37.805462861815215, 144.94996132195"
2020,109822,368 Victoria Street NORTH MELBOURNE VIC 3051,Prudence Bar,80,144.9540541816,-37.805434361809134,"-37.805434361809134, 144.9540541816"
2006,109829,312-316 Victoria Street NORTH MELBOURNE 3051,Victoria Hotel,130,144.95571460962805,-37.80563375610747,"-37.80563375610747, 144.95571460962805"
2005,109842,240-248 Victoria Street NORTH MELBOURNE 3051,Central Club Hotel,150,144.95813211197202,-37.8059126341164,"-37.8059126341164, 144.95813211197202"
2005,109843,232-238 Victoria Street MELBOURNE 3000,The Public Bar Hotel,180,144.9585968320725,-37.80593464473581,"-37.80593464473581, 144.9585968320725"
2012,109952,7-9 Waratah Place MELBOURNE 3000,Manchuria,80,144.96699031788057,-37.81162488715,"-37.81162488715, 144.96699031788057"
2022,109954,15-19 Warburton Lane MELBOURNE VIC 3000,Murmur Piano Bar,70,144.9618461375,-37.81381261652099,"-37.81381261652099, 144.9618461375"
2022,109993,178-226 Wellington Parade EAST MELBOURNE VIC 3002,Hotel Pullman on The Park,280,144.98349853870505,-37.81582309925,"-37.81582309925, 144.98349853870505"
2022,109996,1-9 Powlett Street EAST MELBOURNE VIC 3002,Hemingway's,77,144.98483488812698,-37.8160871246,"-37.8160871246, 144.98483488812698"
2003,110106,263-267 William Street MELBOURNE 3000,Metropolitan On William Bar & Restaurant,300,144.95659301618502,-37.81292514670666,"-37.81292514670666, 144.95659301618502"
2009,110145,170-176 William Street MELBOURNE 3000,Chris's Daily Grind,50,144.95821984476856,-37.8149175536,"-37.8149175536, 144.95821984476856"
2015,110148,98-110 William Street MELBOURNE 3000,The Australian Club,280,144.95912288463865,-37.816746354550006,"-37.816746354550006, 144.95912288463865"
2012,110184,27 Windsor Place MELBOURNE 3000,The Melbourne RSL,240,144.97249159363227,-37.81194668805,"-37.81194668805, 144.97249159363227"
2007,110266,Brunton Avenue JOLIMONT 3002,Spotless Services,2800,144.98319738818486,-37.82000821319277,"-37.82000821319277, 144.98319738818486"
2019,110326,4 Riverside Quay SOUTHBANK VIC 3006,Soho Restaurant & Bar,200,144.9633741325051,-37.82092447295,"-37.82092447295, 144.9633741325051"
2012,110335,1-9 Southbank Boulevard SOUTHBANK 3006,Left Bank Melbourne,400,144.96286674090527,-37.8210393494,"-37.8210393494, 144.96286674090527"
2018,110343,27-45 Whiteman Street SOUTHBANK 3006,Kingpin Bowling Crown / Playtime,347,144.9582948,-37.8251819,"-37.8251819, 144.9582948"
2022,110349,1-23 City Road SOUTHBANK VIC 3006,Testing Ground,500,144.96752308838842,-37.8213758077,"-37.8213758077, 144.96752308838842"
2011,110385,174-184 City Road SOUTHBANK 3006,Olla Messa,250,144.9619185367833,-37.823835739100005,"-37.823835739100005, 144.9619185367833"
2019,110399,105-107 Clarendon Street SOUTHBANK VIC 3006,The Cloakroom Bar,50,144.9582570056776,-37.82713113065,"-37.82713113065, 144.9582570056776"
2012,110401,334-342 City Road SOUTHBANK 3006,Eve Bar Lounge,500,144.9573512904132,-37.82783772195,"-37.82783772195, 144.9573512904132"
2014,110473,65-73 Haig Street SOUTHBANK 3006,The Backlot Studios,80,144.956556491421,-37.827885359350006,"-37.827885359350006, 144.956556491421"
2013,110537,1-27 South Wharf Promenade SOUTH WHARF 3006,The Boatbuilders Yard,1438,144.95342716164834,-37.82431515095,"-37.82431515095, 144.95342716164834"
2017,110542,20-30 Convention Centre Place SOUTH WHARF 3006,Aerial Events,900,144.95231930285,-37.82542998795,"-37.82542998795, 144.95231930285"
2011,110606,3 Southgate Avenue SOUTHBANK 3006,P J O'Briens Irish Pub & Side Bar,550,144.96630309908272,-37.82071821935,"-37.82071821935, 144.96630309908272"
2022,110655,Federation Square Vaults 1-19 Princes Walk MELBOURNE VIC 3000,Riverland Bar,300,144.96865384918814,-37.81867874765,"-37.81867874765, 144.96865384918814"
2003,110669,353 Little Collins Street MELBOURNE 3000,Grosvenor Tavern,230,144.9629855,-37.8155378,"-37.8155378, 144.9629855"
2022,110684,Shed M Queen Victoria Market 50 Peel Street MELBOURNE VIC 3000,BRICK LANE SHED,85,144.9576272223,-37.80783257422127,"-37.807832574221266, 144.9576272223"
2021,110690,507-523 Elizabeth Street MELBOURNE VIC 3000,Meet Sando,20,144.9576272223,-37.80783257422127,"-37.807832574221266, 144.9576272223"
2002,110716,42-44 Lonsdale Street MELBOURNE 3000,44 Bar,260,144.9710871,-37.8097472,"-37.8097472, 144.9710871"
2011,110721,33-39 Little Lonsdale Street MELBOURNE 3000,Oddfellows Hotel,400,144.97072895315,-37.80919615113536,"-37.80919615113536, 144.97072895315"
2022,110724,17 Casselden Place MELBOURNE VIC 3000,Little Lon Distilling Co,30,144.97072895345,-37.809196151079576,"-37.809196151079576, 144.97072895345"
2020,110747,499-511 Swanston Street MELBOURNE VIC 3000,Podium,200,144.96192497362023,-37.80693100035,"-37.80693100035, 144.96192497362023"
2006,110920,161-163 Errol Street NORTH MELBOURNE 3051,Limerick Castle Hotel & Restaurant,175,144.9496475098828,-37.80115938855124,"-37.80115938855124, 144.9496475098828"
2007,110988,7-9 South Wharf SOUTHBANK 3006,Atlantic South Wharf Function Centre,1300,144.94934455622283,-37.82400245608464,"-37.82400245608464, 144.94934455622283"
2008,111071,46-74 Flinders Street MELBOURNE 3000,The Press Club Restuarant & Bar Pty Ltd,90,144.97272087728078,-37.81546171375,"-37.81546171375, 144.97272087728078"
2010,111175,8 Whiteman Street SOUTHBANK 3006,Studio 3,900,144.95833558284,-37.82316159535,"-37.82316159535, 144.95833558284"
2013,111394,16-30 Russell Place MELBOURNE 3000,Bar Ampere,60,144.9674365318,-37.813539026856645,"-37.813539026856645, 144.9674365318"
2007,222221,183-265 La Trobe Street MELBOURNE 3000,Kingpin Melbourne Central,760,144.9628483153142,-37.8109031097348,"-37.810903109734795, 144.9628483153142"
2011,503031,19-23 Meyers Place MELBOURNE 3000,Loop Project Space & Bar,152,144.97210474836243,-37.8121532295,"-37.8121532295, 144.97210474836243"
2002,508976,42 Courtney Street NORTH MELBOURNE 3051,Metropolitan Hotel,120,144.9541083709252,-37.8014314471986,"-37.801431447198595, 144.9541083709252"
2005,515538,4-6 Goldie Place MELBOURNE 3000,Paris Cat Jazz Club,200,144.9605705,-37.8132486,"-37.8132486, 144.9605705"
2013,541562,121-131 Collins Street MELBOURNE 3000,RU-CO,400,144.9698079667972,-37.81511565165,"-37.81511565165, 144.9698079667972"
2006,556742,419-443 Royal Parade PARKVILLE 3052,Vibe Hotel,96,144.95882491805455,-37.78289972149981,"-37.78289972149981, 144.95882491805455"
2019,558180,122-148 Harbour Esplanade DOCKLANDS 3008,The Medallion Club,5000,144.94756024120727,-37.81674197865,"-37.81674197865, 144.94756024120727"
2018,558610,256 Collins Street MELBOURNE 3000,The Butterfly Club,190,144.96529077485002,-37.815523727614426,"-37.815523727614426, 144.96529077485002"
2006,559161,3-7 Riverside Quay SOUTHBANK 3006,Belgian Beer Cafe Eureka,638,144.9645481020912,-37.82168190393536,"-37.82168190393536, 144.9645481020912"
2016,560004,24-42 Newquay Promenade DOCKLANDS 3008,Vacant,321,144.94218002877324,-37.81436269910686,"-37.81436269910686, 144.94218002877324"
2006,573414,788-812 Bourke Street DOCKLANDS 3008,Watermark Bar,300,144.94508950794062,-37.81885245528146,"-37.81885245528146, 144.94508950794062"
2013,574438,84-94 Flinders Street MELBOURNE 3000,Eau-De-Vie,150,144.97168700995002,-37.81594836933732,"-37.81594836933732, 144.97168700995002"
2006,575820,1-9 Freshwater Place SOUTHBANK 3006,BLVD Bar,562,144.96219203595228,-37.821716438356745,"-37.821716438356745, 144.96219203595228"
2022,576024,Site One 747-757 Bourke Street DOCKLANDS VIC 3008,The Nixon Hotel,320,144.94799200964053,-37.8193808754,"-37.8193808754, 144.94799200964053"
2004,576967,184 Rathdowne Street CARLTON 3053,Rathdowne Tavern,248,144.9712397941015,-37.7947671021019,"-37.7947671021019, 144.9712397941015"
2020,578321,Atrium Federation Square 2 Swanston Street MELBOURNE VIC 3000,Beer De Luxe,1000,144.96994164279243,-37.817777826050005,"-37.817777826050005, 144.96994164279243"
2006,578324,2 Swanston Street MELBOURNE 3000,Transport,900,144.9699510419009,-37.8177791473443,"-37.8177791473443, 144.9699510419009"
2007,578325,2 Swanston Street MELBOURNE 3000,The big Group,350,144.9699510419009,-37.8177791473443,"-37.8177791473443, 144.9699510419009"
2006,578327,2 Swanston Street MELBOURNE 3000,Zinc at Federation Square,1000,144.9699510419009,-37.8177791473443,"-37.8177791473443, 144.9699510419009"
2019,579293,230 Grattan Street PARKVILLE 3010,University House Club,611,144.9612087442,-37.79677169577826,"-37.79677169577826, 144.9612087442"
2010,585863,175-191 Dryburgh Street NORTH MELBOURNE 3051,The Oasis Oz Hotel,390,144.94336001515,-37.80205377560336,"-37.802053775603355, 144.94336001515"
2004,587492,91-93 Flinders Lane MELBOURNE 3000,Returned & Services League - Melbourne Sub-branch,90,144.97122719454467,-37.815414152739145,"-37.815414152739145, 144.97122719454467"
2010,589841,221 Little Lonsdale Street MELBOURNE 3000,Three Degrees,775,144.96572505310365,-37.8106786168,"-37.8106786168, 144.96572505310365"
2010,592048,188-202 King Street MELBOURNE 3000,La Di Da,458,144.9556241849,-37.815513584634886,"-37.815513584634886, 144.9556241849"
2012,593739,99-127 Pearl River Road DOCKLANDS 3008,Medibank Icehouse,100,144.93563148365,-37.81213814994177,"-37.81213814994177, 144.93563148365"
2013,595153,166 Albert Street EAST MELBOURNE 3002,Cohen Cellars Wine Bar,40,144.98562421364923,-37.8100473338,"-37.8100473338, 144.98562421364923"
2017,597183,121-131 Collins Street MELBOURNE 3000,Spice Market,800,144.96980796645528,-37.81511565165,"-37.81511565165, 144.96980796645528"
2015,597190,8 Whiteman Street SOUTHBANK 3006,Club 23,450,144.9583356388194,-37.823161595550005,"-37.823161595550005, 144.9583356388194"
2014,598987,Evan Walker Bridge SOUTHBANK 3006,Ponyfish Island,150,144.9651296,-37.8196329,"-37.8196329, 144.9651296"
2015,600431,816 Lorimer Street PORT MELBOURNE 3207,Underbridge Sports Bar & Cafe,60,144.9309547,-37.8221281,"-37.8221281, 144.9309547"
2014,601809,425-427 Docklands Drive DOCKLANDS 3008,Waterfront Venues,1059,144.93931047649968,-37.8152440667,"-37.8152440667, 144.93931047649968"
2013,604125,143-175 Harbour Esplanade DOCKLANDS 3008,Alumbra At Central Pier,690,144.94591,-37.81741,"-37.81741, 144.94591"
2010,604143,11 Collins Street MELBOURNE 3000,Recorded Music Salon,110,144.97346124155,-37.81376862299815,"-37.81376862299815, 144.97346124155"
2012,606461,607-623 Collins Street MELBOURNE 3000,Batman's Hill On Collins Hotel,1500,144.9541476,-37.8190018,"-37.8190018, 144.9541476"
2011,606638,124 La Trobe Street MELBOURNE 3000,Pearson and Murph'y Cafe,156,144.96458869514856,-37.80821791505,"-37.80821791505, 144.96458869514856"
2011,606674,344 Swanston Street MELBOURNE 3000,Caffeine At Re Vault,150,144.96458869514856,-37.80821791505,"-37.80821791505, 144.96458869514856"
2006,609329,334-342 City Road SOUTHBANK 3006,Eve Bar Lounge,600,144.95736075837317,-37.82783909985716,"-37.82783909985716, 144.95736075837317"
2015,614830,524 Macaulay Road KENSINGTON 3031,Lost and Found,40,144.9286062,-37.794177,"-37.794177, 144.9286062"
2011,616125,25-27 Rankins Road KENSINGTON 3031,Flemington & Kensington RSL Club,90,144.93211,-37.78929,"-37.78929, 144.93211"
2021,616156,40-48 Stubbs Street KENSINGTON VIC 3031,Bonehead Brewing,80,144.93519173586924,-37.79045306815,"-37.79045306815, 144.93519173586924"
2010,616160,265-271 Racecourse Road KENSINGTON 3031,The Quiet Man Irish Pub,400,144.93225,-37.78858,"-37.78858, 144.93225"
2009,616966,2 Boundary Road NORTH MELBOURNE 3051,Vodka Locka & Red Leaf Restaurant,40,144.9392476268893,-37.7953162502,"-37.7953162502, 144.9392476268893"
2021,620312,NW Building 23-37 Star Crescent DOCKLANDS VIC 3008,Urban Alley Brewery,700,144.93799836630816,-37.8132875163,"-37.8132875163, 144.93799836630816"
2022,620318,3-43 Waterfront Way DOCKLANDS VIC 3008,Melbourne Marriott Hotel Docklands,62,144.93913840305,-37.81372143046202,"-37.813721430462024, 144.93913840305"
2020,623559,Pan Pacific Melbourne 2 Convention Centre Place SOUTH WHARF VIC 3006,Pan Pacific,60,144.95231930285,-37.82542998795,"-37.82542998795, 144.95231930285"
2017,628712,717-731 Collins Street DOCKLANDS 3008,Bar Nicional,75,144.9505,-37.8149,"-37.8149, 144.9505"
2019,635138,13 Heffernan Lane MELBOURNE 3000,Union Electric,100,144.966599,-37.811798,"-37.811798, 144.966599"
2019,640970,14-24 Batmans Hill Drive DOCKLANDS 3008,Hightail,900,144.94982202525404,-37.82131269085,"-37.82131269085, 144.94982202525404"
2016,664626,230 Grattan Street PARKVILLE 3010,HJC Bar,200,144.9611927667791,-37.79677692115583,"-37.796776921155825, 144.9611927667791"
2020,692410,Novotel Melbourne South Wharf Hotel 7 Convention Centre Place SOUTH WHARF VIC 3006,Novotel Melbourne South Wharf,50,144.95231930285,-37.82542998795,"-37.82542998795, 144.95231930285"
2021,709873,95-109 Exhibition Street MELBOURNE VIC 3000,Nick & Nora's,476,144.9706863215771,-37.81363930815,"-37.81363930815, 144.9706863215771"
2022,709874,101-107 Little Collins Street MELBOURNE VIC 3000,Handpicked Urban Cellar Door Melbourne,353,144.9706863215771,-37.81363930815,"-37.81363930815, 144.9706863215771"
