Asset_Type,Equipment_ID,Date_Install,Longitude,Latitude,STREET_1,STREET_2,Suburb,RMS_Region
VEH ,1,13-Oct-33,151.204856339,-33.8709528867,MARKET ST,KENT ST,SYDNEY,Sydney
VEH ,2,19-Jul-37,151.182333858,-33.8822750859,BRIDGE RD,ROSS ST,FOREST LODGE,Sydney
VEH ,3,09-Aug-37,151.186980289,-33.8798000324,BRIDGE RD,GLEBE POINT RD,GLEBE,Sydney
VEH ,4,24-May-37,151.176163263,-33.8854173965,PYRMONT BRIDGE RD,BOOTH ST,CAMPERDOWN,Sydney
VEH ,5,06-Sep-37,151.194910116,-33.8713943627,PYRMONT BRIDGE RD,HARRIS ST,PYRMONT,Sydney
VEH ,7,23-Dec-66,151.226553259,-33.7515878525,WARRINGAH RD,FOREST WAY,FRENCHS FOREST,Sydney
VEH ,8,13-Sep-65,151.151989425,-33.8472922027,VICTORIA RD,WESTBOURNE ST,DRUMMOYNE,Sydney
VEH ,9,17-Oct-66,150.929311563,-31.0901102588,PEEL ST,BRISBANE ST,TAMWORTH,Northern
VEH ,10,14-Sep-67,151.131801262,-33.992712029,ROCKY POINT RD,RUSSELL AV,SANS SOUCI,Sydney
VEH ,11,30-Oct-76,151.101343301,-33.8179577724,CHURCH ST,MORRISON RD,RYDE,Sydney
VEH ,12,20-Jul-66,150.975183858,-33.8860255592,WOODVILLE RD,KIRRANG AV,VILLAWOOD,Sydney
VEH ,13,30-May-38,151.176258184,-33.8917863653,SALISBURY RD,AUSTRALIA ST,CAMPERDOWN,Sydney
VEH ,14,25-Jul-38,151.103689017,-33.8774218502,BURWOOD RD,RAILWAY PDE,BURWOOD,Sydney
VEH ,15,31-Jan-95,151.212108052,-33.8618881892,PHILLIP ST,ALBERT ST,SYDNEY,Sydney
VEH ,16,13-Feb-39,151.149062698,-33.8898977359,PARRAMATTA RD,FLOOD ST,LEICHHARDT,Sydney
VEH ,17,18-Jul-38,151.145912611,-33.8930439368,OLD CANTERBURY RD,RAILWAY TCE,LEWISHAM,Sydney
VEH ,18,13-Feb-39,151.141776306,-33.8875407447,PARRAMATTA RD,SLOANE ST,HABERFIELD,Sydney
VEH ,19,27-Feb-39,151.171647456,-33.891421903,SALISBURY RD,CARDIGAN ST,CAMPERDOWN,Sydney
VEH ,20,12-Dec-38,151.170934497,-33.8994918699,ENMORE RD,STANMORE RD,ENMORE,Sydney
VEH ,21,12-Oct-70,151.171647097,-33.8876078336,PARRAMATTA RD,BRIDGE RD,ANNANDALE,Sydney
VEH ,22,22-Jul-40,151.221415384,-33.8782949896,LIVERPOOL ST,VICTORIA ST,DARLINGHURST,Sydney
VEH ,23,08-Feb-11,151.217424297,-33.877683063,BOURKE ST,LIVERPOOL ST,DARLINGHURST,Sydney
VEH ,24,27-May-40,151.220388719,-33.8781383258,DARLINGHURST RD,LIVERPOOL ST,DARLINGHURST,Sydney
VEH ,25,26-Jun-40,151.222679696,-33.8785120322,LIVERPOOL ST,WOMERAH AV,DARLINGHURST,Sydney
VEH ,26,09-Sep-60,151.216051375,-33.8838411842,BOURKE ST,ALBION ST,SURRY HILLS,Sydney
VEH ,27,21-Apr-41,151.218188903,-33.885098522,SOUTH DOWLING ST,FLINDERS ST,SURRY HILLS,Sydney
VEH ,28,31-Jul-69,149.71841542,-34.7546482686,AUBURN ST,MONTAGUE ST,GOULBURN,Southern
VEH ,29,17-Aug-70,149.234344737,-35.3533582754,MONARO ST,CRAWFORD ST,QUEANBEYAN,Southern
VEH ,30,24-Jun-69,151.099430774,-33.9331354884,KINGSGROVE RD,HOMER ST,KINGSGROVE,Sydney
VEH ,31,21-Aug-69,151.116707166,-33.8194208784,VICTORIA RD,CRESSY RD,RYDE,Sydney
VEH ,32,05-Aug-69,151.134387468,-33.8749397641,WATTLE ST,RAMSAY ST,HABERFIELD,Sydney
VEH ,33,12-Apr-70,151.164879065,-33.8881285567,PARRAMATTA RD,PERCIVAL RD,ANNANDALE,Sydney
VEH ,34,10-Apr-67,150.886819991,-34.4783613356,KING ST,WATTLE ST,WARRAWONG,Southern
VEH ,35,10-Jun-40,151.214050897,-33.8851217461,CROWN ST,FOVEAUX ST,SURRY HILLS,Sydney
VEH ,36,04-Nov-40,151.213713268,-33.8806362183,CAMPBELL ST,RILEY ST,SURRY HILLS,Sydney
VEH ,37,22-Dec-72,151.100992119,-34.0401243239,KIORA RD SOUTH,PRESIDENT AV,MIRANDA,Sydney
VEH ,38,26-Aug-40,151.132034559,-33.8804620256,PARRAMATTA RD,BLAND ST,ASHFIELD,Sydney
VEH ,39,12-Aug-40,151.124839698,-33.8862877547,ELIZABETH ST,BLAND ST,ASHFIELD,Sydney
VEH ,40,12-Aug-40,151.120259502,-33.8841504703,ELIZABETH ST,FREDERICK ST,ASHFIELD,Sydney
VEH ,41,28-Dec-40,151.162208304,-33.9097237388,SYDENHAM RD,VICTORIA RD,MARRICKVILLE,Sydney
VEH ,42,06-Jan-41,151.149035694,-33.9010358851,WARDELL RD,FRAZER ST,MARRICKVILLE,Sydney
VEH ,43,22-Dec-41,151.098707701,-33.9705889801,KING GEORGES RD,HILLCREST AV,HURSTVILLE,Sydney
VEH ,44,08-Jul-40,151.218000822,-33.8861566029,SOUTH DOWLING ST,FITZROY ST,SURRY HILLS,Sydney
VEH ,45,25-Nov-40,151.201136491,-33.9014890845,BOTANY RD,MCEVOY ST,ALEXANDRIA,Sydney
VEH ,46,21-Mar-68,151.108307142,-33.7182978046,PACIFIC HWY,PENNANT HILLS RD,WAHROONGA,Sydney
VEH ,47,26-May-41,151.199255272,-33.8966611356,BOTANY RD,HENDERSON RD,ALEXANDRIA,Sydney
VEH ,48,09-Dec-40,151.200141959,-33.901753349,WYNDHAM ST,MCEVOY ST,ALEXANDRIA,Sydney
VEH ,49,18-Jan-90,151.113254185,-33.8698711231,PARRAMATTA RD,CHELTENHAM RD,CROYDON,Sydney
VEH ,50,08-Apr-40,151.725886028,-32.934252515,BRUNKER RD,GLEBE RD,ADAMSTOWN,Hunter
VEH ,51,03-Apr-40,151.746902204,-32.9240493348,TUDOR ST,BEAUMONT ST,HAMILTON,Hunter
VEH ,52,19-Dec-68,151.767162165,-32.9283111628,KING ST,UNION ST,NEWCASTLE WEST,Hunter
VEH ,53,03-Apr-40,151.774187854,-32.9279142504,KING ST,DARBY ST,NEWCASTLE,Hunter
VEH ,54,11-Oct-46,151.19755901,-33.9115464722,COLLINS ST,O'RIORDAN ST,BEACONSFIELD,Sydney
VEH ,55,18-Nov-46,151.198304209,-33.8969208945,HENDERSON RD,WYNDHAM ST,ALEXANDRIA,Sydney
VEH ,56,23-Jan-47,151.736509824,-32.8973610919,PACIFIC HWY,HANBURY ST,MAYFIELD,Hunter
VEH ,57,05-Mar-47,151.092848481,-33.9636509894,KING GEORGES RD,FOREST RD,PENSHURST,Sydney
VEH ,58,21-Apr-47,151.127151459,-33.873800171,PARRAMATTA RD,GREAT NORTH RD,FIVE DOCK,Sydney
VEH ,59,11-Dec-46,151.196416522,-33.9214598114,BOTANY RD,GARDENERS RD,MASCOT,Sydney
VEH ,60,10-May-48,151.083410141,-33.8918046794,HUME HWY,HOMEBUSH RD,STRATHFIELD SOUTH,Sydney
VEH ,61,23-Jun-48,151.036002553,-33.9064559369,HUME HWY,CHAPEL RD,BANKSTOWN,Sydney
VEH ,62,09-Aug-48,151.173536449,-33.8873812868,PARRAMATTA RD,PYRMONT BRIDGE RD,ANNANDALE,Sydney
VEH ,63,21-Jan-58,151.147611825,-33.884200196,MARION ST,FOSTER ST,LEICHHARDT,Sydney
VEH ,64,08-Oct-48,151.072305776,-33.9294465195,CANTERBURY RD,KING GEORGES RD,LAKEMBA,Sydney
VEH ,65,08-Nov-48,151.191757157,-33.9208247566,GARDENERS RD,O'RIORDAN ST,MASCOT,Sydney
VEH ,66,13-Dec-48,151.145826727,-33.9066429701,MARRICKVILLE RD,WARDELL RD,DULWICH HILL,Sydney
VEH ,67,04-Feb-49,151.15240586,-33.9086819036,MARRICKVILLE RD,LIVINGSTONE RD,MARRICKVILLE,Sydney
VEH ,68,01-Apr-49,151.160107484,-33.9123095452,MARRICKVILLE RD,VICTORIA RD,MARRICKVILLE,Sydney
VEH ,69,20-Jun-49,151.256020635,-33.8894518677,OLD SOUTH HEAD RD,EDGECLIFF RD,BELLEVUE HILL,Sydney
VEH ,70,14-Feb-56,151.1388906,-33.8860689429,HUME HWY,PARRAMATTA RD,ASHFIELD,Sydney
VEH ,71,24-Jun-74,151.027335099,-33.8649066456,PARK RD,WELLINGTON RD,AUBURN,Sydney
VEH ,72,20-Sep-58,151.026996355,-33.8379186536,PARRAMATTA RD,RAWSON ST,AUBURN,Sydney
VEH ,73,02-Aug-52,151.124897778,-33.8888299671,HUME HWY,HERCULES ST,ASHFIELD,Sydney
VEH ,74,24-Mar-54,151.190126683,-33.9247814586,O'RIORDAN ST,COWARD ST,MASCOT,Sydney
VEH ,75,16-Feb-53,151.194640378,-33.9296759077,BOTANY RD,KING ST,MASCOT,Sydney
VEH ,76,23-Dec-54,151.195509858,-33.9255307911,BOTANY RD,COWARD ST,MASCOT,Sydney
VEH ,77,14-Nov-52,151.101645207,-33.8876568878,HUME HWY,BURWOOD RD,BURWOOD,Sydney
VEH ,78,12-Sep-63,151.128567775,-33.9047029851,NEW CANTERBURY RD,CANTERBURY RD,HURLSTONE PARK,Sydney
VEH ,79,24-Dec-52,151.104400815,-33.9182302492,CANTERBURY RD,BEXLEY RD,CAMPSIE,Sydney
VEH ,80,07-May-69,151.094878211,-33.92220645,CANTERBURY RD,KINGSGROVE RD,BELMORE,Sydney
VEH ,81,05-Dec-57,151.153425258,-33.9015248162,FRAZER ST,LIVINGSTONE RD,MARRICKVILLE,Sydney
VEH ,82,04-Oct-65,151.154533871,-33.8510628794,VICTORIA RD,LYONS RD,DRUMMOYNE,Sydney
VEH ,83,02-Feb-53,151.129487816,-33.8693062704,GREAT NORTH RD,RAMSAY RD,FIVE DOCK,Sydney
VEH ,84,14-May-53,151.004785485,-33.8275840686,PARRAMATTA RD,WOODVILLE RD,GRANVILLE,Sydney
VEH ,85,09-Jun-56,151.158307577,-33.8550550842,VICTORIA RD,DAY ST,DRUMMOYNE,Sydney
VEH ,86,12-May-58,151.14238965,-33.903325343,NEW CANTERBURY RD,MARRICKVILLE RD,DULWICH HILL,Sydney
VEH ,87,08-Jul-53,151.160594013,-33.8742434303,BALMAIN RD,LILYFIELD RD,LILYFIELD,Sydney
VEH ,88,20-Sep-61,151.208955654,-33.8289195762,FALCON ST,MILLER ST,NORTH SYDNEY,Sydney
VEH ,90,20-May-60,151.206163563,-33.9002622974,ELIZABETH ST,MCEVOY ST,WATERLOO,Sydney
VEH ,91,03-Dec-59,151.157063745,-33.8837914737,MARION ST,NORTON ST,LEICHHARDT,Sydney
VEH ,92,18-Aug-70,151.167717771,-33.8879219619,PARRAMATTA RD,JOHNSTON ST,ANNANDALE,Sydney
VEH ,93,09-Oct-59,151.159108413,-33.8879312845,PARRAMATTA RD,CRYSTAL ST,LEICHHARDT,Sydney
VEH ,94,18-Nov-52,151.285000913,-33.7968707644,SYDNEY RD,BELGRAVE ST,MANLY,Sydney
VEH ,95,13-Nov-52,151.264849289,-33.7944221701,SYDNEY RD,CONDAMINE ST,BALGOWLAH,Sydney
VEH ,96,13-Feb-53,151.159162043,-33.9076034272,SYDENHAM RD,ILLAWARRA RD,MARRICKVILLE,Sydney
VEH ,97,12-Sep-57,151.149844129,-33.8940795368,RAILWAY TCE,WEST ST,LEWISHAM,Sydney
VEH ,98,26-Oct-55,151.228422905,-33.9400811599,MAROUBRA RD,BUNNERONG RD,PAGEWOOD,Sydney
VEH ,99,18-Jul-57,151.104946714,-33.8129481838,BLAXLAND RD,DEVLIN ST,RYDE,Sydney
VEH ,100,17-Sep-53,151.156844484,-33.8956769204,CRYSTAL ST,NEW CANTERBURY RD,PETERSHAM,Sydney
VEH ,101,21-May-53,151.157403281,-33.8940981109,CRYSTAL ST,TRAFALGAR ST,PETERSHAM,Sydney
VEH ,102,28-May-53,151.152514267,-33.8965849479,NEW CANTERBURY RD,LIVINGSTONE RD,PETERSHAM,Sydney
VEH ,103,12-Nov-52,151.174583663,-33.915528006,PRINCES HWY,CANAL RD,ST PETERS,Sydney
VEH ,104,12-Nov-53,151.169310497,-33.9191985259,PRINCES HWY,RAILWAY RD,SYDENHAM,Sydney
VEH ,105,18-Aug-52,151.166527662,-33.9164516738,RAILWAY RD,UNWINS BRIDGE RD,SYDENHAM,Sydney
VEH ,106,08-Mar-61,151.126078282,-33.8730384287,PARRAMATTA RD,CROYDON RD,FIVE DOCK,Sydney
VEH ,107,13-Mar-68,151.106933729,-33.8781498468,SHAFTESBURY RD,RAILWAY PDE,BURWOOD,Sydney
VEH ,108,22-Dec-53,151.003978181,-33.8202649266,GREAT WESTERN HWY,CHURCH ST,PARRAMATTA,Sydney
VEH ,109,31-Mar-53,151.00342534,-33.8135552512,CHURCH ST,GEORGE ST,PARRAMATTA,Sydney
VEH ,110,23-Apr-53,151.005317396,-33.8086640591,CHURCH ST,VICTORIA RD,PARRAMATTA,Sydney
VEH ,111,27-Oct-70,150.871230058,-34.4257210415,PRINCES HWY,MOUNT KEIRA RD,WEST WOLLONGONG,Southern
VEH ,112,23-Apr-53,151.018618063,-33.8334552315,PARRAMATTA RD,BERRY ST,GRANVILLE,Sydney
VEH ,113,13-Oct-52,151.012267721,-33.8306958046,PARRAMATTA RD,GOOD ST,GRANVILLE,Sydney
VEH ,114,10-Sep-53,151.241193491,-33.9171722081,BELMORE RD,AVOCA ST,RANDWICK,Sydney
VEH ,115,05-Aug-53,151.242040421,-33.9131631963,ALISON RD,AVOCA ST,RANDWICK,Sydney
VEH ,116,01-Dec-67,151.239401649,-33.9127820404,ALISON RD,BELMORE RD,RANDWICK,Sydney
VEH ,117,14-Apr-89,151.024202604,-33.8813033175,PARK RD,COMMERCIAL DR,REGENTS PARK,Sydney
VEH ,118,03-Nov-54,151.147726602,-33.9391550778,PRINCES HWY,FOREST RD,ARNCLIFFE,Sydney
VEH ,119,08-Jan-53,151.103017156,-33.8157688064,VICTORIA RD,DEVLIN ST,RYDE,Sydney
VEH ,120,20-Dec-52,151.091469004,-33.8876335918,HUME HWY,THE BOULEVARDE,ENFIELD,Sydney
VEH ,121,19-Jan-53,151.083600717,-33.9021417839,BURWOOD RD,PUNCHBOWL RD,BELFIELD,Sydney
VEH ,122,21-May-55,151.193937693,-33.8697068747,HARRIS ST,MILLER ST,PYRMONT,Sydney
VEH ,123,02-Mar-56,151.089497616,-33.8477087792,CONCORD RD,VICTORIA AV,CONCORD,Sydney
VEH ,124,06-Dec-54,151.19572092,-33.8790533647,WATTLE ST,WILLIAM HENRY ST,ULTIMO,Sydney
VEH ,125,12-Sep-55,151.091385522,-33.8555976043,CONCORD RD,CORREYS AV,CONCORD,Sydney
VEH ,126,15-Mar-54,151.215733722,-33.8852091306,BOURKE ST,FITZROY ST,SURRY HILLS,Sydney
VEH ,127,07-Dec-55,151.121983912,-33.8712942271,PARRAMATTA RD,HARRIS RD,FIVE DOCK,Sydney
VEH ,128,06-Dec-73,151.088193273,-33.8397016333,CONCORD RD,HOSPITAL RD,CONCORD WEST,Sydney
VEH ,129,15-Sep-54,151.224808689,-33.8731365547,DARLINGHURST RD,MACLEAY ST,KINGS CROSS,Sydney
VEH ,130,23-Jun-75,150.826612674,-34.4685053686,PRINCES HWY,NORTHCLIFFE DR,UNANDERRA,Southern
VEH ,131,17-Mar-54,151.219171258,-33.8816392704,OXFORD ST,SOUTH DOWLING ST,DARLINGHURST,Sydney
VEH ,132,23-Jun-53,151.179153105,-33.8861918249,PARRAMATTA RD,MISSENDEN RD,CAMPERDOWN,Sydney
VEH ,133,20-May-55,151.111784188,-33.9879013085,PRINCES HWY,KING GEORGES RD,BLAKEHURST,Sydney
VEH ,134,13-Jan-55,151.083519412,-33.9526136407,KING GEORGES RD,STONEY CREEK RD,BEVERLY HILLS,Sydney
VEH ,135,05-Oct-54,151.182253851,-33.8900791088,MISSENDEN RD,SALISBURY RD,CAMPERDOWN,Sydney
VEH ,136,06-Aug-53,151.198996803,-33.8989265096,WYNDHAM ST,BUCKLAND ST,ALEXANDRIA,Sydney
VEH ,137,27-May-54,151.200003487,-33.8987691143,BOTANY RD,BUCKLAND ST,ALEXANDRIA,Sydney
VEH ,138,09-Jul-69,151.175570042,-33.8123463783,PACIFIC HWY,LONGUEVILLE RD,LANE COVE,Sydney
VEH ,139,18-Dec-68,151.160927341,-33.730097373,MONA VALE RD,MEMORIAL AV,ST IVES,Sydney
VEH ,140,25-Feb-60,151.135633303,-33.8847150326,PARRAMATTA RD,DALHOUSIE ST,HABERFIELD,Sydney
VEH ,141,19-Jan-59,151.19388763,-33.900111483,MITCHELL RD,BUCKLAND ST,ALEXANDRIA,Sydney
VEH ,142,08-Dec-58,151.102307956,-34.0342075215,KINGSWAY,KIORA RD,MIRANDA,Sydney
VEH ,143,08-Jul-53,151.157620148,-33.8882324145,PARRAMATTA RD,NORTON ST,LEICHHARDT,Sydney
VEH ,144,22-Nov-73,151.104307527,-33.8742799185,BURWOOD RD,PARK AV,BURWOOD,Sydney
VEH ,145,13-May-57,151.127862589,-33.948206408,FOREST RD,BEXLEY RD,BEXLEY,Sydney
VEH ,146,24-Sep-68,151.207043662,-33.9229229702,GARDENERS RD,DALMENY AV,ROSEBERY,Sydney
VEH ,148,20-Nov-53,151.147324171,-33.7509605706,PACIFIC HWY,MONA VALE RD,PYMBLE,Sydney
VEH ,149,09-Feb-59,151.18809132,-33.9064642731,MITCHELL RD,HUNTLEY ST,ALEXANDRIA,Sydney
VEH ,150,27-Mar-62,151.205235637,-33.9042338868,ELIZABETH ST,BOURKE ST,WATERLOO,Sydney
VEH ,151,18-Jun-68,151.209385896,-33.826948469,MILLER ST,ERNEST ST,CAMMERAY,Sydney
VEH ,152,25-Feb-54,151.122571017,-33.978500744,PRINCES HWY,PARK RD,ALLAWAH,Sydney
VEH ,153,29-Mar-56,151.104925332,-33.9775644595,KING GEORGES RD,CONNELLS POINT RD,SOUTH HURSTVILLE,Sydney
VEH ,154,24-Mar-58,151.21370928,-33.8630500855,CAHILL EXP OFF RAMP,CONSERVATORIUM RD,SYDNEY,Sydney
VEH ,155,08-Nov-65,151.226269696,-33.8849949306,OXFORD ST,OATLEY RD,PADDINGTON,Sydney
VEH ,156,20-Jun-60,150.996395078,-33.818616746,GREAT WESTERN HWY,PITT ST,PARRAMATTA,Sydney
VEH ,157,26-May-54,151.086258151,-33.9139159416,BURWOOD RD,LAKEMBA ST,BELMORE,Sydney
VEH ,158,22-Sep-89,151.187111676,-33.9285666117,O'RIORDAN ST,KING ST,MASCOT,Sydney
VEH ,159,06-Jul-53,151.251209309,-33.8961618788,BRONTE RD,BIRRELL ST,WAVERLEY,Sydney
VEH ,160,24-Jun-53,151.253619046,-33.9003206996,BRONTE RD,CARRINGTON RD,WAVERLEY,Sydney
VEH ,161,13-Jul-53,151.249505064,-33.8937232541,BRONTE RD,EBLEY ST,BONDI JUNCTION,Sydney
VEH ,162,23-Apr-56,151.091089331,-33.9241480751,CANTERBURY RD,BURWOOD RD,BELMORE,Sydney
VEH ,163,20-Nov-52,151.179330599,-33.8054472299,PACIFIC HWY,MOWBRAY RD,CHATSWOOD,Sydney
VEH ,164,25-Jun-62,150.973143847,-33.8896011348,HUME HWY,WOODVILLE RD,LANSDOWNE,Sydney
VEH ,165,07-Jun-55,151.03973022,-33.8434294066,PARRAMATTA RD,STATION RD,AUBURN,Sydney
VEH ,166,19-May-59,151.041748939,-33.812345058,VICTORIA RD,PARK RD,RYDALMERE,Sydney
VEH ,167,18-Mar-53,151.244606642,-33.8772343998,NEW SOUTH HEAD RD,KIAORA RD,DOUBLE BAY,Sydney
VEH ,168,24-Jul-56,151.755768414,-32.9238210308,HUNTER ST,TUDOR ST,NEWCASTLE WEST,Hunter
VEH ,169,01-Jul-57,151.215437745,-33.9406495769,WENTWORTH AV,PAGE ST,PAGEWOOD,Sydney
VEH ,171,01-Dec-55,150.893096037,-34.4248270405,CROWN ST,KEIRA ST,WOLLONGONG,Southern
VEH ,172,02-Oct-58,151.762012228,-32.9263359406,HUNTER ST,HANNELL ST,NEWCASTLE WEST,Hunter
VEH ,173,30-Apr-54,151.108917387,-33.9277297777,BEXLEY RD,WILLIAM ST,EARLWOOD,Sydney
VEH ,174,23-Oct-67,151.103821249,-33.8767652257,BURWOOD RD,DEANE ST,BURWOOD,Sydney
VEH ,175,22-Dec-55,151.178049412,-33.7961207137,PACIFIC HWY,FULLERS RD,CHATSWOOD,Sydney
VEH ,176,05-Dec-52,151.164118635,-33.8939970386,PERCIVAL ST,DOUGLAS ST,STANMORE,Sydney
VEH ,177,08-Jul-53,151.124361404,-33.7967687191,WICKS RD,COXS RD,NORTH RYDE,Sydney
VEH ,178,15-Jan-62,151.199567616,-33.8921232036,REDFERN ST,GIBBONS ST,REDFERN,Sydney
VEH ,179,27-Jan-61,151.162815307,-33.8831750881,CATHERINE ST,STYLES ST,LEICHHARDT,Sydney
VEH ,180,31-Oct-61,151.267614291,-33.7829079235,CONDAMINE ST,KING ST,MANLY VALE,Sydney
VEH ,181,23-Jan-61,151.018033257,-33.9452399176,THE RIVER RD,DOYLE RD,REVESBY,Sydney
PED ,182,07-Mar-89,151.106567993,-33.8957889328,GEORGES RIVER RD,BEAUFORT ST (E-),CROYDON PARK,Sydney
VEH ,183,18-May-61,151.003457611,-33.8169566624,CHURCH ST,ARGYLE ST,PARRAMATTA,Sydney
VEH ,184,18-May-61,151.002928633,-33.8150498003,CHURCH ST,MACQUARIE ST,PARRAMATTA,Sydney
VEH ,185,18-May-61,151.00385171,-33.8122424628,CHURCH ST,PHILLIP ST,PARRAMATTA,Sydney
VEH ,186,05-Apr-61,151.749556164,-32.9171208687,MAITLAND RD,BEAUMONT ST,ISLINGTON,Hunter
VEH ,187,06-Apr-65,151.215009317,-33.900888113,SOUTH DOWLING ST,LACHLAN ST,WATERLOO,Sydney
VEH ,188,14-Sep-60,151.221183644,-33.8793155303,VICTORIA ST,BURTON ST,DARLINGHURST,Sydney
VEH ,189,02-Jan-62,151.108576317,-33.8953005755,GEORGES RIVER RD,BRIGHTON AV,CROYDON PARK,Sydney
VEH ,190,26-Feb-62,151.005762311,-33.8035542935,PENNANT HILLS RD,CHURCH ST,NORTH PARRAMATTA,Sydney
VEH ,191,05-Dec-61,151.179431088,-33.9123503236,PRINCES HWY,CAMPBELL ST,ST PETERS,Sydney
VEH ,192,18-Jul-66,151.07051102,-33.8071656264,VICTORIA RD,MARSDEN RD,ERMINGTON,Sydney
VEH ,193,23-Jan-62,151.153006604,-33.75651394,PACIFIC HWY,ST JOHNS AV,GORDON,Sydney
VEH ,194,31-Jan-62,151.219482614,-33.830469407,MILITARY RD,BEN BOYD RD,NEUTRAL BAY,Sydney
VEH ,195,14-Mar-74,151.125822146,-33.7876125457,LANE COVE RD,EPPING RD,MACQUARIE PARK,Sydney
VEH ,196,28-Jun-89,151.1217533,-33.9270387648,WILLIAM ST,CAMERON AV,EARLWOOD,Sydney
VEH ,197,03-Sep-76,151.136306239,-33.9841759006,ROCKY POINT RD,RAMSGATE RD,RAMSGATE,Sydney
VEH ,198,14-Jun-74,151.581533577,-32.7466840536,NEW ENGLAND HWY,MELBOURNE ST,EAST MAITLAND,Hunter
VEH ,199,04-Jan-62,151.027024795,-33.9337805747,CANTERBURY RD,CHAPEL RD,BANKSTOWN,Sydney
VEH ,200,19-Feb-68,150.813812057,-33.6118682595,GEORGE ST,RICHMOND RD,WINDSOR,Sydney
VEH ,201,28-Nov-72,151.725664009,-32.9151384071,TURTON RD,GRIFFITHS RD,LAMBTON,Hunter
VEH ,202,23-Nov-61,151.12962974,-33.9735880587,PRINCES HWY,JUBILEE AV,CARLTON,Sydney
VEH ,203,10-Jul-61,150.920311992,-33.927047929,MACQUARIE ST,TERMINUS ST,LIVERPOOL,Sydney
VEH ,204,22-Mar-63,151.147148468,-33.9570499002,WEST BOTANY ST,BAY ST,ROCKDALE,Sydney
VEH ,205,18-Nov-64,151.22329141,-33.9100306641,ANZAC PDE,TODMAN AV,KENSINGTON,Sydney
VEH ,206,11-Apr-63,150.969500224,-33.8155705103,GREAT WESTERN HWY,STATION ST,WENTWORTHVILLE,Sydney
VEH ,207,29-May-63,151.099615354,-33.8974861778,BURWOOD RD,GEORGES RIVER RD,CROYDON PARK,Sydney
VEH ,208,17-Feb-72,151.758563949,-32.9387078514,GLEBE RD,UNION ST,THE JUNCTION,Hunter
VEH ,209,18-Mar-76,151.006729818,-33.8837092167,WALDRON RD,HECTOR ST,CHESTER HILL,Sydney
VEH ,210,17-Nov-64,150.887589972,-34.48537973,KING ST,COWPER ST,WARRAWONG,Southern
VEH ,211,07-Sep-06,151.217926237,-33.8702294821,SIR JOHN YOUNG CRES,PALMER ST,WOOLLOOMOOLOO,Sydney
VEH ,212,16-Feb-65,151.767277528,-32.9274245396,HUNTER ST,UNION ST,NEWCASTLE,Hunter
VEH ,213,04-Sep-62,151.726350324,-32.889694977,MAITLAND RD,MAUD ST,MAYFIELD,Hunter
VEH ,214,12-Feb-63,151.110005161,-33.9326661321,BEXLEY RD,HOMER ST,EARLWOOD,Sydney
VEH ,215,26-Nov-62,151.170683915,-33.8814259179,BOOTH ST,JOHNSTON ST,ANNANDALE,Sydney
VEH ,216,04-Sep-63,151.083113271,-33.773866229,EPPING RD,BLAXLAND RD,EPPING,Sydney
VEH ,217,02-Jul-69,151.109189093,-33.9834092786,KING GEORGES RD,TERRY ST,BLAKEHURST,Sydney
VEH ,218,21-Dec-62,150.899791786,-34.4258721456,CORRIMAL ST,CROWN ST,WOLLONGONG,Southern
VEH ,219,02-Oct-62,151.170917417,-33.8124485837,EPPING RD,LONGUEVILLE RD,LANE COVE,Sydney
VEH ,220,21-Apr-89,150.900537177,-34.4223815351,CORRIMAL ST,SMITH ST,WOLLONGONG,Southern
VEH ,221,09-Apr-63,151.042150454,-33.8450292838,PARRAMATTA RD,SILVERWATER RD,AUBURN,Sydney
VEH ,222,11-May-72,150.94547214,-33.8729354758,HAMILTON RD,SACKVILLE ST,FAIRFIELD,Sydney
VEH ,223,05-Jul-73,151.242146761,-33.8784155388,NEW SOUTH HEAD RD,MANNING RD,DOUBLE BAY,Sydney
VEH ,224,25-Oct-62,151.267898123,-33.8850674453,OLD SOUTH HEAD RD,O'SULLIVAN RD,BONDI,Sydney
VEH ,225,07-Nov-62,151.037267464,-33.8990563607,ROOKWOOD RD,BRUNKER RD,YAGOONA,Sydney
VEH ,226,01-Apr-63,151.130480477,-33.7912815461,EPPING RD,WICKS RD,NORTH RYDE,Sydney
VEH ,227,18-Jul-66,151.211051634,-33.8634325578,BRIDGE ST,YOUNG ST,SYDNEY,Sydney
VEH ,229,29-Jan-63,151.208601027,-33.8782876901,CASTLEREAGH ST,GOULBURN ST,SYDNEY,Sydney
VEH ,230,25-Oct-87,151.193849848,-33.8724057642,WEST ARTERIAL OFF RAMP,PYRMONT BRIDGE RD,PYRMONT,Sydney
VEH ,232,26-Feb-90,151.207725868,-33.8622639771,GEORGE ST,ESSEX ST,SYDNEY,Sydney
VEH ,233,17-Dec-96,151.208288875,-33.861316996,GEORGE ST,ALFRED ST,THE ROCKS,Sydney
VEH ,235,29-Jan-63,151.208119807,-33.873134218,PITT ST,PARK ST,SYDNEY,Sydney
VEH ,237,22-Feb-65,151.208225144,-33.8707689695,PITT ST,MARKET ST,SYDNEY,Sydney
VEH ,238,11-Mar-04,151.251686378,-33.8933754508,HOLLYWOOD AV,WESTFIELD ACCESS RD,BONDI JUNCTION,Sydney
VEH ,239,22-Jan-65,151.208311242,-33.8688875727,PITT ST,KING ST,SYDNEY,Sydney
VEH ,240,24-May-99,151.204560309,-33.8818098271,GEORGE ST,VAENTINE ST,SYDNEY,Sydney
VEH ,241,21-Jul-66,151.208666728,-33.8656775856,PITT ST,HUNTER ST,SYDNEY,Sydney
VEH ,242,01-Apr-82,151.211595517,-33.8650919899,PHILLIP ST,BENT ST,SYDNEY,Sydney
VEH ,243,18-Jul-66,151.208943346,-33.8636159059,PITT ST,BRIDGE ST,SYDNEY,Sydney
VEH ,244,18-Jul-66,151.210029492,-33.8662395104,CASTLEREAGH ST,HUNTER ST,SYDNEY,Sydney
PED ,245,28-Apr-65,151.209842559,-33.8677017218,CASTLEREAGH ST,MARTIN PL (@),SYDNEY,Sydney
VEH ,246,22-Feb-65,151.209667296,-33.8690733977,CASTLEREAGH ST,KING ST,SYDNEY,Sydney
VEH ,247,23-Jul-81,151.202733875,-33.874011794,BATHURST ST,HARBOUR ST,SYDNEY,Sydney
VEH ,248,22-Feb-65,151.209467059,-33.8707375664,CASTLEREAGH ST,MARKET ST,SYDNEY,Sydney
VEH ,249,12-Oct-75,151.204199728,-33.8828662562,GEORGE ST,PITT ST,SYDNEY,Sydney
VEH ,250,29-Jan-64,151.209179327,-33.8732402054,CASTLEREAGH ST,PARK ST,SYDNEY,Sydney
VEH ,251,29-Jan-64,151.209895943,-33.8733035222,ELIZABETH ST,PARK ST,SYDNEY,Sydney
PED ,252,05-May-98,151.203730598,-33.8837149362,LEE ST,RAILWAY SQ (S-),SYDNEY,Sydney
VEH ,253,29-Jan-64,151.209452739,-33.8768519419,ELIZABETH ST,LIVERPOOL ST,SYDNEY,Sydney
VEH ,254,29-Jan-64,151.209274277,-33.8783998654,ELIZABETH ST,GOULBURN ST,SYDNEY,Sydney
VEH ,255,29-Jan-64,151.209083429,-33.8797971236,ELIZABETH ST,CAMPBELL ST,SYDNEY,Sydney
VEH ,256,06-Sep-01,151.207010049,-33.8620695423,HARRINGTON ST,ESSEX ST,CITY,Sydney
VEH ,257,29-Jan-64,151.20835011,-33.8803795579,CASTLEREAGH ST,HAY ST,SYDNEY,Sydney
VEH ,258,29-Jan-64,151.206909622,-33.8800776782,PITT ST,HAY ST,SYDNEY,Sydney
VEH ,259,30-Jan-68,151.20529186,-33.8796539623,GEORGE ST,HAY ST,SYDNEY,Sydney
VEH ,260,18-Aug-00,151.190492957,-33.8901223721,BUTLIN AV,MAZE CR,DARLINGTON,Sydney
VEH ,261,29-Jan-64,151.205716804,-33.8777971768,GEORGE ST,GOULBURN ST,SYDNEY,Sydney
VEH ,262,29-Jan-64,151.206168981,-33.876394568,GEORGE ST,LIVERPOOL ST,SYDNEY,Sydney
PED ,263,24-Apr-88,151.207606948,-33.8825320487,EDDY AV,ELIZABETH ST (W-),SYDNEY,Sydney
VEH ,264,29-Jan-64,151.207006375,-33.8730244781,GEORGE ST,PARK ST,SYDNEY,Sydney
PED ,265,19-Aug-02,151.211336361,-33.8460330633,ALFRED ST,GLEN ST (S-),MILSONS POINT,Sydney
PED ,266,30-Apr-02,151.204152186,-33.8733702134,SUSSEX ST,DRUITT ST (S-),SYDNEY,Sydney
PED ,267,10-Oct-01,151.220366764,-33.8826731939,OXFORD ST,VERONA ST (E-),PADDINGTON,Sydney
VEH ,268,10-Dec-01,151.111730574,-33.9360207106,BEXLEY RD M5 RAMPS,WOLLI AV,EARLWOOD,Sydney
VEH ,269,22-Nov-64,151.210219098,-33.8707195404,MARKET ST,ELIZABETH ST,SYDNEY,Sydney
VEH ,270,22-Feb-65,151.206953769,-33.8708049809,MARKET ST,GEORGE ST,SYDNEY,Sydney
VEH ,271,22-Feb-65,151.206305823,-33.8708429026,MARKET ST,YORK ST,SYDNEY,Sydney
VEH ,272,22-Feb-65,151.205526884,-33.8708823334,MARKET ST,CLARENCE ST,SYDNEY,Sydney
VEH ,274,22-Feb-65,151.203853192,-33.8709747827,MARKET ST,SUSSEX ST,SYDNEY,Sydney
VEH ,276,20-Jul-75,151.211959488,-33.8698575486,MACQUARIE ST,ST JAMES RD,SYDNEY,Sydney
VEH ,278,22-Nov-64,151.210389509,-33.8691794986,KING ST,ELIZABETH ST,SYDNEY,Sydney
VEH ,279,12-Oct-75,151.202882418,-33.8854196984,REGENT ST,LEE ST,CHIPPENDALE,Sydney
VEH ,280,22-Feb-65,151.206953215,-33.8687364862,KING ST,GEORGE ST,SYDNEY,Sydney
VEH ,281,22-Feb-65,151.206033423,-33.8686845295,KING ST,YORK ST,SYDNEY,Sydney
VEH ,282,22-Feb-65,151.205276577,-33.8687398193,KING ST,CLARENCE ST,SYDNEY,Sydney
VEH ,283,19-Dec-38,151.204592425,-33.8687773344,KING ST,KENT ST,SYDNEY,Sydney
VEH ,284,22-Feb-65,151.203603648,-33.8687945589,KING ST,SUSSEX ST,SYDNEY,Sydney
PED ,285,28-Apr-65,151.212224719,-33.8678914268,MACQUARIE ST,MARTIN PL (@),SYDNEY,Sydney
PED ,286,28-Apr-65,151.211231691,-33.867807001,PHILLIP ST,MARTIN PL (@),SYDNEY,Sydney
PED ,287,28-Apr-65,151.210578096,-33.8677600557,ELIZABETH ST,MARTIN PL (@),SYDNEY,Sydney
PED ,288,28-Apr-65,151.208459807,-33.8675545199,PITT ST,MARTIN PL (@),SYDNEY,Sydney
VEH ,289,22-Aug-03,151.201099829,-33.9040727388,WYNDHAM ST,MANDIBLE ST,ALEXANDRIA,Sydney
VEH ,290,11-May-66,151.212409422,-33.8665530902,MACQUARIE ST,HUNTER ST,SYDNEY,Sydney
VEH ,291,26-Nov-72,151.212539984,-33.8657115451,MACQUARIE ST,BENT ST,SYDNEY,Sydney
VEH ,292,09-Aug-74,151.212319497,-33.8759273413,COLLEGE ST,FRANCIS ST,SYDNEY,Sydney
VEH ,293,18-Nov-65,151.208293802,-33.8834447743,ELIZABETH ST,FOVEAUX ST,SYDNEY,Sydney
VEH ,294,18-Nov-65,151.208647892,-33.8816658703,ELIZABETH ST,ALBION ST,SYDNEY,Sydney
VEH ,295,14-Dec-72,151.199823694,-33.8842566386,BROADWAY,JONES ST,SYDNEY,Sydney
VEH ,296,28-Jun-65,151.205873491,-33.8816325851,PITT ST,EDDY AV,SYDNEY,Sydney
VEH ,298,04-Oct-66,151.211861264,-33.8633661406,BRIDGE ST,PHILLIP ST,SYDNEY,Sydney
VEH ,299,04-Oct-66,151.212886757,-33.863271829,MACQUARIE ST,BRIDGE ST,SYDNEY,Sydney
VEH ,300,18-Jul-66,151.207478669,-33.8636400922,BRIDGE ST,GEORGE ST,SYDNEY,Sydney
VEH ,301,18-Jul-66,151.207288143,-33.8654954077,GEORGE ST,HUNTER ST,SYDNEY,Sydney
VEH ,302,18-Jul-66,151.210736394,-33.8663456314,ELIZABETH ST,HUNTER ST,SYDNEY,Sydney
PED ,304,19-Nov-02,151.254124314,-33.8979015308,CARRINGTON RD,CHURCH ST (N-),WAVERLEY,Sydney
VEH ,305,12-Aug-00,151.202566932,-33.8668825748,ERSKINE ST,SHELLEY ST,SYDNEY,Sydney
VEH ,306,25-Feb-00,151.22043808,-33.8692909726,COWPER WHARF RD,FINGER WHARF ACCESS,WOOLLOOMOOLOO,Sydney
VEH ,307,19-Jul-37,151.204364059,-33.866765666,KENT ST,ERSKINE ST,SYDNEY,Sydney
VEH ,308,18-Jul-66,151.204141881,-33.8651662211,KENT ST,MARGARET ST,SYDNEY,Sydney
VEH ,309,21-Mar-99,151.218101212,-33.8688690846,COWPER WHARF RD,SIR JOHN YOUNG CR,WOOLLOOMOOLOO,Sydney
VEH ,310,18-Jul-66,151.203414355,-33.866829849,SUSSEX ST,ERSKINE ST,SYDNEY,Sydney
VEH ,311,21-Nov-66,151.210743847,-33.8786087464,WENTWORTH AV,GOULBURN ST,SYDNEY,Sydney
VEH ,312,17-Oct-72,151.215391871,-33.8741854028,WILLIAM ST,RILEY ST,SYDNEY,Sydney
VEH ,313,15-Sep-00,151.217446227,-33.888584825,SOUTH DOWLING ST,ARTHUR ST,SURRY HILLS,Sydney
VEH ,314,22-Jun-00,151.216385299,-33.8938444303,SOUTH DOWLING ST,CHARLES ST,SURRY HILLS,Sydney
VEH ,315,07-Nov-66,151.212601521,-33.8737004514,COLLEGE ST,WILLIAM ST,SYDNEY,Sydney
VEH ,316,06-Apr-67,151.216309496,-33.8742924777,WILLIAM ST,CROWN ST,WOOLLOOMOOLOO,Sydney
VEH ,317,24-Mar-58,151.217243591,-33.8744712418,WILLIAM ST,PALMER ST,WOOLLOOMOOLOO,Sydney
VEH ,318,24-May-37,151.20503571,-33.8667062211,CLARENCE ST,ERSKINE ST,SYDNEY,Sydney
VEH ,319,18-Jul-66,151.204854587,-33.8651414968,CLARENCE ST,MARGARET ST,SYDNEY,Sydney
VEH ,320,21-Dec-72,151.218050081,-33.8745899423,WILLIAM ST,BOURKE ST,WOOLLOOMOOLOO,Sydney
VEH ,321,18-Jul-66,151.210359427,-33.8634933968,BRIDGE ST,LOFTUS ST,SYDNEY,Sydney
VEH ,322,18-Jan-67,150.992901863,-33.7619293447,WINDSOR RD,SEVEN HILLS RD,BAULKHAM HILLS,Sydney
VEH ,323,10-Sep-64,151.252824513,-33.7961271788,BURNT BRIDGE CREEK DEV,MANLY RD,SEAFORTH,Sydney
VEH ,324,04-Jun-92,150.899364977,-34.4280647414,CORRIMAL ST,STEWART ST,WOLLONGONG,Southern
VEH ,326,11-Feb-62,150.892861512,-34.414004978,FLINDERS ST,BOURKE ST,NORTH WOLLONGONG,Southern
VEH ,327,21-Feb-63,151.138845953,-33.8804947135,RAMSAY ST,DALHOUSIE ST,HABERFIELD,Sydney
VEH ,328,18-Sep-70,150.897419131,-34.425534777,CROWN ST,KEMBLA ST,WOLLONGONG,Southern
VEH ,329,11-Jul-63,151.214358065,-33.8835317478,CROWN ST,ALBION ST,SURRY HILLS,Sydney
VEH ,330,01-Feb-69,151.209852724,-33.8416001636,PACIFIC HWY,ARTHUR ST,NORTH SYDNEY,Sydney
VEH ,332,18-Jun-68,151.21016124,-33.839273413,MOUNT ST,ARTHUR ST,NORTH SYDNEY,Sydney
VEH ,333,21-Jul-98,151.220328658,-33.8867183263,MOORE PARK RD,GREENS RD,PADDINGTON,Sydney
VEH ,334,18-Jun-68,151.211248863,-33.8395162897,ALFRED ST,MOUNT ST,NORTH SYDNEY,Sydney
VEH ,336,18-Jul-67,151.213200733,-33.8296458314,FALCON ST,WARRINGAH FWY N/B OFF,NORTH SYDNEY,Sydney
VEH ,337,18-Jun-68,151.214233809,-33.8297941679,FALCON ST,WARRINGAH FWY S/B ON,NORTH SYDNEY,Sydney
VEH ,338,26-Jun-89,150.896584974,-34.3749695381,PRINCES HWY,SHORT ST,CORRIMAL,Southern
VEH ,339,18-Jun-68,151.213737327,-33.8274689401,ERNEST ST,WARRINGAH FWY RAMPS,CAMMERAY,Sydney
VEH ,340,17-Jun-89,149.096261872,-33.2830823451,SUMMER ST,SALE ST,ORANGE,Western
VEH ,341,18-Jun-68,151.210232977,-33.8229899798,MILLER ST,AMHERST ST,CAMMERAY,Sydney
VEH ,343,18-Jun-68,151.209927065,-33.8246319323,MILLER ST,WARRINGAH FWY,NORTH SYDNEY,Sydney
VEH ,344,09-Jul-64,151.736958048,-32.9244682925,BROADMEADOW RD,LAMBTON RD,BROADMEADOW,Hunter
VEH ,345,07-Jul-66,151.233371361,-33.8896166225,OXFORD ST,MOORE PARK RD,PADDINGTON,Sydney
VEH ,346,09-Oct-69,151.202829269,-33.9055277215,BOTANY RD,BOURKE RD,ALEXANDRIA,Sydney
VEH ,347,23-Oct-64,151.239928479,-33.8879301436,QUEEN ST,OCEAN ST,WOOLLAHRA,Sydney
VEH ,348,20-Oct-64,150.995059418,-33.8557557972,WOODVILLE RD,GUILDFORD RD,GUILDFORD,Sydney
VEH ,349,15-Sep-65,151.205124198,-33.8350293793,PACIFIC HWY,BAY RD,NORTH SYDNEY,Sydney
VEH ,350,09-Feb-65,151.722748549,-32.9231491721,TURTON RD,LAMBTON RD,NEW LAMBTON,Hunter
VEH ,351,07-Sep-65,151.206696478,-33.8961375387,ELIZABETH ST,PHILLIP ST,WATERLOO,Sydney
VEH ,352,09-Oct-69,151.201834184,-33.905706162,WYNDHAM ST,BOURKE RD,ALEXANDRIA,Sydney
VEH ,354,16-Dec-63,151.748667439,-32.9378026468,GLEBE RD,CITY RD,HAMILTON SOUTH,Hunter
VEH ,355,16-Feb-67,151.132332894,-33.8893406329,HUME HWY,ELIZABETH ST,ASHFIELD,Sydney
VEH ,356,16-Feb-67,151.131382591,-33.8897221199,HUME HWY,CARLTON CR,ASHFIELD,Sydney
VEH ,357,29-Jun-74,151.231101328,-33.9063417656,ALISON RD,DARLEY RD,RANDWICK,Sydney
VEH ,358,14-Jan-75,149.579675086,-33.4187329845,RUSSELL ST,WILLIAM ST,BATHURST,Western
VEH ,359,26-Sep-95,151.206462799,-33.8779300157,GOULBURN ST,WORLD SQUARE EXIT,SYDNEY,Sydney
VEH ,360,07-Feb-67,151.045407755,-33.9010611877,HUME HWY,RAWSON RD,GREENACRE,Sydney
VEH ,362,08-Aug-74,151.240486145,-33.8898453321,OCEAN ST,WALLIS ST,WOOLLAHRA,Sydney
VEH ,363,24-Mar-72,151.221563921,-33.8952254275,ANZAC PDE,CLEVELAND ST,MOORE PARK,Sydney
VEH ,364,29-May-65,151.119359112,-34.0318703523,TAREN POINT RD,THE BOULEVARDE,CARINGBAH,Sydney
VEH ,365,27-Jul-65,151.098557566,-33.9293072385,KINGSGROVE RD,WILLIAM ST,BELMORE,Sydney
VEH ,366,23-Dec-65,151.123676482,-33.8237833814,VICTORIA RD,MONASH RD,GLADESVILLE,Sydney
VEH ,367,07-Dec-65,151.239326845,-33.9416285359,ANZAC PDE,MAROUBRA RD,MAROUBRA JUNCTION,Sydney
VEH ,368,07-Apr-44,151.114165545,-33.9382101002,BEXLEY RD,SLADE RD,BEXLEY NORTH,Sydney
VEH ,369,29-Nov-65,151.249840256,-33.8920829694,BRONTE RD,OXFORD ST,BONDI JUNCTION,Sydney
VEH ,370,09-Aug-65,151.126416207,-33.95003722,FOREST RD,STONEY CREEK RD,BEXLEY,Sydney
VEH ,371,02-Jul-65,151.163654792,-33.8107012828,EPPING RD,CENTENNIAL AV,LANE COVE NORTH,Sydney
VEH ,372,26-Nov-68,151.205413765,-33.8929849626,REDFERN ST,CHALMERS ST,REDFERN,Sydney
VEH ,373,17-Sep-70,151.161359263,-33.8879409441,PARRAMATTA RD,CATHERINE ST,LEICHHARDT,Sydney
VEH ,374,29-May-65,151.121834512,-34.0190826383,TAREN POINT RD,HOLT RD,TAREN POINT,Sydney
VEH ,375,10-Feb-66,151.234459161,-33.7522803628,WAKEHURST PKY,WARRINGAH RD,FRENCHS FOREST,Sydney
VEH ,376,15-Dec-67,151.061435925,-33.854839659,PARRAMATTA RD,BIRNIE AV,LIDCOMBE,Sydney
VEH ,378,19-Dec-02,151.249697628,-33.8910429454,GRAFTON ST,GROSVENOR ST,BONDI JUNCTION,Sydney
VEH ,379,07-Nov-67,151.111502326,-33.8864946248,HUME HWY,CROYDON AV,CROYDON,Sydney
VEH ,380,10-Mar-67,151.052285244,-33.8138292334,VICTORIA RD,SILVERWATER RD,ERMINGTON,Sydney
VEH ,381,28-May-65,151.052715132,-34.0454758922,PRINCES HWY,MERTON ST BYPASS,LOFTUS,Sydney
VEH ,382,27-Feb-67,151.068433943,-33.9228885792,KING GEORGES RD,THE BOULEVARDE,LAKEMBA,Sydney
VEH ,383,06-Apr-77,151.692347107,-32.9819203104,PACIFIC HWY,SYDNEY ST,GATESHEAD,Hunter
VEH ,384,07-Oct-70,151.176543014,-33.8868071811,PARRAMATTA RD,MALLETT ST,CAMPERDOWN,Sydney
VEH ,385,07-Oct-70,151.177351386,-33.8866213969,PARRAMATTA RD,CHURCH ST,CAMPERDOWN,Sydney
VEH ,386,13-Mar-67,146.91564532,-36.0806983135,DEAN ST,KIEWA ST,ALBURY,South Western
VEH ,387,13-Mar-67,147.365872814,-35.1184683375,EDWARD ST,BEST ST,WAGGA WAGGA,South Western
VEH ,388,23-Jan-68,151.198227772,-33.8033586037,MOWBRAY RD,PENSHURST ST,WILLOUGHBY,Sydney
VEH ,389,13-Jan-67,151.754172274,-32.9241770571,TUDOR ST,PARRY ST,HAMILTON,Hunter
VEH ,390,13-Dec-67,150.158865142,-33.48053154,MAIN ST,ESKBANK ST,LITHGOW,Western
VEH ,391,31-Jan-67,151.691894609,-32.9786279962,PACIFIC HWY,OXFORD ST,GATESHEAD,Hunter
VEH ,392,30-Apr-75,151.198822529,-33.8004173205,PENSHURST ST,LAUREL ST,WILLOUGHBY,Sydney
VEH ,393,09-May-68,151.155949081,-33.8525461838,VICTORIA RD,EDWIN ST,DRUMMOYNE,Sydney
VEH ,394,28-Mar-67,151.195504096,-33.7924396974,PENSHURST ST,VICTORIA AV,CHATSWOOD,Sydney
VEH ,395,15-Aug-67,151.2667043,-33.7764177207,CONDAMINE ST,KENTWELL RD,NORTH MANLY,Sydney
VEH ,396,20-Feb-73,151.222639474,-33.9015201343,ANZAC PDE,ALISON RD,MOORE PARK,Sydney
VEH ,397,02-May-67,151.141897541,-33.8708226322,DOBROYD PDE,TIMBRELL DR,HABERFIELD,Sydney
VEH ,398,26-Jun-67,150.925500747,-33.9143681032,HUME HWY,MACQUARIE ST,LIVERPOOL,Sydney
VEH ,399,30-May-67,151.160416299,-33.9250559436,PRINCES HWY,GANNON ST,TEMPE,Sydney
VEH ,400,01-Jun-67,151.207298165,-33.8932424439,ELIZABETH ST,REDFERN ST,REDFERN,Sydney
VEH ,401,02-Jun-67,151.078818492,-33.9471309679,KING GEORGES RD,BROAD ARROW RD,BEVERLY HILLS,Sydney
VEH ,402,15-Jun-67,150.919424712,-33.9194949123,COPELAND ST,ELIZABETH DR,LIVERPOOL,Sydney
VEH ,403,28-Mar-68,151.226989216,-33.8968403165,LANG RD,COOK RD,MOORE PARK,Sydney
VEH ,404,23-May-67,150.91151193,-33.7718152585,SUNNYHOLT RD,NEWTON RD,BLACKTOWN,Sydney
VEH ,405,04-Sep-68,150.917998597,-33.9286378275,HUME HWY,HOXTON PARK RD,LIVERPOOL,Sydney
VEH ,406,24-May-67,150.911146987,-33.9435340302,HUME HWY,DE MEYRICK AV,CASULA,Sydney
VEH ,407,18-Sep-70,150.890919936,-34.4254214599,CROWN ST,ATCHISON ST,WOLLONGONG,Southern
VEH ,408,18-Sep-70,150.888883788,-34.4257370852,CROWN ST,RAILWAY PDE,WOLLONGONG,Southern
VEH ,409,18-Sep-70,150.887441311,-34.4258087722,CROWN ST,GLADSTONE AV,WOLLONGONG,Southern
VEH ,410,20-Mar-68,151.151571173,-33.8168556725,BURNS BAY RD,PENROSE ST,LANE COVE WEST,Sydney
VEH ,411,08-Apr-68,151.191423294,-33.8847577311,PARRAMATTA RD,DERWENT ST,GLEBE,Sydney
VEH ,412,08-Apr-68,151.192967312,-33.8845734543,PARRAMATTA RD,GLEBE POINT RD,GLEBE,Sydney
VEH ,413,08-Apr-68,151.194839438,-33.8844457687,BROADWAY,CITY RD,ULTIMO,Sydney
VEH ,414,08-Apr-68,151.196499175,-33.8843641173,BROADWAY,MOUNTAIN ST,ULTIMO,Sydney
VEH ,415,08-Apr-68,151.198555823,-33.884312011,BROADWAY,ABERCROMBIE ST,ULTIMO,Sydney
VEH ,416,08-Apr-68,151.202212232,-33.8839900158,BROADWAY,HARRIS ST,SYDNEY,Sydney
VEH ,417,18-Jul-70,150.889954562,-34.4256168221,CROWN ST,AUBURN ST,WOLLONGONG,Southern
VEH ,418,22-Aug-69,150.253290893,-30.9775796277,CONADILLY ST,MARQUIS ST,GUNNEDAH,Northern
VEH ,419,19-Aug-69,151.194609383,-33.9379996847,BOTANY RD,MILL POND DR,MASCOT,Sydney
VEH ,420,19-Aug-69,151.192830642,-33.9382031646,GENERAL HOLMES DR,MILL POND DR,MASCOT,Sydney
VEH ,421,17-Jun-69,150.871582722,-34.4655252182,FIVE ISLANDS RD,SPRINGHILL RD,CRINGILA,Southern
VEH ,422,14-Nov-68,151.217590784,-33.8839581392,ALBION ST,FLINDERS ST,SURRY HILLS,Sydney
PED ,423,30-Jun-74,151.210773476,-33.8768609742,LIVERPOOL ST,COMMONWEALTH ST (W-),SYDNEY,Sydney
VEH ,424,15-May-58,151.056239913,-33.8143171333,VICTORIA RD,SPURWAY ST,ERMINGTON,Sydney
VEH ,425,20-Dec-67,151.12802162,-33.73346411,PACIFIC HWY,KISSING POINT RD,TURRAMURRA,Sydney
VEH ,426,18-Dec-75,151.098522999,-33.7084921081,PACIFIC HWY,COLLEGE CR,WAITARA,Sydney
VEH ,427,21-Aug-67,150.896903328,-34.373176208,PRINCES HWY,RAILWAY ST,CORRIMAL,Southern
VEH ,428,07-Dec-67,151.145064287,-33.8573901704,LYONS RD,HAMPDEN RD,DRUMMOYNE,Sydney
VEH ,429,31-Jul-68,151.23932976,-33.9256516026,RAINBOW ST,AVOCA ST,RANDWICK,Sydney
VEH ,431,17-Jun-69,150.872564157,-34.4656378772,FIVE ISLANDS RD,LAKE AV,CRINGILA,Southern
VEH ,432,19-Dec-67,151.71780852,-32.9510699778,PACIFIC HWY,BRUNKER RD,ADAMSTOWN HEIGHTS,Hunter
VEH ,433,27-Jul-67,151.122306864,-33.8696459239,QUEENS RD,HARRIS RD,FIVE DOCK,Sydney
VEH ,434,28-Jul-67,151.184510732,-33.8851250209,PARRAMATTA RD,ROSS ST,FOREST LODGE,Sydney
VEH ,435,25-Jan-68,151.156394943,-33.9105495075,MARRICKVILLE RD,ILLAWARRA RD,MARRICKVILLE,Sydney
VEH ,436,29-Feb-68,151.020447996,-33.90733024,HUME HWY,AUBURN RD,YAGOONA,Sydney
VEH ,437,20-Nov-67,151.148879894,-33.9497347171,WEST BOTANY ST,BESTIC ST,ROCKDALE,Sydney
VEH ,438,21-Oct-68,151.157987698,-33.8924009843,CRYSTAL ST,BRIGHTON ST,PETERSHAM,Sydney
VEH ,439,14-Nov-68,151.218976335,-33.8866303902,ANZAC PDE,FLINDERS ST,MOORE PARK,Sydney
VEH ,440,06-Jun-60,150.893463126,-34.4234015612,KEIRA ST,MARKET ST,WOLLONGONG,Southern
VEH ,441,06-Jun-89,150.861242727,-34.4356793329,PRINCES HWY,THE AVENUE,FIGTREE,Southern
VEH ,442,26-Jul-67,150.712119029,-33.7568839432,GREAT WESTERN HWY,PARKER ST,PENRITH,Sydney
VEH ,443,25-Jul-67,150.924156969,-33.9202167883,MACQUARIE ST,ELIZABETH ST,LIVERPOOL,Sydney
VEH ,445,11-Sep-89,150.775037449,-34.570727469,ILLAWARRA HWY,TERRY ST,ALBION PARK,Southern
VEH ,447,11-Jul-67,151.081322592,-33.9270556976,CANTERBURY RD,HALDON ST,LAKEMBA,Sydney
VEH ,448,23-Aug-67,151.099838009,-33.8194049154,CHURCH ST,JUNCTION ST,RYDE,Sydney
VEH ,449,29-May-68,151.086889061,-33.8074081966,VICTORIA RD,STATION ST,WEST RYDE,Sydney
VEH ,450,05-Oct-89,150.861299076,-34.5477693903,SHELLHARBOUR RD,VERONICA ST,WARILLA,Southern
VEH ,451,03-Jan-75,151.071099004,-33.7391245462,PENNANT HILLS RD,YARRARA RD,PENNANT HILLS,Sydney
VEH ,452,11-Mar-68,151.188361613,-33.8271264035,GREENWICH RD,RIVER RD,GREENWICH,Sydney
VEH ,453,12-Oct-67,151.211572318,-33.8024112678,EASTERN VALLEY WAY,EDINBURGH RD,CASTLECRAG,Sydney
VEH ,454,09-Oct-67,151.063946653,-33.9589375159,FOREST RD,BOUNDARY RD,PEAKHURST,Sydney
VEH ,455,23-Oct-67,151.114592636,-33.94924417,STONEY CREEK RD,PREDDYS RD,BEXLEY,Sydney
VEH ,456,18-Jan-68,151.120415869,-34.0265651557,TAREN POINT RD,PARRAWEENA RD,CARINGBAH,Sydney
VEH ,457,13-Nov-67,151.179025596,-33.7874862127,PACIFIC HWY,BOUNDARY ST,ROSEVILLE,Sydney
VEH ,458,30-Oct-67,151.195866656,-33.7808831445,BABBAGE RD,CLIVE ST,ROSEVILLE,Sydney
VEH ,459,16-Jan-68,151.156308725,-33.9609351693,THE GRAND PDE,BAY ST,BRIGHTON-LE-SANDS,Sydney
VEH ,460,11-Dec-67,151.667883576,-33.0203337994,PACIFIC HWY,JOHN FISHER RD,BELMONT NORTH,Hunter
VEH ,461,14-Jul-69,151.213101484,-33.883302083,ALBION ST,RILEY ST,SURRY HILLS,Sydney
VEH ,462,18-May-67,151.001990182,-33.8347131411,WOODVILLE RD,WILLIAM ST,GRANVILLE,Sydney
VEH ,463,03-Jan-68,151.158078499,-33.9223989992,UNWINS BRIDGE RD,RICHARDSONS RD,TEMPE,Sydney
VEH ,464,04-Jul-68,150.999957335,-33.793611123,NORTH ROCKS RD,CHURCH ST,NORTHMEAD,Sydney
VEH ,465,31-Aug-00,151.166407189,-33.8617407652,VICTORIA RD,TERRY ST,ROZELLE,Sydney
VEH ,466,01-Aug-67,151.105985078,-33.8657953757,BURWOOD RD,GIPPS ST,CONCORD,Sydney
VEH ,467,11-Oct-67,151.130339114,-33.8640889369,GREAT NORTH RD,LYONS RD WEST,FIVE DOCK,Sydney
VEH ,468,22-Nov-67,151.185335695,-33.7956151097,VICTORIA AV,ARCHER ST,CHATSWOOD,Sydney
VEH ,469,15-Aug-68,151.295801806,-33.7099220269,WAKEHURST PKY,PITTWATER RD,NORTH NARRABEEN,Sydney
VEH ,470,20-Mar-74,151.228617069,-33.8762246982,BAYSWATER RD,MCLACHLAN AV,RUSHCUTTERS BAY,Sydney
VEH ,471,15-Dec-74,151.22841148,-33.8768791414,CRAIGEND ST,MCLACHLAN AV,RUSHCUTTERS BAY,Sydney
VEH ,472,24-Jun-75,151.229520062,-33.8768147087,CRAIGEND ST,NEILD AV,RUSHCUTTERS BAY,Sydney
VEH ,473,16-Jun-70,151.231806169,-33.8768043401,NEW SOUTH HEAD RD,NEW BEACH RD,EDGECLIFF,Sydney
VEH ,474,16-Jun-70,151.23365908,-33.877319821,NEW SOUTH HEAD RD,MONA RD,EDGECLIFF,Sydney
VEH ,475,17-Jun-70,151.235168827,-33.8785928363,NEW SOUTH HEAD RD,NEW MCLEAN ST,EDGECLIFF,Sydney
VEH ,476,19-Dec-62,151.237598397,-33.8790549,NEW SOUTH HEAD RD,OCEAN ST,EDGECLIFF,Sydney
VEH ,477,13-Nov-89,151.264839474,-33.8720407345,NEW SOUTH HEAD RD,KENT RD,ROSE BAY,Sydney
VEH ,478,27-Feb-96,151.230870056,-33.9575776204,BUNNERONG RD,DAUNT AV,MATRAVILLE,Sydney
VEH ,479,23-Jun-79,151.238291427,-33.8792182433,NEW SOUTH HEAD RD,BUS TUNNEL,EDGECLIFF,Sydney
VEH ,480,23-Jun-79,151.237606237,-33.8799323955,OCEAN ST,BUS RAMPS,EDGECLIFF,Sydney
VEH ,481,31-Mar-00,151.227405395,-33.8888552895,MOORE PARK RD,REGENT ST,PADDINGTON,Sydney
VEH ,482,31-Mar-69,151.55241076,-32.7297656018,HIGH ST,BELMORE RD,MAITLAND,Hunter
VEH ,484,20-Jan-01,151.554679074,-32.7319547252,HIGH ST,ELGIN ST,MAITLAND,Hunter
VEH ,488,31-Mar-69,151.560023395,-32.7363952938,HIGH ST,HUNTER ST,MAITLAND,Hunter
VEH ,490,30-Dec-68,151.11486952,-33.8832455554,PAISLEY RD,THE STRAND,CROYDON,Sydney
VEH ,491,06-Dec-73,151.096332623,-33.8135758122,VICTORIA RD,BOWDEN ST,RYDE,Sydney
VEH ,492,22-Dec-69,151.106006143,-33.8103114305,LANE COVE RD,DEVLIN ST,RYDE,Sydney
VEH ,493,11-Dec-67,151.660565185,-33.0360456346,PACIFIC HWY,MACQUARIE ST,BELMONT,Hunter
VEH ,494,01-Aug-68,151.712402982,-32.9406465557,PARK AV,NORTHCOTT DR,KOTARA,Hunter
VEH ,495,11-Dec-67,151.356192353,-32.8354797598,VINCENT ST,COOPER ST,CESSNOCK,Hunter
VEH ,496,25-Nov-68,147.368826635,-35.1189015592,EDWARD ST,BAYLIS ST,WAGGA WAGGA,South Western
VEH ,497,22-Jun-58,150.773492384,-33.7700031745,GREAT WESTERN HWY,MAMRE RD,ST MARYS,Sydney
VEH ,498,05-Dec-68,150.844600134,-34.4552055223,PRINCES HWY,TANNERY ST,UNANDERRA,Southern
VEH ,499,03-Jul-69,150.892450625,-34.4173576183,FLINDERS ST,GIPPS ST,WOLLONGONG,Southern
VEH ,500,29-Nov-68,146.918192792,-36.0810052275,OLIVE ST,DEAN ST,ALBURY,South Western
VEH ,501,18-Sep-70,150.893001362,-34.4260613821,KEIRA ST,BURELLI ST,WOLLONGONG,Southern
VEH ,502,21-Aug-68,150.981816043,-33.8179625331,GREAT WESTERN HWY,HAWKESBURY RD,MAYS HILL,Sydney
VEH ,503,01-Oct-68,150.9586141,-33.8130937977,GREAT WESTERN HWY,JONES ST,PENDLE HILL,Sydney
VEH ,504,01-Oct-68,150.95235115,-33.8116668099,GREAT WESTERN HWY,ETTALONG RD,PENDLE HILL,Sydney
VEH ,505,18-Jul-68,151.086891534,-33.925396441,CANTERBURY RD,CHAPEL ST,LAKEMBA,Sydney
VEH ,506,06-Oct-85,150.888820766,-32.2633154582,NEW ENGLAND HWY,BROOK ST,MUSWELLBROOK,Hunter
VEH ,507,02-Oct-68,151.099640171,-33.9201841075,CANTERBURY RD,CHARLOTTE ST,CAMPSIE,Sydney
VEH ,508,12-Dec-68,151.072866421,-33.9114894256,PUNCHBOWL RD,WANGEE RD,LAKEMBA,Sydney
VEH ,509,02-Jul-70,151.132813843,-33.8241747299,RYDE RD,PITTWATER RD,GLADESVILLE,Sydney
VEH ,510,07-Jan-69,151.05054816,-33.961073193,HENRY LAWSON DR,BELMORE RD,PEAKHURST,Sydney
VEH ,511,26-Aug-68,151.161281372,-33.9516484106,GENERAL HOLMES DR,BESTIC ST,KYEEMAGH,Sydney
VEH ,512,11-Nov-71,150.969680714,-33.8889290686,HUME HWY,THE HORSLEY DR,LANSVALE,Sydney
VEH ,513,15-Jul-69,151.191588174,-33.7836290876,BOUNDARY ST,PENSHURST ST,ROSEVILLE,Sydney
VEH ,514,15-Jul-69,151.189472203,-33.7842480516,BOUNDARY ST,ARCHBOLD RD,ROSEVILLE,Sydney
VEH ,515,22-Apr-69,150.980306568,-33.9295877625,HENRY LAWSON DR,MILPERRA RD,MILPERRA,Sydney
VEH ,516,08-Apr-75,151.20091659,-33.8238427073,WILLOUGHBY RD,ALBANY ST,CROWS NEST,Sydney
VEH ,517,02-Jul-75,146.92362636,-36.0816701799,DEAN ST,YOUNG ST,ALBURY,South Western
VEH ,518,08-Sep-69,151.240983716,-33.9181531296,AVOCA ST,CUTHILL ST,RANDWICK,Sydney
VEH ,519,24-Apr-70,151.714067697,-32.9514776057,PACIFIC HWY,NORTHCOTT DR,ADAMSTOWN HEIGHTS,Hunter
VEH ,520,22-Dec-69,151.19865786,-33.8778727571,WILLIAM HENRY ST,HARRIS ST,ULTIMO,Sydney
VEH ,521,06-Mar-68,151.193119652,-33.8877026825,CLEVELAND ST,CITY RD,CHIPPENDALE,Sydney
VEH ,522,09-Nov-72,151.195166518,-33.8881079174,CLEVELAND ST,SHEPHERD ST,CHIPPENDALE,Sydney
VEH ,523,29-Nov-72,151.196397189,-33.8882771675,CLEVELAND ST,BEAUMONT ST,CHIPPENDALE,Sydney
VEH ,524,17-Mar-41,151.198898132,-33.888649279,CLEVELAND ST,ABERCROMBIE ST,CHIPPENDALE,Sydney
VEH ,525,29-Nov-72,151.201600474,-33.8890541696,CLEVELAND ST,REGENT ST,CHIPPENDALE,Sydney
VEH ,526,05-Dec-72,151.202805804,-33.8892252556,CLEVELAND ST,GEORGE ST,SURRY HILLS,Sydney
VEH ,527,29-Nov-72,151.204540398,-33.8894686539,CLEVELAND ST,PITT ST,SURRY HILLS,Sydney
VEH ,528,31-Mar-66,151.206081507,-33.8896742826,CLEVELAND ST,CHALMERS ST,SURRY HILLS,Sydney
VEH ,529,08-Oct-40,151.207907634,-33.8899515526,CLEVELAND ST,ELIZABETH ST,SURRY HILLS,Sydney
VEH ,530,29-Nov-72,151.209180658,-33.890435255,CLEVELAND ST,WALKER ST,SURRY HILLS,Sydney
VEH ,531,29-Nov-72,151.21075871,-33.8910459482,CLEVELAND ST,YOUNG ST,SURRY HILLS,Sydney
VEH ,532,03-Feb-41,151.212720381,-33.8915444549,CLEVELAND ST,CROWN ST,SURRY HILLS,Sydney
VEH ,533,23-Sep-40,151.214442323,-33.891777383,CLEVELAND ST,BOURKE ST,SURRY HILLS,Sydney
VEH ,534,21-Oct-40,151.216794029,-33.8921025532,CLEVELAND ST,SOUTH DOWLING ST,REDFERN,Sydney
VEH ,535,21-Apr-70,151.711470292,-32.9530316011,PACIFIC HWY,KAHIBAH RD,HIGHFIELDS,Hunter
VEH ,536,14-Jan-69,151.00276126,-33.8329254838,WOODVILLE RD,RANDLE ST,GRANVILLE,Sydney
VEH ,537,18-Dec-75,150.887860401,-34.4872532067,NORTHCLIFFE DR,KING ST,WARRAWONG,Southern
VEH ,538,01-Aug-93,151.101078628,-33.9678622393,WONIORA RD,GREENBANK ST,HURSTVILLE,Sydney
VEH ,539,17-Dec-92,150.907199328,-34.3620614118,NORTHERN DIST.,BELLAMBI LA,BELLAMBI,Southern
VEH ,540,12-Mar-70,151.113675697,-33.8032372098,LANE COVE RD,GOULDING RD,RYDE,Sydney
VEH ,541,18-Jun-68,151.204371628,-33.8098846789,SAILORS BAY RD,ALPHA RD,NORTHBRIDGE,Sydney
VEH ,542,08-Aug-69,151.642179835,-32.9290357875,MAIN RD,LAKE RD,GLENDALE,Hunter
VEH ,543,17-Dec-68,150.956957943,-33.8677685387,THE HORSLEY DR,COURT RD,FAIRFIELD,Sydney
VEH ,544,15-Apr-69,150.969496214,-33.832332359,MERRYLANDS RD,SHERWOOD RD,MERRYLANDS WEST,Sydney
VEH ,545,05-Apr-88,150.886081803,-34.4421106671,SPRINGHILL RD,HARBOUR ACCESS RD,CONISTON,Southern
VEH ,546,02-Dec-93,151.160821456,-33.8749756683,CITY WEST LINK RD,BALMAIN RD,LEICHHARDT,Sydney
VEH ,547,27-May-69,151.118200642,-34.0374681477,TAREN POINT RD,THE KINGSWAY,CARINGBAH,Sydney
VEH ,548,01-Dec-70,151.12672253,-33.8301747271,VICTORIA RD,PITTWATER RD,GLADESVILLE,Sydney
VEH ,549,18-Feb-69,150.937028995,-33.8854856851,CANLEY VALE RD,SACKVILLE ST,CANLEY VALE,Sydney
VEH ,550,06-May-69,150.923209038,-33.9248963666,MACQUARIE ST,SCOTT ST,LIVERPOOL,Sydney
VEH ,551,28-Aug-69,151.134471813,-33.7943018303,EPPING RD,DELHI RD,NORTH RYDE,Sydney
VEH ,552,17-Jun-69,151.018675662,-33.938407047,CANTERBURY RD,MILPERRA RD,REVESBY,Sydney
VEH ,553,26-Aug-69,150.90640982,-33.7689058623,RICHMOND RD,KILDARE RD,BLACKTOWN,Sydney
VEH ,554,17-Jul-68,151.073797602,-33.9351839923,KING GEORGES RD,ROSELAND AV,ROSELANDS,Sydney
VEH ,555,01-Sep-69,151.199589415,-33.8035480492,WILLOUGHBY RD,MOWBRAY RD,WILLOUGHBY,Sydney
VEH ,556,14-Aug-70,151.084468491,-34.037738243,PRESIDENT AV,GYMEA BAY RD,GYMEA BAY,Sydney
VEH ,557,14-Jan-69,151.224726057,-33.9131686715,ANZAC PDE,DONCASTER AV,KENSINGTON,Sydney
VEH ,558,11-Mar-69,150.943315115,-33.8873114365,CANLEY VALE RD,RAILWAY PDE,CANLEY VALE,Sydney
VEH ,559,27-Mar-69,150.954284786,-33.8639528666,THE HORSLEY DR,POLDING ST,FAIRFIELD,Sydney
VEH ,560,06-Jul-78,151.052298421,-33.779659699,PENNANT HILLS RD,MARSDEN RD,CARLINGFORD,Sydney
VEH ,561,02-Nov-92,150.972163634,-33.7324543622,WINDSOR RD,NORWEST DR,KELLYVILLE,Sydney
VEH ,562,17-Nov-89,151.213335397,-33.8888201985,CROWN ST,DEVONSHIRE ST,SURRY HILLS,Sydney
VEH ,563,07-Jul-92,151.178116387,-33.9137511527,PRINCES HWY,BISHOP ST,ST PETERS,Sydney
VEH ,564,08-Oct-68,151.200942115,-33.8220841048,WILLOUGHBY RD,CHANDOS ST,NAREMBURN,Sydney
VEH ,565,02-Nov-89,151.194977688,-33.9407613166,BOTANY RD,LORD ST,BOTANY,Sydney
VEH ,566,13-Jul-72,151.122910657,-34.0430262545,THE KINGSWAY,PRESIDENT AV,CARINGBAH,Sydney
VEH ,567,13-Jul-72,151.123580238,-34.0432410876,THE KINGSWAY,PORT HACKING RD,CARINGBAH,Sydney
VEH ,569,29-Aug-90,151.154091072,-33.9126567724,ILLAWARRA RD,PETERSHAM RD,MARRICKVILLE,Sydney
VEH ,570,13-Aug-70,151.214244021,-33.903922498,SOUTH DOWLING ST,TODMAN AV,KENSINGTON,Sydney
VEH ,571,13-Oct-69,151.199239229,-33.9340268861,WENTWORTH AV,SUTHERLAND ST,MASCOT,Sydney
VEH ,572,19-Aug-71,151.230251731,-33.9556259872,BUNNERONG RD,BEAUCHAMP RD,MATRAVILLE,Sydney
VEH ,573,23-Apr-91,151.098492834,-33.8712623691,WENTWORTH RD,COOPER ST,STRATHFIELD,Sydney
VEH ,574,13-Oct-69,151.193824834,-33.9345969219,BOTANY RD,WENTWORTH AV,MASCOT,Sydney
VEH ,575,13-Oct-69,151.194168427,-33.9317876215,BOTANY RD,ROBEY ST,MASCOT,Sydney
VEH ,576,02-Jun-69,151.209251649,-33.7602366549,WARRINGAH RD,WOODLANDS RD,FORESTVILLE,Sydney
VEH ,577,21-Oct-71,151.130927495,-33.870147377,RAMSAY RD,FAIRLIGHT ST,FIVE DOCK,Sydney
VEH ,578,15-Dec-71,151.129169015,-33.87055127,GREAT NORTH RD,QUEENS RD,FIVE DOCK,Sydney
VEH ,579,03-May-71,151.178708115,-33.8163451492,PACIFIC HWY,HOTHAM PDE,GORE HILL,Sydney
VEH ,580,03-Dec-70,148.600266406,-32.2531889597,COBRA ST,MACQUARIE ST,DUBBO,Western
VEH ,581,02-Mar-71,147.356284762,-35.1171094729,EDWARD ST,DOCKER ST,WAGGA WAGGA,South Western
VEH ,582,02-Jul-90,151.258654165,-33.8931881411,BONDI RD,FLOOD ST,BONDI,Sydney
VEH ,583,14-Oct-71,151.747971396,-32.8943075327,INDUSTRIAL DR,INGALL ST,MAYFIELD EAST,Hunter
VEH ,584,15-Apr-71,151.753151794,-32.9004880063,INDUSTRIAL DR,GEORGE ST,MAYFIELD EAST,Hunter
VEH ,585,03-May-71,151.183380219,-33.8189126664,PACIFIC HWY,CAMPBELL ST,GORE HILL,Sydney
VEH ,586,13-May-71,151.246747117,-33.8068302035,SPIT RD,PARRIWI RD,THE SPIT,Sydney
VEH ,587,01-Oct-76,151.302796362,-33.6793444473,PITTWATER RD,MONA VALE RD,MONA VALE,Sydney
VEH ,588,02-Dec-75,151.178401402,-33.919643743,CANAL RD,BURROWS RD,ST PETERS,Sydney
VEH ,589,13-Oct-69,151.193902548,-33.9331955966,BOTANY RD,GENERAL HOLMES DR,MASCOT,Sydney
VEH ,590,13-Oct-69,151.192070861,-33.9338383544,GENERAL HOLMES DR,JOYCE DR,MASCOT,Sydney
VEH ,591,13-Oct-69,151.186523645,-33.930730231,ROBEY ST,O'RIORDAN ST,MASCOT,Sydney
VEH ,592,19-Jan-75,151.108143159,-33.7777122638,EPPING RD,BALACLAVA RD,MACQUARIE PARK,Sydney
VEH ,593,13-Oct-69,151.209114149,-33.9362882673,WENTWORTH AV,SOUTHERN CROSS DR OFF/R,EASTLAKES,Sydney
VEH ,594,29-Oct-70,150.928244096,-31.0908432747,BRIDGE  ST,KABLE  AV,TAMWORTH,Northern
VEH ,595,17-Jul-69,151.034630636,-33.8499545481,STATION RD,RAWSON ST,AUBURN,Sydney
VEH ,596,13-Apr-71,151.261022856,-33.8935117817,BONDI RD,PENKIVIL ST,BONDI,Sydney
VEH ,597,16-Sep-69,151.050439684,-33.8492362639,PARRAMATTA RD,JOHN ST,LIDCOMBE,Sydney
VEH ,598,04-Sep-69,150.995410212,-33.7891073425,WINDSOR RD,HAMMERS RD,NORTHMEAD,Sydney
VEH ,599,25-Aug-71,151.147103563,-33.8976317646,NEW CANTERBURY RD,TOOTHILL ST,LEWISHAM,Sydney
VEH ,600,21-Jun-71,151.200759037,-33.8196907592,WILLOUGHBY RD,DONNELLY RD,NAREMBURN,Sydney
VEH ,601,03-Sep-69,150.992174987,-33.8338493344,PITT ST,NEIL ST,MERRYLANDS,Sydney
VEH ,602,28-Aug-69,151.115458435,-33.913703446,CANTERBURY RD,FORE ST,CANTERBURY,Sydney
VEH ,603,14-Aug-69,151.200852229,-33.9262673323,COWARD ST,SUTHERLAND ST,MASCOT,Sydney
VEH ,604,07-May-70,151.075528413,-33.9396934056,KING GEORGES RD,MOOREFIELDS RD,ROSELANDS,Sydney
VEH ,605,30-Apr-70,151.088945203,-34.0237651914,PRINCES HWY,BATES DR,KIRRAWEE,Sydney
VEH ,606,17-Mar-70,151.045382032,-33.7991711003,KISSING POINT RD,KIRBY ST,DUNDAS,Sydney
VEH ,607,17-Jun-70,150.875943226,-34.4460731486,SPRINGHILL RD,MASTERS RD,CONISTON,Southern
VEH ,608,25-Sep-75,150.886499155,-34.4731683128,FLINDERS ST,FIVE ISLANDS RD,PORT KEMBLA,Southern
VEH ,609,26-Sep-72,149.103632094,-33.2841647939,SUMMER ST,PEISLEY ST,ORANGE,Western
VEH ,610,25-Feb-71,151.22650109,-33.8302844595,MILITARY RD,MURDOCH ST,CREMORNE,Sydney
VEH ,611,29-Jul-71,151.230255789,-33.8281438344,MILITARY RD,SPOFFORTH ST,CREMORNE,Sydney
VEH ,612,24-Jun-71,151.231820454,-33.827002585,MILITARY RD,BELMONT RD (WEST),MOSMAN,Sydney
VEH ,613,20-May-71,151.222405312,-33.831526195,MILITARY RD,WYCOMBE RD,NEUTRAL BAY,Sydney
VEH ,614,13-Oct-88,150.93828978,-33.8531827618,THE HORSLEY DR,JUSTIN ST,SMITHFIELD,Sydney
VEH ,615,07-Jul-71,151.750515052,-32.9185747233,MAITLAND RD,SHEDDON ST,ISLINGTON,Hunter
VEH ,616,16-Feb-71,151.751413088,-32.9247050093,GORDON AV,TUDOR ST,HAMILTON,Hunter
VEH ,617,12-May-89,146.923879013,-36.0678855425,DAVID ST,NORTH ST,ALBURY,South Western
VEH ,618,10-Nov-70,151.129742107,-33.8769496728,PARRAMATTA RD,FREDERICK ST,ASHFIELD,Sydney
VEH ,619,26-May-70,151.269777821,-33.8696584027,NEW SOUTH HEAD RD,DOVER RD,ROSE BAY,Sydney
VEH ,620,26-Sep-72,151.037067115,-33.8513399608,ST HILLIERS RD,RAWSON ST,AUBURN,Sydney
VEH ,622,17-Jun-70,151.285997505,-33.798357693,THE CORSO,DARLEY RD,MANLY,Sydney
VEH ,623,02-Nov-70,151.341851324,-33.4269370083,MANN ST,DONNISON ST,GOSFORD,Hunter
VEH ,624,02-Jun-70,151.726648756,-32.9106589679,CHRISTO RD,TURTON RD,WARATAH,Hunter
VEH ,625,11-Sep-70,151.705158094,-32.9090210232,NEWCASTLE RD,DENT ST,LAMBTON,Hunter
VEH ,626,11-Sep-70,151.715921103,-32.9289897739,ST JAMES RD,BRIDGES RD,NEW LAMBTON,Hunter
VEH ,627,21-May-70,151.243923743,-33.8210703963,SPIT RD,AWABA ST,MOSMAN,Sydney
VEH ,628,21-Apr-70,150.695014835,-33.7530414204,HIGH ST,STATION ST,PENRITH,Sydney
VEH ,629,01-Oct-70,150.992932055,-33.861081488,WOODVILLE RD,RAWSON RD,GUILDFORD,Sydney
VEH ,630,08-Sep-70,151.206889983,-33.8388576575,PACIFIC HWY,MILLER ST,NORTH SYDNEY,Sydney
VEH ,631,08-Sep-70,151.208820216,-33.8391092598,MOUNT ST,WALKER ST,NORTH SYDNEY,Sydney
VEH ,632,19-Oct-71,151.152303972,-33.7547396579,PACIFIC HWY,DUMARESQ ST,GORDON,Sydney
VEH ,633,12-May-89,146.920345865,-36.0833868966,DAVID ST,SMOLLETT ST,ALBURY,South Western
VEH ,634,26-Feb-70,151.216692876,-33.760853722,WARRINGAH RD,STARKEY ST,FORESTVILLE,Sydney
VEH ,635,17-Feb-70,150.918312097,-33.9242309017,COPELAND ST,MEMORIAL AV,LIVERPOOL,Sydney
VEH ,637,23-Dec-71,151.240938227,-33.8245004832,MILITARY RD,SPIT RD,MOSMAN,Sydney
VEH ,638,08-Dec-70,150.997410214,-33.8155936354,PITT ST,ARGYLE ST,PARRAMATTA,Sydney
VEH ,639,01-Oct-70,151.165067823,-33.8195863515,RIVER RD WEST,TAMBOURINE BAY RD,RIVERVIEW,Sydney
VEH ,640,20-Nov-73,151.12605803,-33.8256128695,VICTORIA RD,WESTMINSTER RD,GLADESVILLE,Sydney
VEH ,641,27-Aug-76,151.058014921,-33.9613398075,HENRY LAWSON DR,FOREST RD,PEAKHURST,Sydney
VEH ,642,14-Mar-72,151.047519974,-33.7664805625,PENNANT HILLS RD,NORTH ROCKS RD,CARLINGFORD,Sydney
VEH ,643,13-Dec-73,151.051896355,-33.7777281489,PENNANT HILLS RD,CARLINGFORD RD,CARLINGFORD,Sydney
VEH ,644,18-Jul-74,151.065105353,-33.9175097957,KING GEORGES RD,PUNCHBOWL RD,LAKEMBA,Sydney
VEH ,645,23-Apr-75,151.077676579,-33.7934966028,SHAFTESBURY RD,RUTLEDGE ST,EASTWOOD,Sydney
VEH ,646,18-May-90,150.809276909,-33.6174864973,MACQUARIE ST,ARGYLE ST,SOUTH WINDSOR,Sydney
VEH ,647,20-Nov-70,153.113992523,-30.2962031949,PACIFIC HWY,HIGH ST,COFFS HARBOUR,Northern
VEH ,648,08-Jul-71,151.052537799,-33.9061417617,BORONIA RD,NOBLE AV,GREENACRE,Sydney
VEH ,649,23-Dec-70,151.210615656,-33.8211089692,MILLER ST,PALMER ST,CAMMERAY,Sydney
VEH ,650,29-Feb-72,151.268023935,-33.7681820887,PITTWATER RD,CONDAMINE ST,BROOKVALE,Sydney
VEH ,651,29-Jul-71,151.176401011,-33.8690488276,VICTORIA RD,THE CRESCENT,ROZELLE,Sydney
VEH ,652,20-Jul-71,151.175350219,-33.8670260294,VICTORIA RD,ROBERT ST,ROZELLE,Sydney
VEH ,653,20-Jul-71,151.173025589,-33.8659644686,VICTORIA RD,GORDON ST,ROZELLE,Sydney
VEH ,654,20-Jul-71,151.172144555,-33.8653641905,VICTORIA RD,EVANS ST,ROZELLE,Sydney
VEH ,655,20-Jul-71,151.170100009,-33.863881363,VICTORIA RD,DARLING ST,ROZELLE,Sydney
VEH ,656,20-Jul-71,151.168616823,-33.8629417789,VICTORIA RD,WELLINGTON ST,ROZELLE,Sydney
VEH ,659,21-Aug-73,151.170579088,-33.8630616528,DARLING ST,NATIONAL ST,ROZELLE,Sydney
VEH ,660,28-Jan-74,151.190096625,-33.8895802265,CITY RD,BUTLIN AV,UNIVERSITY OF SYDNEY,Sydney
VEH ,661,31-May-73,151.188439409,-33.8913119751,CITY RD,CARILLON AV,NEWTOWN,Sydney
VEH ,662,31-May-73,151.186939298,-33.8924100126,KING ST,QUEEN ST,NEWTOWN,Sydney
VEH ,663,31-May-73,151.185036299,-33.89291919,KING ST,GEORGINA ST,NEWTOWN,Sydney
VEH ,664,13-Jan-67,151.183524717,-33.893481905,KING ST,MISSENDEN RD,NEWTOWN,Sydney
VEH ,665,21-Jun-73,151.182042533,-33.8948561675,KING ST,BROWN ST,NEWTOWN,Sydney
VEH ,666,21-Jun-73,151.181154854,-33.8957396627,KING ST,CHURCH ST,NEWTOWN,Sydney
VEH ,667,21-Jun-73,151.180067998,-33.8964226925,KING ST,MARY ST,NEWTOWN,Sydney
VEH ,668,06-Jun-73,151.180383854,-33.8968400031,WILSON ST,ERSKINEVILLE RD,NEWTOWN,Sydney
VEH ,669,01-Jun-73,151.17914069,-33.897228479,KING ST,WILSON ST,NEWTOWN,Sydney
VEH ,670,05-Dec-61,151.17850351,-33.8977318608,KING ST,ENMORE RD,NEWTOWN,Sydney
VEH ,671,26-Jun-73,151.176418817,-33.8985519914,ENMORE RD,STATION ST,NEWTOWN,Sydney
PED ,672,03-Aug-61,151.178097673,-33.9001594311,KING ST,HOLT ST (SE-),NEWTOWN,Sydney
VEH ,673,28-Jun-73,151.179445105,-33.9028931973,KING ST,ALICE ST,NEWTOWN,Sydney
VEH ,674,28-Jun-73,151.181027577,-33.9058587148,KING ST,DARLEY ST,NEWTOWN,Sydney
VEH ,675,05-Jun-73,151.181403043,-33.9066847388,PRINCES HWY,LORD ST,ST PETERS,Sydney
VEH ,676,08-Jun-73,151.181529268,-33.9071411788,PRINCES HWY,SYDNEY PARK RD,ST PETERS,Sydney
VEH ,677,09-Jul-73,151.181209934,-33.908651212,PRINCES HWY,MAY ST,ST PETERS,Sydney
VEH ,678,22-Oct-73,151.173999876,-33.8987861711,ENMORE RD,PHILLIP ST,ENMORE,Sydney
VEH ,679,07-Apr-78,151.180220367,-33.9041072225,KING ST,UNION ST,NEWTOWN,Sydney
VEH ,680,01-Feb-89,151.139594885,-33.839503955,VICTORIA RD,HUNTLEYS POINT RD,HUNTLEYS POINT,Sydney
VEH ,681,07-Nov-66,151.212112799,-33.8769027092,OXFORD ST,LIVERPOOL ST,SYDNEY,Sydney
PED ,682,05-May-71,151.213281063,-33.877684371,OXFORD ST,BRISBANE ST (E-),DARLINGHURST,Sydney
VEH ,683,05-Jul-71,151.214259447,-33.8784699298,OXFORD ST,RILEY ST,DARLINGHURST,Sydney
VEH ,684,05-Jul-71,151.215218114,-33.8792384014,OXFORD ST,CROWN ST,DARLINGHURST,Sydney
VEH ,685,05-Jul-71,151.216982578,-33.8806363111,OXFORD ST,BOURKE ST,DARLINGHURST,Sydney
VEH ,686,30-Jul-71,151.215622904,-33.8774075318,LIVERPOOL ST,CROWN ST,DARLINGHURST,Sydney
VEH ,687,22-May-54,151.21487265,-33.8808503022,CROWN ST,CAMPBELL ST,SURRY HILLS,Sydney
VEH ,688,24-Nov-04,151.250767595,-33.8908863388,GRAFTON ST,WESTFIELD ACCESS,BONDI JUNCTION,Sydney
VEH ,689,10-Aug-92,151.198239073,-33.8949911101,GIBBONS ST,BOUNDARY ST,ALEXANDRIA,Sydney
VEH ,692,31-Jul-93,151.202100666,-33.9034552297,BOTANY RD,MANDIBLE ST,ALEXANDRIA,Sydney
VEH ,694,05-Sep-93,151.204174581,-33.8794758279,HAY ST,DIXON ST,SYDNEY,Sydney
VEH ,695,16-Aug-93,151.204088307,-33.8802165701,ULTIMO RD,THOMAS ST,HAYMARKET,Sydney
VEH ,696,21-Dec-10,151.216671385,-33.8811953108,BOURKE ST,CAMPBELL ST,DARLINGHURST,Sydney
VEH ,697,24-Apr-94,151.218102324,-33.8811608589,OXFORD ST,DARLINGHURST RD,DARLINGHURST,Sydney
VEH ,698,22-Apr-94,151.269102009,-33.8701068006,NEW SOUTH HEAD RD,NEWCASTLE ST,ROSE BAY,Sydney
VEH ,699,26-Aug-94,151.224515195,-33.8751860606,BAYSWATER RD,WARD AV,KINGS CROSS,Sydney
VEH ,700,22-Apr-85,149.719880427,-34.7528984888,AUBURN ST,CLIFFORD ST,GOULBURN,Southern
VEH ,701,25-May-89,150.672555244,-33.7468888413,GREAT WESTERN HWY,OLD BATHURST RD,EMU PLAINS,Sydney
VEH ,702,07-Jun-89,151.27362832,-33.7551195333,WARRINGAH RD,ALFRED ST,NARRAWEENA,Sydney
VEH ,703,22-Dec-70,151.086747988,-33.9633443779,FOREST RD,PENSHURST ST,PENSHURST,Sydney
VEH ,704,10-Jun-71,150.997864296,-33.7915561077,WINDSOR RD,BRIENS RD,NORTHMEAD,Sydney
VEH ,705,31-Aug-72,151.010722047,-34.0795010784,PRINCES HWY,HEATHCOTE RD,HEATHCOTE,Sydney
VEH ,706,04-May-71,151.081145405,-33.7709563533,BEECROFT RD,CARLINGFORD RD,EPPING,Sydney
VEH ,707,26-Apr-90,151.02609989,-33.7885485007,PENNANT HILLS RD,RUSSELL RD,NORTH PARRAMATTA,Sydney
VEH ,708,23-Sep-76,151.172029018,-33.8232922999,RIVER RD WEST,LONGUEVILLE RD,LONGUEVILLE,Sydney
VEH ,709,04-Feb-72,151.151384681,-33.9395545934,WEST BOTANY ST,WICKHAM ST,ARNCLIFFE,Sydney
VEH ,710,29-Jun-73,151.222361372,-33.8999622249,ANZAC PDE,ROBERTSON RD,MOORE PARK,Sydney
VEH ,711,07-Dec-71,151.243498405,-33.8774951551,NEW SOUTH HEAD RD,KNOX ST,DOUBLE BAY,Sydney
VEH ,712,24-May-71,151.092812592,-33.8092391132,VICTORIA RD,HERMITAGE RD,WEST RYDE,Sydney
VEH ,713,16-Dec-71,151.243767736,-33.7523315841,WARRINGAH RD,ALLAMBIE RD,FRENCHS FOREST,Sydney
VEH ,714,16-Aug-71,150.931079863,-33.9281558744,HEATHCOTE RD,NEWBRIDGE RD,LIVERPOOL,Sydney
VEH ,715,30-Jun-74,150.887123571,-33.9578354489,HUME HWY,CAMPBELLTOWN RD,PRESTONS,Sydney
VEH ,716,22-Dec-89,150.80755933,-33.7924104952,ERSKINE PARK RD,ROPER RD,COLYTON,Sydney
VEH ,717,30-Jun-71,151.028405719,-33.7877564444,PENNANT HILLS RD,BETTINGTON RD,OATLANDS,Sydney
VEH ,718,13-Sep-65,151.178310322,-33.7977099555,PACIFIC HWY,VICTORIA AV,CHATSWOOD,Sydney
VEH ,719,20-Dec-89,151.195005902,-33.9156006202,O'RIORDAN ST,DOODY ST,BEACONSFIELD,Sydney
VEH ,720,21-Dec-71,151.184203892,-33.9312929201,QANTAS DR,ROBEY ST,SYDNEY AIRPORT,Sydney
VEH ,721,25-Jul-72,151.164129636,-33.8792853255,CATHERINE ST,MOORE ST,LEICHHARDT,Sydney
VEH ,722,27-Mar-72,151.6839089,-32.8247828377,PACIFIC HWY,MAITLAND RD,HEXHAM,Hunter
VEH ,723,17-Mar-72,151.184230255,-33.9214909599,RICKETTY ST,KENT RD,MASCOT,Sydney
VEH ,724,30-Dec-71,151.000198097,-33.8194434442,GREAT WESTERN HWY,MARSDEN ST,PARRAMATTA,Sydney
VEH ,725,26-Jan-72,150.999951101,-33.8385103021,WOODVILLE RD,MERRYLANDS RD,MERRYLANDS,Sydney
VEH ,726,25-Jan-72,151.243260423,-33.8905751024,NELSON ST,OXFORD ST,WOOLLAHRA,Sydney
VEH ,727,02-Nov-72,150.95576685,-33.9289449705,NEWBRIDGE RD,NUWARRA RD,MOOREBANK,Sydney
VEH ,728,22-Mar-72,151.126647309,-34.0010878662,ROCKY POINT RD,WELLINGTON ST,SANS SOUCI,Sydney
VEH ,730,23-May-72,141.465732231,-31.9581884058,ARGENT ST,CHLORIDE ST,BROKEN HILL,Western
VEH ,731,15-Mar-72,151.271818387,-33.7618987621,PITTWATER RD,WINBOURNE RD,BROOKVALE,Sydney
VEH ,732,18-Apr-72,150.927579522,-33.8049354042,GREAT WESTERN HWY,BLACKTOWN RD,PROSPECT,Sydney
VEH ,733,07-Jun-72,150.940771639,-33.8535795708,CUMBERLAND HWY,THE HORSLEY DR,SMITHFIELD,Sydney
VEH ,734,20-Jun-74,151.758115079,-32.9267212119,STEWART AV,KING ST,NEWCASTLE WEST,Hunter
VEH ,735,19-Sep-72,150.925156986,-33.9256759199,SPEED ST,TERMINUS ST,LIVERPOOL,Sydney
VEH ,736,29-Nov-73,151.098731852,-33.7046175103,PACIFIC HWY,GEORGE ST,HORNSBY,Sydney
VEH ,738,24-May-61,151.104059954,-33.9130615272,BEAMISH ST,EVALINE ST,CAMPSIE,Sydney
VEH ,739,27-Jul-72,151.071542245,-34.0320884708,PRINCES HWY,OAK RD NORTH,KIRRAWEE,Sydney
VEH ,740,22-May-75,151.210833471,-33.8108635129,SAILORS BAY RD,STRATHALLEN AV,NORTHBRIDGE,Sydney
VEH ,741,10-Aug-72,150.908034221,-33.7734047019,NEWTON RD,FLUSHCOMBE RD,BLACKTOWN,Sydney
VEH ,742,25-Jan-73,151.003813874,-33.8084902409,VICTORIA RD,MARIST PL,PARRAMATTA,Sydney
VEH ,743,22-Dec-72,151.075460661,-33.909582459,PUNCHBOWL RD,JUNO PDE,GREENACRE,Sydney
VEH ,744,27-Sep-72,151.257946501,-33.7946209272,SYDNEY RD,WANGANELLA ST,BALGOWLAH,Sydney
VEH ,745,21-Dec-72,151.247664454,-33.9083496522,CLOVELLY RD,FRENCHMANS RD,RANDWICK,Sydney
VEH ,747,28-Jan-75,151.154137478,-33.8962282085,NEW CANTERBURY RD,AUDLEY ST,MARRICKVILLE,Sydney
VEH ,748,14-Dec-89,151.191823379,-33.9061922049,EUSTON RD,MADDOX ST,ALEXANDRIA,Sydney
VEH ,749,21-Jun-72,151.014773391,-33.8087307972,VICTORIA RD,MACARTHUR ST,PARRAMATTA,Sydney
VEH ,750,07-Jun-72,151.088731915,-33.8077149345,VICTORIA RD,WEST PDE,WEST RYDE,Sydney
VEH ,751,20-Jun-72,151.109459825,-33.8165690932,VICTORIA RD,BLAXLAND RD,RYDE,Sydney
VEH ,752,29-Aug-72,151.002579776,-33.9045294251,HUME HWY,HECTOR ST,BASS HILL,Sydney
VEH ,753,20-Feb-73,151.092254524,-33.871347754,RAW SQ,ALBERT RD,STRATHFIELD,Sydney
VEH ,754,22-Dec-72,151.105668595,-34.0079802806,PRINCES HWY,PORT HACKING RD,SYLVANIA,Sydney
VEH ,755,20-Dec-72,150.959700308,-33.8937174845,HUME HWY,LANSDOWNE RD,LANSVALE,Sydney
VEH ,756,28-Jun-73,151.004301838,-33.8224385123,CHURCH ST,MARION ST,PARRAMATTA,Sydney
VEH ,757,28-Jun-73,151.004584978,-33.8249322392,CHURCH ST,BOUNDARY ST,PARRAMATTA,Sydney
VEH ,758,19-Dec-72,151.100926777,-33.7724582694,EPPING RD,VIMIERA RD,MARSFIELD,Sydney
VEH ,759,17-Jan-90,151.242179275,-33.918091946,COOGEE BAY RD,PEROUSE RD,RANDWICK,Sydney
VEH ,760,09-Feb-90,151.098795235,-33.9302025641,KINGSGROVE RD,MOOREFIELDS RD,KINGSGROVE,Sydney
VEH ,761,25-Jan-73,151.187797532,-33.880812831,GLEBE POINT RD,ST JOHNS RD,GLEBE,Sydney
VEH ,762,15-Jun-73,151.202751874,-33.8304967584,PACIFIC HWY,ROCKLANDS RD,CROWS NEST,Sydney
VEH ,763,26-Jun-73,151.201576923,-33.8288563176,PACIFIC HWY,ALEXANDER ST,CROWS NEST,Sydney
VEH ,764,25-Jun-73,151.201905228,-33.827836576,FALCON ST,ALEXANDER ST,CROWS NEST,Sydney
VEH ,765,08-Nov-61,151.200710231,-33.8276976655,PACIFIC HWY,FALCON ST,CROWS NEST,Sydney
VEH ,766,25-Jun-73,151.199211574,-33.8260795972,PACIFIC HWY,HUME ST,CROWS NEST,Sydney
VEH ,767,02-Jul-73,151.19826455,-33.8250917868,PACIFIC HWY,OXLEY ST,ST LEONARDS,Sydney
VEH ,768,19-Jun-73,151.197193119,-33.823798486,PACIFIC HWY,ALBANY ST,ST LEONARDS,Sydney
VEH ,769,16-Jul-73,151.195510591,-33.8232504405,PACIFIC HWY,CHRISTIE ST,ST LEONARDS,Sydney
VEH ,770,07-Aug-68,151.193906259,-33.8235337305,PACIFIC HWY,HERBERT ST,ST LEONARDS,Sydney
VEH ,771,08-Jun-73,151.192457173,-33.8240444001,PACIFIC HWY,RESERVE RD,ST LEONARDS,Sydney
VEH ,772,09-Nov-89,150.780558625,-33.7646591196,GLOSSOP ST,PHILLIP ST,ST MARYS,Sydney
VEH ,773,15-Oct-92,151.260032391,-33.8972409836,BIRRELL ST,BENNETT ST,WAVERLEY,Sydney
VEH ,774,16-May-89,151.589973467,-32.7511190316,HIGH ST,LAWES ST,EAST MAITLAND,Hunter
VEH ,775,12-Jun-73,151.196583906,-33.782066141,EASTERN VALLEY WAY,BOUNDARY ST,ROSEVILLE,Sydney
VEH ,776,15-Nov-73,151.718927479,-32.8820571518,MAITLAND RD,INDUSTRIAL DR,MAYFIELD WEST,Hunter
VEH ,777,29-Jun-73,151.1271904,-33.9062212239,CANTERBURY RD,QUEEN ST,HURLSTONE PARK,Sydney
VEH ,778,15-Jul-91,151.691178541,-32.9886283875,PACIFIC HWY,OAKDALE RD,GATESHEAD,Hunter
VEH ,779,19-Dec-72,150.854432249,-33.7888593521,GREAT WESTERN HWY,ROOTY HILL RD SOUTH,EASTERN CREEK,Sydney
VEH ,780,09-Nov-73,151.105914299,-33.813659275,BLAXLAND RD,CHURCH ST,RYDE,Sydney
VEH ,781,27-Sep-73,151.231820959,-33.7518792673,WARRINGAH RD,HILMER ST,FRENCHS FOREST,Sydney
VEH ,782,23-Aug-73,151.770815702,-32.9271145472,HUNTER ST,AUCKLAND ST,NEWCASTLE,Hunter
VEH ,783,04-Dec-74,151.200565516,-33.8922572205,REGENT ST,REDFERN ST,REDFERN,Sydney
VEH ,784,03-Jul-73,151.080896506,-33.8064737933,VICTORIA RD,SHAFTSBURY RD,WEST RYDE,Sydney
VEH ,785,28-Jun-73,151.082461537,-33.8067578211,VICTORIA RD,ADELAIDE ST,WEST RYDE,Sydney
VEH ,786,31-May-91,150.939887762,-33.9103300659,HUME HWY,SAPPHO RD,WARWICK FARM,Sydney
VEH ,787,21-Jun-74,151.125319852,-33.92668989,HOMER ST,EARLWOOD AV,EARLWOOD,Sydney
VEH ,788,27-Jun-74,151.124434938,-33.9274062749,HOMER ST,WILLIAM ST,EARLWOOD,Sydney
VEH ,789,27-Feb-74,151.262683376,-33.7941058582,SYDNEY RD,WOODLAND ST NORTH,BALGOWLAH,Sydney
VEH ,790,02-Jul-90,150.745689945,-33.7650905292,GREAT WESTERN HWY,WESTERN UNIV. ENT,WERRINGTON,Sydney
VEH ,791,05-Sep-73,151.035500857,-33.9666648618,HENRY LAWSON DR,CLANCY ST,PADSTOW HEIGHTS,Sydney
VEH ,792,30-Jun-74,151.234111913,-33.9084718418,ALISON RD,COWPER ST,RANDWICK,Sydney
VEH ,793,23-Apr-75,151.113558679,-33.7816216772,EPPING RD,HERRING RD,MARSFIELD,Sydney
VEH ,794,24-Dec-73,151.137085643,-33.7965093032,EPPING RD,PITTWATER RD,NORTH RYDE,Sydney
VEH ,795,30-Oct-73,151.225535883,-33.8288044346,GERARD ST,WINNIE ST,CREMORNE,Sydney
VEH ,796,07-Mar-74,151.242699889,-33.8233080489,SPIT RD,OURIMBAH RD,MOSMAN,Sydney
VEH ,797,21-Jun-74,151.151605002,-33.9384970808,WEST BOTANY ST,MARSH ST,ARNCLIFFE,Sydney
VEH ,798,14-Nov-73,149.233008528,-35.351483012,CRAWFORD ST,MORISSET ST,QUEANBEYAN,Southern
VEH ,800,11-Aug-76,151.260875139,-33.7545389057,WARRINGAH RD,WILLANDRA RD,BEACON HILL,Sydney
VEH ,801,18-Jun-74,151.053665377,-33.8140276078,VICTORIA RD,RIVER RD,ERMINGTON,Sydney
VEH ,802,23-Apr-74,151.091884474,-33.8732936979,RAW SQ,REDMYRE RD,STRATHFIELD,Sydney
VEH ,803,24-Jun-74,151.093898277,-33.8739412564,REDMYRE RD,THE BOULVARDE,STRATHFIELD,Sydney
VEH ,804,24-Jun-74,151.093837056,-33.8747117531,THE BOULVARDE,MORWICK ST,STRATHFIELD,Sydney
VEH ,805,17-Feb-76,151.145291674,-33.8018463078,EPPING RD,MOWBRAY RD WEST,LANE COVE NORTH,Sydney
VEH ,806,21-Dec-73,151.199510329,-33.8105958337,ARTARMON RD,WILLOUGHBY RD,WILLOUGHBY,Sydney
VEH ,807,08-Oct-73,151.136321898,-33.7692619756,RYDE RD,YANKO RD,WEST PYMBLE,Sydney
VEH ,808,20-Feb-74,151.108512564,-33.8080763789,LANE COVE RD,BUFFALO RD,RYDE,Sydney
VEH ,809,15-Nov-73,151.06754582,-33.9213462754,KING GEORGES RD,LAKEMBA ST,WILEY PARK,Sydney
VEH ,810,05-Nov-74,151.036647286,-33.9345978333,CANTERBURY RD,FAIRFORD RD,BANKSTOWN,Sydney
VEH ,811,23-Oct-74,151.040354989,-33.9328844797,CANTERBURY RD,STACEY ST,PUNCHBOWL,Sydney
VEH ,812,24-Oct-74,151.041858215,-33.9325406206,CANTERBURY RD,MOXON RD,PUNCHBOWL,Sydney
VEH ,813,31-Oct-74,151.044852237,-33.9324711467,CANTERBURY RD,PUNCHBOWL RD,PUNCHBOWL,Sydney
VEH ,814,01-Nov-74,151.04944562,-33.9324717242,CANTERBURY RD,CULLENS ST,PUNCHBOWL,Sydney
VEH ,815,24-Oct-74,151.053371405,-33.9319781394,CANTERBURY RD,VICTORIA RD,PUNCHBOWL,Sydney
VEH ,816,20-Nov-74,151.056240153,-33.9318130612,CANTERBURY RD,BELMORE RD,PUNCHBOWL,Sydney
VEH ,817,21-Nov-74,151.057601995,-33.9317715623,CANTERBURY RD,ROSSMORE AV,PUNCHBOWL,Sydney
VEH ,818,07-Nov-74,151.060095439,-33.9316944524,CANTERBURY RD,BONDS RD,PUNCHBOWL,Sydney
VEH ,819,29-Oct-74,151.063072592,-33.9313914815,CANTERBURY RD,DUDLEY ST,PUNCHBOWL,Sydney
VEH ,820,07-Nov-74,151.066126978,-33.9307595033,CANTERBURY RD,PENTLANDS AV,PUNCHBOWL,Sydney
VEH ,821,08-May-74,151.149387399,-33.8968873331,NEW CANTERBURY RD,WARDELL RD,LEWISHAM,Sydney
VEH ,822,09-Oct-74,151.093650634,-33.8629375825,CONCORD RD,PATTERSON ST,NORTH STRATHFIELD,Sydney
VEH ,823,24-Jun-74,150.977123183,-33.8339353943,MERRYLANDS RD,FOWLER RD,MERRYLANDS,Sydney
VEH ,824,24-Nov-89,151.08075864,-34.0297288258,PRINCES HWY,WARATAH ST,GYMEA,Sydney
VEH ,825,11-Apr-74,151.094594332,-33.9656825839,KING GEORGES RD,WONIORA RD,HURSTVILLE,Sydney
VEH ,826,17-Feb-75,151.108625869,-33.8693398941,PARRAMATTA RD,SHAFTESBURY RD,BURWOOD,Sydney
VEH ,827,19-Dec-38,151.105365613,-33.8688905867,PARRAMATTA RD,BURWOOD RD,BURWOOD,Sydney
VEH ,828,17-Apr-75,151.103000711,-33.8685798198,PARRAMATTA RD,BROUGHTON ST,BURWOOD,Sydney
VEH ,829,01-Sep-89,150.73228362,-34.041586565,CAMDEN VALLEY WAY,RICHARDSON RD,NARELLAN,Sydney
VEH ,830,17-Feb-75,151.099173703,-33.8680938494,PARRAMATTA RD,WENTWORTH RD,STRATHFIELD,Sydney
VEH ,831,18-Mar-75,151.096217138,-33.8672171525,PARRAMATTA RD,MOSELY ST,STRATHFIELD,Sydney
VEH ,832,28-Aug-67,151.095151707,-33.8669689443,PARRAMATTA RD,M4 MWY,STRATHFIELD,Sydney
VEH ,833,10-Apr-75,151.093617818,-33.8664789993,PARRAMATTA RD,LEICESTER AV,STRATHFIELD,Sydney
VEH ,834,21-Mar-75,151.0888136,-33.8651645741,PARRAMATTA RD,GEORGE ST,HOMEBUSH,Sydney
VEH ,835,06-Dec-93,151.273128978,-33.8940747974,CAMPBELL PDE,NOTTS AV (E-),BONDI BEACH,Sydney
VEH ,836,14-Mar-75,151.085497354,-33.8650389858,PARRAMATTA RD,KNIGHT ST,HOMEBUSH,Sydney
VEH ,837,18-Nov-80,151.083488281,-33.8644691091,PARRAMATTA RD,UNDERWOOD RD,HOMEBUSH,Sydney
VEH ,838,02-Dec-74,151.081944983,-33.8638140567,PARRAMATTA RD,PARK RD,HOMEBUSH,Sydney
VEH ,839,24-Jan-75,151.079634414,-33.8628190916,PARRAMATTA RD,BRIDGE RD,HOMEBUSH,Sydney
VEH ,840,04-Apr-75,151.076112474,-33.8612685594,PARRAMATTA RD,POTTS ST,HOMEBUSH,Sydney
VEH ,841,12-Sep-87,151.092018379,-33.8721924865,RAW SQ,CHURCHILL AV,STRATHFIELD,Sydney
VEH ,842,17-Aug-89,151.113954978,-33.9840334278,PRINCES HWY,TERRY ST,BLAKEHURST,Sydney
VEH ,844,20-Nov-89,151.22252228,-33.8747931981,DARLINGHURST RD,BAYSWATER RD,KINGS CROSS,Sydney
VEH ,845,24-Aug-89,151.669400172,-32.9012847155,NELSON ST,TYRRELL ST,WALLSEND,Hunter
VEH ,846,27-Feb-74,151.080851295,-33.9494373249,KING GEORGES RD,MORGAN ST,BEVERLY HILLS,Sydney
VEH ,847,08-Apr-76,151.240377472,-33.9461815962,ANZAC PDE,FITZGERALD AV,MAROUBRA,Sydney
VEH ,848,08-May-78,151.234903383,-33.7499593494,WAKEHURST PARKWAY,FRENCHS FOREST RD,FRENCHS FOREST,Sydney
VEH ,849,25-Mar-76,151.089107638,-33.8285746428,CONCORD RD,LLEWELLYN ST,RHODES,Sydney
VEH ,850,20-Dec-74,151.103594979,-33.9687689413,RAILWAY PDE,ORMONDE PDE,HURSTVILLE,Sydney
VEH ,851,17-May-74,151.119775416,-33.7932077538,LANE COVE RD,COXS RD,NORTH RYDE,Sydney
VEH ,852,06-May-74,151.162509484,-33.7291505252,MONA VALE RD,STANLEY ST,ST IVES,Sydney
VEH ,853,24-Mar-76,151.011355853,-33.9361426023,MILPERRA RD,EDGAR ST,REVESBY,Sydney
VEH ,854,07-May-74,151.076820079,-33.9284055412,CANTERBURY RD,CANARYS RD,LAKEMBA,Sydney
VEH ,855,13-May-74,151.119373268,-33.9120178959,CANTERBURY RD,JEFFREY ST,CANTERBURY,Sydney
VEH ,856,29-Jun-74,151.151542717,-33.8969536575,NEW CANTERBURY RD,WEST ST,PETERSHAM,Sydney
VEH ,857,13-Nov-74,151.04019145,-33.9059327779,HUME HWY,STACEY ST,BANKSTOWN,Sydney
VEH ,858,30-May-74,151.079211087,-33.9549516748,STONEY CREEK RD,PENSHURST ST,BEVERLY HILLS,Sydney
VEH ,859,03-Jun-74,151.100928071,-33.9399535229,KINGSGROVE RD,COMMERCIAL RD,KINGSGROVE,Sydney
VEH ,860,30-Apr-74,151.173298709,-33.9049653077,EDGEWARE RD,ALICE ST,ENMORE,Sydney
VEH ,861,02-May-74,151.150011885,-33.8842184673,MARION ST,FLOOD ST,LEICHHARDT,Sydney
VEH ,862,14-Aug-75,151.164692021,-33.8743511241,CATHERINE ST,BRENAN ST,LILYFIELD,Sydney
VEH ,863,04-Dec-73,151.284375885,-33.7992236727,EAST ESPLANADE,WEST ESPLANADE,MANLY,Sydney
VEH ,864,07-Mar-75,151.685995516,-32.9486893927,CHARLESTOWN RD,MYALL RD,KOTARA,Hunter
VEH ,865,12-Dec-74,151.00398352,-33.7338018199,OLD NORTHERN RD,SHOWGROUND RD,CASTLE HILL,Sydney
VEH ,866,25-Jun-74,150.920763619,-33.9152165879,HUME HWY,CUMBERLAND HWY,LIVERPOOL,Sydney
VEH ,867,14-May-92,146.923224002,-36.0837464917,YOUNG ST,SMOLLETT ST,ALBURY,South Western
VEH ,868,27-Jun-74,150.653270506,-33.7540893316,GREAT WESTERN HWY,RUSSELL ST,EMU PLAINS,Sydney
VEH ,869,19-Jun-75,151.065144369,-33.7511380758,BEECROFT RD,COPELAND RD,BEECROFT,Sydney
VEH ,870,01-Oct-74,150.942872783,-33.7683578651,PROSPECT HWY,ABBOTT RD,SEVEN HILLS,Sydney
VEH ,871,29-Jul-75,151.113430125,-34.0352220971,THE KINGSWAY,PORT HACKING RD,MIRANDA,Sydney
VEH ,872,03-Mar-75,151.209758175,-33.9008108486,BOURKE ST,MCEVOY ST,WATERLOO,Sydney
VEH ,873,15-May-89,150.865391423,-34.4321429541,PRINCES HWY,LONDON DR,WEST WOLLONGONG,Southern
VEH ,874,16-Oct-74,151.207267176,-33.8368317729,MILLER ST,BERRY ST,NORTH SYDNEY,Sydney
VEH ,875,01-Oct-74,151.208521073,-33.8406480318,PACIFIC HWY,WALKER ST,NORTH SYDNEY,Sydney
VEH ,876,11-Apr-74,151.71010962,-32.8708055068,MAITLAND RD,WALLSEND RD,SANDGATE,Hunter
VEH ,877,14-May-74,150.923716345,-33.9225425121,MACQUARIE ST,MOORE ST,LIVERPOOL,Sydney
VEH ,878,21-Nov-75,151.153871192,-33.9667631684,THE GRAND PDE,PRESIDENT AV,BRIGHTON-LE-SANDS,Sydney
VEH ,879,13-Jun-75,148.605658334,-32.2538509492,DARLING ST,COBRA ST,DUBBO,Western
VEH ,880,28-Jun-74,151.053668909,-33.850798757,PARRAMATTA RD,HILL RD,LIDCOMBE,Sydney
VEH ,881,07-Sep-75,151.069386362,-33.8583972215,PARRAMATTA RD,MARLBOROUGH RD,HOMEBUSH,Sydney
VEH ,882,18-Dec-74,151.178949434,-33.7993212499,PACIFIC HWY,ALBERT AV,CHATSWOOD,Sydney
VEH ,883,26-Feb-75,151.187976547,-33.8243662493,PACIFIC HWY,GREENWICH RD,ST LEONARDS,Sydney
VEH ,884,20-Aug-74,151.169475503,-33.8989278851,STANMORE RD,LIBERTY ST,STANMORE,Sydney
VEH ,885,14-Mar-75,150.991712179,-33.8188113122,GREAT WESTERN HWY,BURNETT ST,MAYS HILL,Sydney
VEH ,886,07-Oct-75,151.047660254,-33.7541049303,PENNANT HILLS RD,COPELAND RD,WEST PENNANT HILLS,Sydney
VEH ,887,02-Apr-75,151.010697455,-33.8300417423,PARRAMATTA RD,BOLD ST,GRANVILLE,Sydney
VEH ,888,19-Jun-74,151.001175958,-33.8164717484,MARSDEN ST,ARGYLE ST,PARRAMATTA,Sydney
VEH ,889,23-May-79,150.999323969,-33.816095664,O'CONNELL ST,ARGYLE ST,PARRAMATTA,Sydney
VEH ,890,29-Apr-75,150.908579179,-33.7696708249,MAIN ST,FLUSHCOMBE RD,BLACKTOWN,Sydney
VEH ,891,07-May-75,150.937202611,-33.8083816235,GREAT WESTERN HWY,GREYSTANES RD,GREYSTANES,Sydney
VEH ,892,16-Dec-74,151.17868769,-33.7988138678,PACIFIC HWY,CENTENNIAL AV,CHATSWOOD,Sydney
VEH ,893,24-Jun-74,151.266633232,-33.7865390676,CONDAMINE ST,KENNETH RD,MANLY VALE,Sydney
VEH ,894,27-Jun-74,151.167742034,-33.7740592071,PACIFIC HWY,HAVILAH RD,LINDFIELD,Sydney
VEH ,895,20-Jan-75,151.206380975,-33.8285332115,FALCON ST,WEST ST,CROWS NEST,Sydney
VEH ,896,18-Dec-74,151.212575413,-33.7007613268,MONA VALE RD,FOREST WAY,TERREY HILLS,Sydney
VEH ,897,27-Apr-88,150.89347569,-33.8778646192,SMITHFIELD RD,MIMOSA ST,GREENFIELD PARK,Sydney
VEH ,898,27-Apr-76,151.218554403,-33.9250314606,GARDENERS RD,EASTERN AV,KINGSFORD,Sydney
VEH ,899,14-Jun-74,151.132906635,-34.0456780743,THE KINGSWAY,GANNONS RD,CARINGBAH,Sydney
VEH ,900,27-Feb-75,151.226523521,-33.9044990095,ALISON RD,DONCASTER AV,KENSINGTON,Sydney
VEH ,901,02-May-74,151.240277188,-33.9214166074,AVOCA ST,BARKER ST,RANDWICK,Sydney
VEH ,902,09-May-74,151.140994997,-33.903872504,NEW CANTERBURY RD,CONSTITUTION RD,DULWICH HILL,Sydney
VEH ,903,07-Jun-74,151.121315889,-33.8876062955,HUME HWY,THOMAS ST,ASHFIELD,Sydney
VEH ,904,30-Jun-74,151.248244247,-33.8727833067,NEW SOUTH HEAD RD,VICTORIA RD,DOUBLE BAY,Sydney
VEH ,905,27-Mar-75,151.255518909,-33.8714130461,NEW SOUTH HEAD RD,CRANBROOK RD,ROSE BAY,Sydney
VEH ,906,15-Dec-77,151.237171237,-33.8884427007,QUEEN ST,MONCUR ST,WOOLLAHRA,Sydney
VEH ,907,31-Oct-75,151.220979882,-33.8833527283,OXFORD ST,GREENS RD,PADDINGTON,Sydney
VEH ,908,05-Feb-75,151.268545427,-33.8946638757,BONDI RD,DENHAM ST,BONDI,Sydney
VEH ,909,07-May-74,150.900868306,-34.3961228597,ELLIOTTS RD,SQUIRES WY,FAIRY MEADOW,Southern
VEH ,910,28-Mar-74,151.657841921,-32.9396301005,MAIN RD,MACQUARIE RD,CARDIFF,Hunter
VEH ,911,16-Jun-88,151.013962072,-33.8116956711,MACARTHUR ST,THOMAS ST,PARRAMATTA,Sydney
VEH ,912,27-Jun-74,151.690507437,-32.9048702883,NEWCASTLE RD,BLUE GUM RD,JESMOND,Hunter
VEH ,913,20-May-74,151.152673395,-33.9338145626,PRINCES HWY,WEST BOTANY ST,ARNCLIFFE,Sydney
VEH ,914,31-Jan-75,151.136358025,-33.7395879952,PACIFIC HWY,BOBBIN HEAD RD,PYMBLE,Sydney
VEH ,915,20-Jun-74,151.078696616,-33.906340883,PUNCHBOWL RD,COSGROVE RD,BELFIELD,Sydney
VEH ,916,13-Dec-74,151.115013444,-33.7977630962,BRIDGE RD,TWIN RD,NORTH RYDE,Sydney
VEH ,917,07-Jul-83,151.17563536,-33.9101768178,UNWINS BRIDGE RD,CAMPBELL ST,ST PETERS,Sydney
VEH ,918,23-May-74,151.098700209,-34.0338430857,THE KINGSWAY,WANDELLA RD,MIRANDA,Sydney
VEH ,919,27-May-74,151.064949691,-34.0161252077,RAILWAY CR,BOX RD,JANNALI,Sydney
VEH ,920,04-Mar-75,151.15683173,-33.7651528428,PACIFIC HWY,LORNE AV,KILLARA,Sydney
VEH ,921,18-Aug-78,151.20636222,-33.8984549979,ELIZABETH ST,WELLINGTON ST,WATERLOO,Sydney
VEH ,922,05-Nov-75,151.153523856,-33.8517427409,LYONS RD,MARLBOROUGH ST,DRUMMOYNE,Sydney
VEH ,923,20-Nov-89,151.763575511,-32.9278925438,KING ST,STEEL ST,NEWCASTLE WEST,Hunter
VEH ,925,03-Jul-88,150.92775774,-33.9182807442,BIGGE ST,CAMPBELL ST,LIVERPOOL,Sydney
VEH ,926,14-May-74,151.11322076,-33.9900934602,PRINCES HWY,BUNYALA ST,BLAKEHURST,Sydney
VEH ,927,29-Aug-79,151.692453929,-32.9592986358,CHARLESTOWN RD,GRIFFITHS RD,CHARLESTOWN,Hunter
VEH ,928,12-Sep-77,151.696718504,-32.9614040747,PACIFIC HWY,CHARLESTOWN RD,CHARLESTOWN,Hunter
VEH ,929,23-Apr-76,151.696086307,-32.9622586915,PACIFIC HWY,RIDLEY ST,CHARLESTOWN,Hunter
VEH ,930,19-Apr-61,151.695866684,-32.9635074283,PACIFIC HWY,SMART ST,CHARLESTOWN,Hunter
VEH ,931,07-Oct-77,151.6954356,-32.9656642418,PACIFIC HWY,FREDERICK ST,CHARLESTOWN,Hunter
VEH ,932,17-Oct-77,151.694576199,-32.9678849506,PACIFIC HWY,DUDLEY RD,CHARLESTOWN,Hunter
VEH ,933,18-Sep-90,151.154214584,-33.9600613476,BAY ST,MOATE AV,BRIGHTON-LE-SANDS,Sydney
VEH ,934,26-Oct-89,151.19554435,-33.8976291876,HENDERSON RD,MITCHELL RD,ALEXANDRIA,Sydney
VEH ,935,28-Sep-89,151.042463242,-33.8693046287,OLYMPIC DR,JOSEPH ST,LIDCOMBE,Sydney
VEH ,936,23-Sep-76,151.172282397,-33.8236839621,NORTHWOOD RD,KENNETH ST,LONGUEVILLE,Sydney
VEH ,938,20-Feb-75,150.873662496,-34.4547924106,SPRINGHILL RD,AI & S SPARES ENTRANCE,CRINGILA,Southern
VEH ,939,01-May-74,150.882060098,-34.4434570599,SPRINGHILL RD,AIS NORTH GATE ACCESS RD,CONISTON,Southern
VEH ,940,28-Oct-74,151.289739507,-33.7493619937,PITTWATER RD,HAWKESBURY AV,DEE WHY,Sydney
VEH ,941,19-Dec-74,151.288174592,-33.7516044533,PITTWATER RD,DEE WHY PDE,DEE WHY,Sydney
VEH ,942,19-Dec-74,151.286855805,-33.7525354593,PITTWATER RD,HOWARD AV,DEE WHY,Sydney
VEH ,943,19-Dec-74,151.285627782,-33.7534121792,PITTWATER RD,OAKS AV,DEE WHY,Sydney
VEH ,944,19-Dec-74,151.2848707,-33.7539244079,PITTWATER RD,FISHER RD,DEE WHY,Sydney
VEH ,945,19-Dec-74,151.284344821,-33.7543510181,PITTWATER RD,PACIFIC PDE,DEE WHY,Sydney
VEH ,946,19-Dec-74,151.283549726,-33.7552415449,PITTWATER RD,STURDEE PDE,DEE WHY,Sydney
VEH ,947,28-Jun-88,151.038790973,-33.8492685115,ST HILLIERS RD,HALL ST,AUBURN,Sydney
VEH ,950,13-Oct-89,151.031786813,-33.952196156,HOWARD RD,PADSTOW PDE,PADSTOW,Sydney
VEH ,951,28-Sep-89,150.954957993,-33.8039095725,DUNMORE ST,PENDLE WAY,PENDLE HILL,Sydney
VEH ,952,19-Feb-75,151.203900897,-33.892775532,REDFERN ST,PITT ST,REDFERN,Sydney
VEH ,953,08-Jan-90,150.957876291,-33.8045880622,DUNMORE ST,GOODALL ST,PENDLE HILL,Sydney
VEH ,954,30-Nov-05,151.006003469,-33.8170932866,DARCY ST,STATION ST,PARRAMATTA,Sydney
VEH ,955,04-Oct-89,150.999560431,-33.815284371,O'CONNELL ST,HUNTER ST,PARRAMATTA,Sydney
VEH ,956,09-Jul-92,150.925818434,-33.8737668693,CUMBERLAND HWY,THORNEY RD,FAIRFIELD WEST,Sydney
VEH ,957,03-Oct-75,151.085190449,-33.7865984915,BLAXLAND RD,BALACLAVA RD,EASTWOOD,Sydney
VEH ,958,09-May-75,151.075914102,-33.9179764306,LAKEMBA ST,HALDON ST NORTH,LAKEMBA,Sydney
VEH ,960,22-Aug-75,151.149366171,-33.9371321505,PRINCES HWY,KYLE ST,ARNCLIFFE,Sydney
VEH ,961,18-Feb-75,151.138984403,-33.7417454862,PACIFIC HWY,TELEGRAPH RD,PYMBLE,Sydney
VEH ,962,18-Jul-78,150.893837185,-34.4214906983,FLINDERS ST,SMITH ST,WOLLONGONG,Southern
VEH ,963,17-Jan-75,151.112303558,-33.6765156131,PACIFIC HWY,YIRRA RD,MT COLAH,Sydney
VEH ,964,25-Jul-85,151.32162715,-33.427764982,PACIFIC HWY,YALLAMBEE AV,GOSFORD,Hunter
VEH ,965,14-May-76,151.141957422,-33.9445568896,PRINCES HWY,SUBWAY RD,BANKSIA,Sydney
VEH ,966,18-Nov-74,151.088177999,-33.8314926193,CONCORD RD,MARY ST,RHODES,Sydney
VEH ,967,12-Dec-74,151.092257558,-33.8584149687,CONCORD RD,WELLBANK ST,NORTH STRATHFIELD,Sydney
VEH ,968,26-Jan-78,150.977421039,-33.8818780359,WOODVILLE RD,LLEWELLYN ST,VILLAWOOD,Sydney
VEH ,969,24-Sep-74,151.135314545,-33.7733262873,RYDE RD,LADY GAME DR,WEST PYMBLE,Sydney
VEH ,970,23-Jun-73,151.138684805,-33.9507239602,PRINCES HWY,BRYANT ST,ROCKDALE,Sydney
VEH ,971,02-Jul-73,151.138251925,-33.9515171029,PRINCES HWY,GEEVES AV,ROCKDALE,Sydney
VEH ,972,02-Jul-73,151.137938711,-33.9521323848,PRINCES HWY,KING ST,ROCKDALE,Sydney
VEH ,973,09-Mar-53,151.137558237,-33.9529250189,PRINCES HWY,BAY ST,ROCKDALE,Sydney
VEH ,974,23-Oct-75,151.137660308,-33.9552255193,PRINCES HWY,LISTER AV,ROCKDALE,Sydney
VEH ,975,01-Oct-75,151.137819409,-33.9571167349,PRINCES HWY,ROCKDALE PLAZA DR,ROCKDALE,Sydney
VEH ,976,23-Oct-75,151.137992705,-33.9595598898,PRINCES HWY,HARROW RD,KOGARAH,Sydney
VEH ,977,23-Oct-74,151.13777828,-33.9613123521,PRINCES HWY,REGENT ST,KOGARAH,Sydney
VEH ,978,15-Mar-95,151.135064057,-33.9649534038,MONTGOMERY ST,KENSINGTON ST,KOGARAH,Sydney
VEH ,979,29-Oct-75,151.137167457,-33.9643206745,PRINCES HWY,PRESIDENT AV,KOGARAH,Sydney
PED ,981,30-Oct-57,151.136460414,-33.9677955979,PRINCES HWY,ROCKY POINT RD (N-),KOGARAH,Sydney
VEH ,982,10-Nov-75,151.136143677,-33.9689244023,PRINCES HWY,ROCKY POINT RD,KOGARAH,Sydney
VEH ,983,06-Sep-62,151.134956453,-33.9699017567,PRINCES HWY,GRAY ST,KOGARAH,Sydney
VEH ,984,14-Nov-75,151.136303496,-33.9706920012,ROCKY POINT RD,GRAY AV,KOGARAH,Sydney
VEH ,985,14-Nov-75,151.136341478,-33.9716506595,ROCKY POINT RD,BARTON ST,KOGARAH,Sydney
VEH ,986,06-Dec-95,151.251835258,-33.8926110994,WAVERLEY ST,HOLLYWOOD AV,BONDI JUNCTION,Sydney
VEH ,987,03-Sep-93,150.93228403,-33.8502386738,VICTORIA ST,MARKET ST,SMITHFIELD,Sydney
VEH ,988,20-Oct-89,146.921498279,-36.0771896166,DAVID ST,WILSON ST,ALBURY,South Western
VEH ,989,12-Oct-89,150.879818915,-33.7473199644,RICHMOND RD,FALMOUTH RD,MARAYONG,Sydney
VEH ,990,22-Jun-92,150.802216518,-33.7791024257,ROPER RD,HEWITT ST,COLYTON,Sydney
VEH ,991,27-Aug-74,151.007478164,-34.0877959877,PRINCES HWY,OLIVER ST,HEATHCOTE,Sydney
VEH ,992,18-Feb-75,151.16579569,-33.7733954444,PACIFIC HWY,HIGHFIELD RD,LINDFIELD,Sydney
VEH ,993,22-Sep-75,151.238849943,-33.8221519325,OURIMBAH RD,COWLES RD,MOSMAN,Sydney
VEH ,995,22-Apr-75,151.059907815,-33.9463275278,BONDS RD,HANNANS RD,RIVERWOOD,Sydney
VEH ,996,29-Aug-75,151.103231471,-33.9082351629,BEAMISH ST,NINTH AV,CAMPSIE,Sydney
VEH ,997,10-Feb-76,151.018565014,-33.9167960175,MARION ST,WILLIAM ST,BANKSTOWN,Sydney
VEH ,998,23-Dec-74,151.018541925,-33.8637581456,WELLINGTON RD,CHISHOLM RD,AUBURN,Sydney
VEH ,999,19-Mar-76,151.111096805,-33.8946822088,GEORGES RIVER RD,CROYDON AV,CROYDON PARK,Sydney
VEH ,1000,08-Apr-74,151.280481305,-33.7586592768,PITTWATER RD,HARBORD RD,DEE WHY,Sydney
VEH ,1001,09-Apr-76,151.102996688,-33.9495220049,STONEY CREEK RD,KINGSGROVE RD,KINGSGROVE,Sydney
VEH ,1002,24-Mar-78,151.029479288,-33.9176195433,MARION ST,OLYMPIC PDE,BANKSTOWN,Sydney
VEH ,1003,16-Jan-75,151.021447115,-33.8482176564,CHISHOLM RD,MONA ST,AUBURN,Sydney
VEH ,1004,14-Apr-75,150.925329973,-33.9203766427,ELIZABETH ST,GEORGE ST,LIVERPOOL,Sydney
VEH ,1005,19-Dec-79,151.269617084,-33.7660679898,PITTWATER RD,CROSS ST,BROOKVALE,Sydney
VEH ,1006,02-Jun-75,151.227158586,-33.922817673,ANZAC PDE,MEEKS ST,KINGSFORD,Sydney
VEH ,1007,29-Apr-75,151.262089372,-33.8880187293,OLD SOUTH HEAD RD,PENKIVIL ST,BONDI,Sydney
VEH ,1008,26-Mar-75,151.259823248,-33.8724966201,NEW SOUTH HEAD RD,O'SULLIVAN RD,ROSE BAY,Sydney
VEH ,1009,16-May-75,151.213135913,-33.897099992,BOURKE ST,PHILLIP ST,WATERLOO,Sydney
VEH ,1010,20-Mar-75,151.031760488,-33.8395852486,PARRAMATTA RD,HAMPSTEAD RD,AUBURN,Sydney
VEH ,1011,16-Jul-75,141.467723554,-31.9569541231,ARGENT ST,OXIDE ST,BROKEN HILL,Western
VEH ,1012,13-Dec-74,151.128435126,-33.7851499719,LANE COVE RD,WATERLOO RD,MACQUARIE PARK,Sydney
VEH ,1013,27-Aug-75,151.066200225,-34.0350931484,PRESIDENT AV,ACACIA RD,KIRRAWEE,Sydney
VEH ,1014,25-Jun-75,151.033282859,-33.8107807127,VICTORIA RD,CLYDE ST,RYDALMERE,Sydney
VEH ,1015,23-Jun-75,151.080268275,-33.771159551,CARLINGFORD RD,RAY RD,EPPING,Sydney
VEH ,1016,02-Dec-77,151.127161584,-33.8335725541,VICTORIA RD,MERITON ST,GLADESVILLE,Sydney
VEH ,1017,01-Aug-75,150.924613929,-33.9241308345,GEORGE ST,RAILWAY ST,LIVERPOOL,Sydney
VEH ,1018,15-Aug-75,149.232082988,-35.3544435453,LOWE ST,MONARO ST,QUEANBEYAN,Southern
VEH ,1019,11-Apr-75,150.985505573,-33.8704910377,WOODVILLE RD,FAIRFIELD ST,GUILDFORD,Sydney
VEH ,1020,29-Apr-75,151.241974666,-33.9530094372,ANZAC PDE,BEAUCHAMP RD,MAROUBRA,Sydney
VEH ,1021,16-Dec-75,149.098727794,-33.2834412141,SUMMER ST,ANSON ST,ORANGE,Western
VEH ,1022,23-Jul-76,149.715574402,-34.7579789324,AUBURN ST,CLINTON ST,GOULBURN,Southern
VEH ,1023,13-May-75,150.894617558,-33.7576326755,RICHMOND RD,LYTON ST,BLACKTOWN,Sydney
VEH ,1024,06-May-75,151.093237591,-33.8990420164,GEORGES RIVER RD,LEES AV,CROYDON PARK,Sydney
VEH ,1026,06-Jun-77,151.01365492,-33.795683354,PENNANT HILLS RD,JAMES RUSE DR,NORTH PARRAMATTA,Sydney
VEH ,1027,28-Jun-90,150.753400447,-33.6018732139,LENNOX ST,PAGET ST,RICHMOND,Sydney
VEH ,1028,10-Jul-87,150.806783573,-34.071122932,CAMDEN RD,HURLEY ST,CAMPBELLTOWN,Sydney
VEH ,1029,16-Nov-87,151.226872901,-33.9441778009,BUNNERONG RD,WESTFIELD DR,PAGEWOOD,Sydney
VEH ,1030,16-Nov-87,151.221608415,-33.9454340397,WENTWORTH AV,BANKS AV,PAGEWOOD,Sydney
VEH ,1031,21-Feb-77,150.890678174,-34.4058431228,PRINCES HWY,LYSAGHT ST,FAIRY MEADOW,Southern
VEH ,1033,23-Mar-71,150.89230844,-34.3975633839,PRINCES HWY,CABBAGE TREE LA,FAIRY MEADOW,Southern
VEH ,1034,16-Nov-92,151.070977042,-33.8565362841,HOMEBUSH BAY DR,M4 E/B OFF RAMP,HOMEBUSH WEST,Sydney
VEH ,1035,14-Mar-77,150.892902742,-34.394005577,PRINCES HWY,ELLIOTTS RD,FAIRY MEADOW,Southern
VEH ,1036,17-Mar-77,150.893223558,-34.3922387003,PRINCES HWY,DAISY ST,FAIRY MEADOW,Southern
VEH ,1037,06-Apr-71,150.893701336,-34.389867782,PRINCES HWY,BALGOWNIE RD,FAIRY MEADOW,Southern
VEH ,1038,28-Apr-89,151.252025759,-33.8915396089,OXFORD ST,ADELAIDE ST,BONDI JUNCTION,Sydney
VEH ,1039,01-Jun-90,151.15537604,-33.9360857395,FLORA ST,MARSH ST,ARNCLIFFE,Sydney
VEH ,1040,22-Jul-75,151.117504391,-33.8885155744,HUME HWY,MILTON ST,ASHFIELD,Sydney
VEH ,1041,16-May-75,151.244823157,-33.9028350174,DARLEY RD,YORK RD,RANDWICK,Sydney
VEH ,1042,16-May-75,151.089612493,-33.8997015346,PUNCHBOWL RD,GEORGES RIVER RD,BELFIELD,Sydney
VEH ,1043,29-Apr-75,151.095500539,-33.8859383217,HUME HWY,WENTWORTH RD,ENFIELD,Sydney
VEH ,1044,05-Jun-75,151.193804239,-33.8027600339,MOWBRAY RD,SYDNEY ST,WILLOUGHBY,Sydney
VEH ,1045,17-Aug-01,151.229674389,-33.8268266312,GERARD  ST,BENELONG RD,CREMORNE,Sydney
VEH ,1046,20-May-75,151.142797264,-33.7200431757,BOBBIN HEAD RD,BURNS RD,TURRAMURRA,Sydney
VEH ,1047,19-Jun-75,151.190063352,-33.8150700275,HERBERT ST,CLEG ST,ARTARMON,Sydney
VEH ,1048,18-Jun-75,151.17102421,-33.7584738929,BIRDWOOD AV,KOOLA AV,KILLARA,Sydney
VEH ,1049,11-Oct-76,151.303986918,-33.6777548669,PITTWATER RD,BARRENJOEY RD,MONA VALE,Sydney
VEH ,1050,16-Dec-76,151.306003689,-33.6771022256,BARRENJOEY RD,PARK ST,MONA VALE,Sydney
VEH ,1051,31-Jul-75,151.18600571,-33.7971101003,ARCHER ST,ALBERT AV,CHATSWOOD,Sydney
VEH ,1052,28-May-75,150.951162568,-33.8636468019,SACKVILLE ST,POLDING ST,FAIRFIELD,Sydney
VEH ,1053,28-Mar-77,151.265695275,-33.7902119904,CONDAMINE ST,BALGOWLAH RD,BALGOWLAH,Sydney
VEH ,1054,20-Apr-78,151.277253988,-33.7959846861,SYDNEY RD,THORNTON ST,FAIRLIGHT,Sydney
VEH ,1055,18-May-76,151.008198321,-33.8090083932,VICTORIA RD,WILDE AV,PARRAMATTA,Sydney
VEH ,1056,01-Nov-90,150.93610615,-33.8569072932,CUMBERLAND HWY,BRENAN ST,SMITHFIELD,Sydney
VEH ,1058,05-Mar-80,151.752234099,-32.9224164685,GORDON AV,PARRY ST,HAMILTON,Hunter
VEH ,1059,28-Jun-91,151.155004696,-33.7334349707,MONA VALE RD,PENTECOST AV,ST IVES,Sydney
VEH ,1061,31-Jul-78,151.152357908,-33.7386526426,MONA VALE RD,TELEGRAPH RD,PYMBLE,Sydney
VEH ,1062,16-Dec-89,151.316518379,-33.4294963462,BRISBANE WATER DR,KULARA AV,WEST GOSFORD,Hunter
VEH ,1063,07-Jun-77,151.069155378,-33.9581604227,FOREST RD,STONEY CREEK RD,PEAKHURST,Sydney
VEH ,1064,11-Dec-90,150.983014284,-33.9417451728,HENRY LAWSON DR,POZIERES AV,MILPERRA,Sydney
VEH ,1065,03-Jul-75,150.999848516,-33.8143923263,MACQUARIE ST,O'CONNELL ST,PARRAMATTA,Sydney
VEH ,1066,20-Aug-75,151.051949269,-33.863926055,BACHELL AV,CHURCH ST,LIDCOMBE,Sydney
VEH ,1067,17-Jun-87,151.073662672,-33.781823876,MIDSON RD,EASTWOOD AV,EPPING,Sydney
VEH ,1068,21-Jul-75,151.070973331,-33.7731426452,CARLINGFORD RD,MIDSON RD,EPPING,Sydney
VEH ,1069,27-Jul-88,151.001104241,-33.771945355,WINDSOR RD,VENTURA RD,NORTHMEAD,Sydney
VEH ,1070,12-Mar-76,151.086557052,-33.8751245245,HOMEBUSH RD,REDMYRE RD,STRATHFIELD,Sydney
VEH ,1072,21-Jul-75,151.112530504,-33.745248167,THE COMENARRA PKY,KISSING POINT RD,TURRAMURRA,Sydney
VEH ,1073,21-Aug-75,150.695457143,-33.7518497555,HENRY ST,STATION ST,PENRITH,Sydney
VEH ,1074,19-Aug-75,150.955518749,-33.8685274172,NELSON ST,SMART ST,FAIRFIELD,Sydney
VEH ,1075,07-Aug-75,150.91978156,-33.776062671,BLACKTOWN RD,WALL PARK AV,BLACKTOWN,Sydney
VEH ,1076,04-Dec-75,151.070788266,-34.0357545844,PRESIDENT AV,OAK RD,KIRRAWEE,Sydney
VEH ,1077,08-Sep-75,151.732024371,-32.8870999129,INDUSTRIAL DR,TOURLE ST,MAYFIELD,Hunter
VEH ,1078,26-Aug-75,151.686657256,-32.9566721141,CHARLESTOWN RD,HILLSBOROUGH RD,CHARLESTOWN,Hunter
VEH ,1079,04-Dec-75,151.243980834,-33.9092880408,FRENCHMANS RD,AVOCA ST,RANDWICK,Sydney
VEH ,1080,18-Mar-76,151.211188179,-33.923562094,GARDENERS RD,RACECOURSE PL,EASTLAKES,Sydney
VEH ,1081,11-Feb-77,151.155152008,-33.8734644357,LILYFIELD RD,MARY ST,LILYFIELD,Sydney
VEH ,1082,15-Jun-88,151.244103258,-33.8290747325,MILITARY RD,BELMONT RD (EAST),MOSMAN,Sydney
VEH ,1083,09-Apr-76,151.106813575,-33.6891955172,PACIFIC HWY,JERSEY ST NORTH,ASQUITH,Sydney
VEH ,1084,12-Mar-76,150.958663015,-33.8576239475,FAIRFIELD RD,DURSLEY RD,FAIRFIELD,Sydney
VEH ,1085,14-Jul-76,151.002179702,-33.7972855394,CHURCH ST,BARNEY ST,NORTH PARRAMATTA,Sydney
VEH ,1086,03-Aug-77,150.995436933,-33.7864100134,WINDSOR RD,MOXHAM RD,NORTHMEAD,Sydney
VEH ,1087,20-Aug-76,151.163481896,-33.9022772458,ILLAWARRA RD,ADDISON RD,MARRICKVILLE,Sydney
VEH ,1088,22-Dec-75,151.073645937,-33.8874374833,HUME HWY,COSGROVE RD,ENFIELD,Sydney
VEH ,1089,11-Jun-87,150.908267799,-33.7718139276,FLUSHCOMBE RD,ALPHA ST,BLACKTOWN,Sydney
VEH ,1090,29-Apr-77,150.859963297,-34.5524205264,SHELLHARBOUR RD,LAKE ENTRANCE RD,WARILLA,Southern
VEH ,1091,17-Feb-89,151.258958994,-33.8870320173,VICTORIA RD,BELLEVUE RD,BELLEVUE HILL,Sydney
VEH ,1092,05-Sep-79,151.002676162,-33.8119383034,MARSDEN ST,PHILLIP ST,PARRAMATTA,Sydney
VEH ,1093,10-Mar-76,151.002232571,-33.813279134,MARSDEN ST,GEORGE ST,PARRAMATTA,Sydney
VEH ,1094,02-Nov-84,151.000353453,-33.8128330508,O'CONNELL ST,GEORGE ST,PARRAMATTA,Sydney
VEH ,1095,10-Mar-76,151.001717045,-33.8147805624,MARSDEN ST,MACQUARIE ST,PARRAMATTA,Sydney
VEH ,1096,18-May-90,150.375641736,-33.7105652076,GREAT WESTERN HWY,STATION ST,WENTWORTH FALLS,Sydney
VEH ,1097,06-Sep-00,151.224828902,-33.8847762362,OXFORD ST,YOUNG ST,PADDINGTON,Sydney
VEH ,1098,09-Dec-76,151.000544609,-33.8183709644,MARSDEN ST,CAMPBELL ST,PARRAMATTA,Sydney
VEH ,1099,05-Jul-05,151.003868179,-33.8191538777,CHURCH ST,CAMPBELL ST,PARRAMATTA,Sydney
VEH ,1100,25-Jan-84,151.006776937,-33.8129979723,SMITH ST,PHILLIP ST,PARRAMATTA,Sydney
VEH ,1101,23-Nov-76,151.00633586,-33.8142457663,SMITH ST,GEORGE ST,PARRAMATTA,Sydney
VEH ,1102,07-Sep-77,151.005881989,-33.8157266055,SMITH ST,MACQUARIE ST,PARRAMATTA,Sydney
VEH ,1103,26-Aug-98,151.009288313,-33.8149415878,CHARLES ST,GEORGE ST,PARRAMATTA,Sydney
VEH ,1104,24-Nov-97,151.008804442,-33.8163760216,CHARLES ST,MACQUARIE ST,PARRAMATTA,Sydney
VEH ,1105,23-Nov-76,151.001692573,-33.8082029351,O'CONNELL ST,VICTORIA RD,PARRAMATTA,Sydney
VEH ,1106,11-Aug-75,151.151547845,-33.6238924981,PACIFIC HWY,BEROWRA WATERS RD,BEROWRA,Sydney
VEH ,1107,11-Aug-75,151.115270046,-33.6707702715,PACIFIC HWY,PARKLANDS RD,MT COLAH,Sydney
VEH ,1108,02-Dec-76,151.157900427,-33.767675715,PACIFIC HWY,MARIAN ST,KILLARA,Sydney
VEH ,1109,26-Jun-78,151.143219669,-33.7456514893,PACIFIC HWY,LIVINGSTONE AV,PYMBLE,Sydney
VEH ,1110,18-Feb-76,151.115877223,-33.7196237954,PACIFIC HWY,ADA AV,WAHROONGA,Sydney
VEH ,1111,23-Oct-75,151.186735797,-33.8224856772,PACIFIC HWY,WESTBOURNE ST,ARTARMON,Sydney
VEH ,1112,12-Jul-78,151.178247587,-33.7859342503,PACIFIC HWY,MACLAURIN PDE,ROSEVILLE,Sydney
VEH ,1113,23-Jun-76,151.154881936,-33.7606654549,PACIFIC HWY,CECIL ST,GORDON,Sydney
VEH ,1114,11-Jul-75,151.2201873,-33.7388043295,FOREST WAY,GLEN ST,BELROSE,Sydney
VEH ,1115,22-Aug-75,151.134295688,-33.6565292139,PACIFIC HWY,NYARA RD,MT KURING-GAI,Sydney
VEH ,1116,24-Feb-76,151.593148804,-33.013275881,THE BOULEVARDE,CARY ST,TORONTO,Hunter
VEH ,1117,19-Sep-75,150.702914446,-33.75348296,HENRY ST,EVAN ST,PENRITH,Sydney
VEH ,1118,02-Sep-94,150.670912981,-33.772594458,MULGOA RD,M4 E/B ON/OFF RAMPS,JAMISONTOWN,Sydney
VEH ,1119,28-Apr-88,150.669888951,-33.7731711536,MULGOA RD,M4 W/B ON/OFF RAMPS,REGENTVILLE,Sydney
VEH ,1120,01-Nov-79,150.871471382,-33.7922579704,GREAT WESTERN HWY,DOONSIDE RD,DOONSIDE,Sydney
VEH ,1121,15-Apr-76,151.7480905,-32.9073022748,MAITLAND RD,ELIZABETH ST,TIGHES HILL,Hunter
VEH ,1122,21-Jul-76,151.732187219,-32.9166486231,BROADMEADOW RD,GRIFFITHS RD,BROADMEADOW,Hunter
VEH ,1123,30-Oct-75,150.902829853,-33.7729098071,NEWTON RD,BALMORAL ST,BLACKTOWN,Sydney
VEH ,1124,13-Sep-76,151.038886896,-33.9060628807,HUME HWY,BERESFORD AV,BANKSTOWN,Sydney
VEH ,1125,28-Oct-75,151.108089507,-33.8626069776,BURWOOD RD,CRANE ST,CONCORD,Sydney
VEH ,1126,25-May-76,150.786611995,-33.7731883606,GREAT WESTERN HWY,SYDNEY ST,ST MARYS,Sydney
VEH ,1127,23-Feb-77,151.085549066,-34.0325765935,THE KINGSWAY,MILBURN AV,GYMEA,Sydney
VEH ,1128,07-Apr-76,151.219250815,-33.874790264,WILLIAM ST,FORBES ST,KINGS CROSS,Sydney
VEH ,1129,31-Dec-75,151.081249081,-33.7308233645,PENNANT HILLS RD,THE COMENARRA PARKWAY,THORNLEIGH,Sydney
VEH ,1130,31-May-76,151.179092473,-33.7710738196,ARCHBOLD RD,EASTERN ARTERIAL RD,EAST LINDFIELD,Sydney
VEH ,1131,20-May-76,151.213943769,-33.842653943,CLARK RD,HIGH ST,NORTH SYDNEY,Sydney
VEH ,1132,18-May-76,151.064532673,-33.7494954124,BEECROFT RD,HANNAH ST,BEECROFT,Sydney
VEH ,1133,09-Feb-76,151.100357252,-33.6975177755,GEORGE ST,BRIDGE RD,HORNSBY,Sydney
VEH ,1134,07-Jun-76,151.017220943,-33.9519588534,THE RIVER RD,MARCO AV,REVESBY,Sydney
VEH ,1135,10-Aug-76,151.033325148,-33.9072620429,HUME HWY,MEREDITH ST,BANKSTOWN,Sydney
VEH ,1136,30-Dec-75,151.226788654,-33.92132824,ANZAC PDE,MIDDLE ST,KINGSFORD,Sydney
VEH ,1138,05-Apr-76,151.764027201,-32.9267631468,HUNTER ST,STEEL ST,NEWCASTLE WEST,Hunter
VEH ,1139,12-Jan-76,151.075564917,-33.7884957648,TERRY RD,MIDSON RD,EASTWOOD,Sydney
VEH ,1140,21-May-76,151.227047609,-33.9458150573,BUNNERONG RD,WENTWORTH AV,PAGEWOOD,Sydney
VEH ,1141,22-Sep-76,151.195973939,-33.8911661354,ABERCROMBIE ST,IVY ST,CHIPPENDALE,Sydney
VEH ,1142,06-Jul-76,151.727541463,-32.9068719722,TURTON RD,GEORGETOWN RD,WARATAH,Hunter
VEH ,1143,01-Apr-76,151.178580916,-33.8843921816,PYRMONT BRIDGE RD,LYONS RD,CAMPERDOWN,Sydney
VEH ,1145,26-Mar-76,150.963748102,-33.840841981,FFAIRFIELD RD,WOODPARK RD,GUILDFORD,Sydney
VEH ,1146,23-Dec-75,150.949253198,-33.8985905756,HUME HWY,CABRAMATTA RD EAST,CABRAMATTA,Sydney
VEH ,1147,01-Jun-76,151.257391437,-33.8889643046,OLD SOUTH HEAD RD,VICTORIA RD,BONDI JUNCTION,Sydney
VEH ,1148,29-Jun-79,151.101828014,-33.9686955256,WONIORA RD,HILLCREST AV,HURSTVILLE,Sydney
VEH ,1149,31-Aug-76,150.988093575,-33.8670740773,WOODVILLE RD,ORCHARDLEIGH ST,GUILDFORD,Sydney
VEH ,1150,08-Mar-77,151.049907449,-33.7480913145,PENNANT HILLS RD,CASTLE HILL RD,WEST PENNANT HILLS,Sydney
VEH ,1151,15-Sep-76,151.205578191,-33.8043832789,MOWBRAY RD,ALPHA RD,WILLOUGHBY,Sydney
VEH ,1152,05-Apr-77,151.16612094,-33.9152134289,GLEESON AV,BURROWS AV,SYDENHAM,Sydney
VEH ,1153,04-Jan-78,151.154377747,-33.9095962959,MARRICKVILLE RD,PETERSHAM RD,MARRICKVILLE,Sydney
VEH ,1154,03-Jun-76,151.133086439,-33.9905951228,ROCKY POINT RD,SANDRINGHAM ST,SANS SOUCI,Sydney
VEH ,1155,20-May-76,151.091809129,-33.9512108013,STONEY CREEK RD,PATRICK ST,HURSTVILLE,Sydney
VEH ,1156,18-Aug-76,151.207671306,-33.8348431732,MILLER ST,MCLAREN ST,NORTH SYDNEY,Sydney
VEH ,1157,06-Aug-76,151.10746357,-33.8753826667,VICTORIA ST,SHAFTESBURY RD,BURWOOD,Sydney
VEH ,1158,28-Feb-78,151.249332989,-33.914521596,ALISON RD,CARRINGTON RD,RANDWICK,Sydney
VEH ,1159,16-Nov-87,151.038721808,-33.8917861712,ROOKWOOD RD,MUIR RD,CHULLORA,Sydney
VEH ,1161,06-Aug-76,151.105606746,-33.8871423388,HUME HWY,WELDON ST,BURWOOD,Sydney
VEH ,1162,26-Aug-76,151.217438311,-33.8403695631,BEN BOYD RD,KURRABA RD,NEUTRAL BAY,Sydney
VEH ,1164,20-Dec-76,151.071918394,-33.9478964632,BROADARROW RD,HANNANS RD,NARWEE,Sydney
VEH ,1165,19-Feb-76,151.204882563,-33.8192810377,BROOK ST,MERRENBURN AV,NAREMBURN,Sydney
VEH ,1166,25-Aug-76,151.142420357,-33.8594781545,LYONS RD,BRENT ST,RUSSELL LEA,Sydney
VEH ,1167,20-Sep-76,151.113635996,-33.9144469242,CANTERBURY RD,WONGA ST,CANTERBURY,Sydney
VEH ,1168,29-Mar-78,151.720748153,-32.9118775228,ORLANDO RD,GRIFFITHS RD,LAMBTON,Hunter
VEH ,1169,05-Aug-76,151.225473128,-33.9148546485,ANZAC PDE,HIGH ST,KENSINGTON,Sydney
VEH ,1170,17-Nov-76,151.066408978,-33.7395760707,PENNANT HILLS RD,BOUNDARY RD,PENNANT HILLS,Sydney
VEH ,1171,07-Mar-80,151.745894504,-32.9046723493,MAITLAND RD,INGALL ST,MAYFIELD,Hunter
VEH ,1172,09-Mar-79,150.899561119,-34.4269616636,CORRIMAL ST,BURELLI ST,WOLLONGONG,Southern
VEH ,1173,26-Oct-76,151.342253013,-33.4249765055,MANN ST,ERINA ST EAST,GOSFORD,Hunter
VEH ,1174,20-Sep-76,151.005902775,-33.7322045417,OLD NORTHERN RD,CASTLE ST,CASTLE HILL,Sydney
VEH ,1175,10-Mar-89,150.770380115,-33.7882759377,MAMRE RD,BANKS DR,ST CLAIR,Sydney
VEH ,1176,06-Aug-80,151.016827862,-33.7306780714,OLD NORTHERN RD,CASTLE HILL RD,CASTLE HILL,Sydney
VEH ,1177,04-Oct-78,151.116033621,-33.9408658492,BEXLEY RD,BARNSBURY GR,BEXLEY NORTH,Sydney
VEH ,1178,11-Oct-76,151.297354722,-33.7050621768,PITTWATER RD,GARDEN ST,NORTH NARRABEEN,Sydney
VEH ,1179,14-Jul-78,151.001244305,-33.9035507432,HUME HWY,JOHNSTON RD,BASS HILL,Sydney
VEH ,1181,30-Dec-75,151.086368371,-33.8578116205,POMEROY ST,GEORGE ST,NORTH STRATHFIELD,Sydney
VEH ,1183,05-Aug-77,151.097690773,-33.8752263994,MORWICK ST,RAILWAY PDE,BURWOOD,Sydney
VEH ,1184,16-Sep-76,151.170162591,-33.7811407988,PACIFIC HWY,GROSVENOR RD,LINDFIELD,Sydney
VEH ,1185,16-Feb-76,151.063621655,-33.8675969662,ARTHUR ST,RICHMOND RD,HOMEBUSH WEST,Sydney
