name,lat,lon,capacity,free,near_station,notes
Elgin St Free Parking,-37.7986,144.9725,40,yes,Melbourne Central,2P free weekday
Birrarung Marr Upper,-37.8173,144.9738,120,no,Flinders Street,paid council parking
Richmond P&R East,-37.8258,144.9992,80,yes,Richmond,street parking mix
Flagstaff P&R North,-37.8090,144.9559,60,no,Flagstaff,after 6pm free
South Yarra Church St,-37.8385,144.9935,50,yes,South Yarra,short walk to station
