stop_id,stop_name,stop_lat,stop_lon
"10311","45-Glenferrie Rd/Wattletree Rd (Malvern)","-37.86245520","145.02850849"
"10371","44-Duncraig Ave/Wattletree Rd (Armadale)","-37.86206934","145.02538150"
"1083","42-Clyde St/Raleigh Rd (Maribyrnong)","-37.76969864","144.89884126"
"11285","43-Egerton Rd/Wattletree Rd (Armadale)","-37.86170982","145.02275399"
"1185","50-Vincent St/Wattletree Rd (Malvern East)","-37.86422627","145.04337516"
"12599","42-Kooyong Rd/Wattletree Rd (Armadale)","-37.86134642","145.01989926"
"1291","51-Erica Ave/Wattletree Rd (Malvern East)","-37.86461278","145.04657053"
"1292","38-Renown St/Sydney Rd (Coburg)","-37.73161894","144.96426570"
"13401","28-Punt Rd/High St (Prahran)","-37.85056356","144.98404671"
"13995","44-Barb St/Raleigh Rd (Maribyrnong)","-37.76889124","144.89198456"
"14033","29-Perth St/High St (Prahran)","-37.85105009","144.98772713"
"14614","30-Prahran Station/High St (Prahran)","-37.85131864","144.98973147"
"14728","31-Chapel St/High St (Prahran)","-37.85175647","144.99320872"
"15559","45-Randall St/Raleigh Rd (Maribyrnong)","-37.76862941","144.88893821"
"15699","32-Hornby St/High St (Prahran)","-37.85219895","144.99643585"
"1575","52-Burke Rd/Wattletree Rd (Malvern East)","-37.86507635","145.05007082"
"16610","33-Prahran RSL/High St (Prahran)","-37.85243434","144.99808883"
"16713","34-Bell St/Sydney Rd (Coburg)","-37.74147092","144.96646974"
"16714","33-Coburg Market/Sydney Rd (Coburg)","-37.74325874","144.96614844"
"16715","32-Munro St/Sydney Rd (Coburg)","-37.74506476","144.96583797"
"16716","31-Reynard St/Sydney Rd (Coburg)","-37.74873966","144.96520392"
"16717","30-The Avenue/Sydney Rd (Coburg)","-37.75207324","144.96463590"
"16718","34-Lewisham Rd/High St (Prahran)","-37.85265073","144.99968550"
"16719","28-Moreland Rd/Sydney Rd (Brunswick)","-37.75564023","144.96401602"
"16720","27-Brunswick Tram Depot/Sydney Rd (Brunswick)","-37.75781457","144.96363858"
"16721","26-Albion St/Sydney Rd (Brunswick)","-37.76095918","144.96308694"
"16722","25-Stewart St/Sydney Rd (Brunswick)","-37.76323240","144.96269537"
"16723","24-Brunswick Baptist Church/Sydney Rd (Brunswick)","-37.76557768","144.96230180"
"16724","23-Victoria St/Sydney Rd (Brunswick)","-37.76714106","144.96203185"
"16725","22-Albert St/Sydney Rd (Brunswick)","-37.76894706","144.96172115"
"16726","21-Brunswick Town Hall/Sydney Rd (Brunswick)","-37.77164265","144.96126113"
"16727","20-Barkly Square/115 Sydney Rd (Brunswick)","-37.77484186","144.96074181"
"16728","19-Brunswick Rd/Sydney Rd (Brunswick)","-37.77759128","144.96026887"
"16730","17-Ievers St/Royal Pde (Parkville)","-37.78188803","144.95963980"
"16731","16-Visy Park/Royal Pde (Parkville)","-37.78485559","144.95927431"
"16732","15-Leonard St/Royal Pde (Parkville)","-37.78793104","144.95889446"
"16733","14-Macarthur Rd/Royal Pde (Parkville)","-37.79001743","144.95864400"
"16734","13-Gatehouse St/Royal Pde (Parkville)","-37.79267912","144.95830955"
"16735","12-Morrah St/Royal Pde (Parkville)","-37.79565568","144.95794368"
"16738","35-Williams Rd/High St (Prahran)","-37.85301095","145.00232392"
"16739","36-Chatsworth Rd/High St (Prahran)","-37.85355558","145.00627581"
"16740","37-Airlie Ave/High St (Prahran)","-37.85386619","145.00865422"
"16741","38-Orrong Rd/High St (Prahran)","-37.85421989","145.01145203"
"16742","39-Auburn Gr/High St (Armadale)","-37.85468487","145.01497429"
"16743","40-Armadale Station/High St (Armadale)","-37.85511852","145.01824739"
"16744","41-Kooyong Rd/High St (Armadale)","-37.85541912","145.02058071"
"16745","42-Huntingtower Rd/High St (Armadale)","-37.85583154","145.02367259"
"16746","43-Mercer Rd/High St (Armadale)","-37.85612189","145.02593803"
"16747","44-Glenferrie Rd/High St (Malvern)","-37.85653646","145.02916631"
"16748","45-De La Salle College/High St (Malvern)","-37.85694174","145.03238350"
"16749","46-Fraser St/High St (Malvern)","-37.85738316","145.03561113"
"16750","47-Dixon St/High St (Malvern)","-37.85769356","145.03801254"
"16751","48-Tooronga Rd/High St (Glen Iris)","-37.85807757","145.04104854"
"16752","49-Harold Holt Swim Centre/High St (Glen Iris)","-37.85845437","145.04419842"
"16753","50-Belmont Ave/High St (Glen Iris)","-37.85894526","145.04825465"
"16754","51-Burke Rd/High St (Glen Iris)","-37.85930967","145.05121170"
"16755","52-Boyanda Rd/High St (Glen Iris)","-37.85961375","145.05379528"
"16757","53-Malvern Rd/High St (Glen Iris)","-37.85999811","145.05633130"
"16758","52-Boyanda Rd/High St (Glen Iris)","-37.85978247","145.05418867"
"16759","51-Burke Rd/High St (Glen Iris)","-37.85948571","145.05150260"
"16760","50-Belmont Ave/High St (Glen Iris)","-37.85911004","145.04840943"
"16761","49-Harold Holt Swim Centre/High St (Glen Iris)","-37.85867005","145.04470421"
"16762","48-Tooronga Rd/High St (Glen Iris)","-37.85827203","145.04136165"
"16764","47-Dixon St/High St (Malvern)","-37.85781967","145.03800920"
"16765","46-Fraser St/High St (Malvern)","-37.85755753","145.03579973"
"16766","45-De La Salle College/High St (Malvern)","-37.85715747","145.03288924"
"16767","44-Glenferrie Rd/High St (Malvern)","-37.85671426","145.02955939"
"16768","43-Mercer Rd/High St (Armadale)","-37.85628898","145.02622909"
"16769","42-Huntingtower Rd/High St (Armadale)","-37.85599635","145.02382731"
"16770","41-Kooyong Rd/High St (Armadale)","-37.85558508","145.02080359"
"16771","40-Armadale Station/High St (Armadale)","-37.85527432","145.01840234"
"16772","39-Auburn Gr/High St (Armadale)","-37.85487154","145.01535572"
"16773","38-Orrong Rd/High St (Armadale)","-37.85438644","145.01170897"
"16774","37-Airlie Ave/High St (Prahran)","-37.85399287","145.00868491"
"16775","36-Chatsworth Rd/High St (Prahran)","-37.85376394","145.00687257"
"16776","35-Williams Rd/High St (Prahran)","-37.85316909","145.00261516"
"16777","34-Lewisham Rd/High St (Prahran)","-37.85282921","145.00011256"
"16778","33-Prahran RSL/High St (Prahran)","-37.85262338","144.99860652"
"1696","51-Nott St/Wattletree Rd (Malvern East)","-37.86478209","145.04699802"
"17306","40-North Coburg Terminus/Sydney Rd (Coburg North)","-37.72758000","144.96365015"
"17307","39-Mercy College/Sydney Rd (Coburg North)","-37.72989065","144.96385917"
"17308","38-Carr St/Sydney Rd (Coburg North)","-37.73211182","144.96462665"
"17309","37-Gaffney St/Sydney Rd (Coburg North)","-37.73385558","144.96540724"
"17310","36-Rogers St/Sydney Rd (Coburg)","-37.73553432","144.96607617"
"17311","35-St Pauls Catholic Church/Sydney Rd (Coburg)","-37.73750463","144.96693006"
"17312","34-Bell St/Sydney Rd (Coburg)","-37.74115879","144.96665985"
"17313","33-Coburg Market/Sydney Rd (Coburg)","-37.74313615","144.96635607"
"17314","32-Harding St/Sydney Rd (Coburg)","-37.74488833","144.96605843"
"17315","31-Edward St/Sydney Rd (Coburg)","-37.74847354","144.96544955"
"17316","30-The Avenue/Sydney Rd (Coburg)","-37.75186059","144.96484602"
"17317","29-Moore St/Sydney Rd (Coburg)","-37.75350466","144.96455127"
"17318","28-Moreland Rd/Sydney Rd (Coburg)","-37.75528248","144.96417338"
"17319","27-Brunswick Tram Depot/Sydney Rd (Brunswick)","-37.75742216","144.96387636"
"17320","26-Albion St/Sydney Rd (Brunswick)","-37.76073771","144.96330869"
"17321","25-Stewart St/Sydney Rd (Brunswick)","-37.76308280","144.96290381"
"17322","24-Blyth St/Sydney Rd (Brunswick)","-37.76535602","144.96251222"
"17323","23-Victoria St/Sydney Rd (Brunswick)","-37.76698226","144.96222919"
"17324","22-Albert St/Sydney Rd (Brunswick)","-37.76876124","144.96191925"
"17325","21-Glenlyon Rd/Sydney Rd (Brunswick)","-37.77136695","144.96147305"
"17327","19-Brunswick Rd/Sydney Rd (Brunswick)","-37.77764749","144.96039222"
"17329","17-Ievers St/Royal Pde (Parkville)","-37.78168420","144.95983843"
"17330","16-Walker St/Royal Pde (Parkville)","-37.78458930","144.95950873"
"17331","15-Leonard St/Royal Pde (Parkville)","-37.78767376","144.95912865"
"17332","14-Cemetery Road West/Royal Pde (Parkville)","-37.78971511","144.95887943"
"17333","13-Gatehouse St/Royal Pde (Parkville)","-37.79242184","144.95854375"
"17334","12-Morrah St/Royal Pde (Parkville)","-37.79556053","144.95817343"
"17591","7-Russell St/Bourke St (Melbourne City)","-37.81276887","144.96835439"
"17593","6-Swanston St/Bourke St (Melbourne City)","-37.81348355","144.96590389"
"17594","5-Elizabeth St/Bourke St (Melbourne City)","-37.81421718","144.96350963"
"17596","4-Queen St/Bourke St (Melbourne City)","-37.81525299","144.95983472"
"17597","3-William St/Bourke St (Melbourne City)","-37.81588156","144.95762499"
"17602","32-Hornby St/High St (Prahran)","-37.85235382","144.99653395"
"17603","31-Chapel St/High St (Prahran)","-37.85195124","144.99353304"
"17604","30-Prahran Station/High St (Windsor)","-37.85139234","144.98929759"
"17605","29-Perth St/High St (Windsor)","-37.85120671","144.98792745"
"17606","28-Punt Rd/High St (Windsor)","-37.85075836","144.98437099"
"1784","37-Gaffney St/Sydney Rd (Coburg)","-37.73409741","144.96532119"
"17848","1-Spencer St/Bourke St (Melbourne City)","-37.81706281","144.95351423"
"17849","1-Spencer St/Bourke St (Melbourne City)","-37.81684591","144.95399734"
"17850","1-Flinders Street Railway Station/Elizabeth St (Melbourne City)","-37.81771743","144.96476527"
"17851","2-Collins St/Elizabeth St (Melbourne City)","-37.81542752","144.96366948"
"17852","3-Bourke Street Mall/Elizabeth St (Melbourne City)","-37.81344719","144.96275835"
"17854","5-Melbourne Central Station/Elizabeth St (Melbourne City)","-37.81055845","144.96142925"
"17856","7-Queen Victoria Market/Elizabeth St (Melbourne City)","-37.80656115","144.95957420"
"17857","8-Peel St/Victoria St (Melbourne City)","-37.80593520","144.95621805"
"17858","9-William St/Victoria St (Melbourne City)","-37.80568781","144.95390781"
"17859","10-Chetwynd St/Victoria St (Melbourne City)","-37.80551725","144.95239053"
"17860","11-Errol St/Victoria St (Melbourne City)","-37.80519567","144.94944632"
"17861","11-Victoria St/Errol St (North Melbourne)","-37.80495950","144.94933927"
"17862","10-Chetwynd St/Victoria St (Melbourne City)","-37.80540285","144.95203023"
"17863","9-Howard St/Victoria St (Melbourne City)","-37.80556361","144.95350235"
"17864","8-Peel St/Victoria St (Melbourne City)","-37.80580983","144.95574446"
"17866","9-Pelham St/Elizabeth St (Melbourne City)","-37.80194658","144.95746377"
"17867","10-Royal Melbourne Hospital-Parkville Station/Royal Pde (Melbourne City)","-37.79992871","144.95750800"
"17868","10-Royal Melbourne Hospital-Parkville Station/Royal Pde (Parkville)","-37.79954277","144.95759813"
"17869","9-Pelham St/Elizabeth St (Melbourne City)","-37.80214829","144.95766265"
"17871","7-Queen Victoria Market/Elizabeth St (Melbourne City)","-37.80689033","144.95984910"
"17873","5-Melbourne Central Station/Elizabeth St (Melbourne City)","-37.81110519","144.96177770"
"17875","3-Bourke Street Mall/Elizabeth St (Melbourne City)","-37.81403936","144.96312829"
"17876","2-Collins St/Elizabeth St (Melbourne City)","-37.81592882","144.96399649"
"17877","1-Flinders Street Railway Station/Elizabeth St (Melbourne City)","-37.81789895","144.96483980"
"17878","11-Melbourne Museum/Nicholson St (Fitzroy)","-37.80575799","144.97360094"
"17880","10-Albert St/Nicholson St (Fitzroy)","-37.80967590","144.97294861"
"17882","9-Spring St/Bourke St (Melbourne City)","-37.81154400","144.97257946"
"17885","3-William St/Bourke St (Melbourne City)","-37.81570633","144.95791381"
"17886","4-Queen St/Bourke St (Melbourne City)","-37.81507816","144.96014624"
"17887","5-Elizabeth St/Bourke St (Melbourne City)","-37.81403097","144.96368513"
"17888","6-Swanston St/Bourke St (Melbourne City)","-37.81326640","144.96637558"
"17889","7-Russell St/Bourke St (Melbourne City)","-37.81246751","144.96916915"
"1789","50-Anderson St/Wattletree Rd (Malvern East)","-37.86438507","145.04371198"
"17891","9-Spring St/Bourke St (Melbourne City)","-37.81152305","144.97240965"
"17892","10-Albert St/Nicholson St (East Melbourne)","-37.80942271","144.97289874"
"17894","11-Melbourne Museum/Nicholson St (Fitzroy)","-37.80567595","144.97354639"
"17895","12-St Vincents Plaza/Victoria Pde (East Melbourne)","-37.80828329","144.97633747"
"17896","11-Albert St/Gisborne St (East Melbourne)","-37.80939028","144.97572795"
"17897","10-Parliament Railway Station/Macarthur St (East Melbourne)","-37.81237888","144.97448769"
"17898","8-Spring St/Collins St (Melbourne City)","-37.81355676","144.97328548"
"17901","6-Melbourne Town Hall/Collins St (Melbourne City)","-37.81567433","144.96595735"
"17902","5-Elizabeth St/Collins St (Melbourne City)","-37.81642322","144.96340356"
"17903","3-William St/Collins St (Melbourne City)","-37.81760704","144.95942911"
"17905","1-Spencer St/Collins St (Melbourne City)","-37.81884688","144.95505538"
"17906","1-Spencer St/Collins St (Melbourne City)","-37.81874096","144.95518326"
"17908","3-William St/Collins St (Melbourne City)","-37.81737211","144.95991270"
"17910","5-Elizabeth St/Collins St (Melbourne City)","-37.81620589","144.96386392"
"17911","6-Melbourne Town Hall/Collins St (Melbourne City)","-37.81551769","144.96627972"
"17914","8-Spring St/Collins St (Melbourne City)","-37.81341597","144.97348244"
"17915","10-Parliament Railway Station/Macarthur St (East Melbourne)","-37.81216956","144.97436846"
"17917","46-Rosamond Rd/Raleigh Rd (Maribyrnong)","-37.76888717","144.88672852"
"17918","48-Raleigh Rd/Wests Rd (Maribyrnong)","-37.76963693","144.88281327"
"17919","49-Highpoint Shopping Centre/Wests Rd (Maribyrnong)","-37.77310408","144.88218077"
"17920","50-Wests Rd/Williamson Rd (Maribyrnong)","-37.77521214","144.88214332"
"17921","51-Williamson Rd/Rosamond Rd (Maidstone)","-37.77603972","144.88557115"
"17922","52-Rosamond Rd/River St (Maribyrnong)","-37.77933220","144.88574983"
"17923","53-Maribyrnong College/River St (Maribyrnong)","-37.77959402","144.88778609"
"17924","54-Gordon St/River St (Maribyrnong)","-37.78000184","144.89093092"
"17925","55-Lyric St/Gordon St (Maribyrnong)","-37.78224068","144.89115113"
"17926","56-Edgewater Square/Gordon St (Maribyrnong)","-37.78489825","144.89059868"
"17927","57-Titch St/Gordon St (Footscray)","-37.78864405","144.88992439"
"17928","58-Ballarat Rd/Gordon St (Footscray)","-37.79047580","144.88955432"
"17929","59-Droop St/Ballarat Rd (Footscray)","-37.79258435","144.89357113"
"17930","60-Tiernan St/Droop St (Footscray)","-37.79489006","144.89551571"
"17931","61-Geelong Rd/Droop St (Footscray)","-37.79679335","144.89713113"
"17932","62-Nicholson St/Hopkins St (Footscray)","-37.79984074","144.89973634"
"17933","63-Footscray Market/Leeds St (Footscray)","-37.80008059","144.90105834"
"17934","64-Footscray Station/Leeds St (Footscray)","-37.80136679","144.90091971"
"17935","40-Epsom Rd/Maribyrnong Rd (Moonee Ponds)","-37.77043230","144.90512121"
"17936","39-Bowen St/Maribyrnong Rd (Moonee Ponds)","-37.77086174","144.90900307"
"17937","38-Hotham St/Maribyrnong Rd (Moonee Ponds)","-37.77123617","144.91233024"
"17938","37-Union Rd/Maribyrnong Rd (Moonee Ponds)","-37.77170560","144.91593860"
"17940","35-Moore St/Maribyrnong Rd (Moonee Ponds)","-37.77221197","144.92113538"
"17941","34-Ascot Vale Rd/Maribyrnong Rd (Moonee Ponds)","-37.77247358","144.92370518"
"17942","33-Chaucer St/Ascot Vale Rd (Moonee Ponds)","-37.77005060","144.92428383"
"17944","49-Central Park Ave/Cordite Ave (Maribyrnong)","-37.76885600","144.87797673"
"17945","36-St Leonards Rd/Union Rd (Ascot Vale)","-37.77357111","144.91594298"
"17946","35-Bloomfield Rd/Union Rd (Ascot Vale)","-37.77588936","144.91555997"
"17948","33-Melbourne Showgrounds/Union Rd (Ascot Vale)","-37.78035452","144.91478735"
"17949","32-Sandown Rd/Epsom Rd (Ascot Vale)","-37.78258743","144.91671163"
"17950","31-Racing Victoria/161 Epsom Rd (Ascot Vale)","-37.78401825","144.91812486"
"17951","30-Flemington Racecourse/Epsom Rd (Ascot Vale)","-37.78604275","144.91998705"
"17952","29-Flemington Racecourse/Racecourse Rd (Flemington)","-37.78734904","144.92200573"
"17953","28-Smithfield Rd/Racecourse Rd (Flemington)","-37.78762625","144.92495035"
"17954","26-Newmarket Plaza/Racecourse Rd (Flemington)","-37.78797103","144.92815427"
"17955","25-Wellington St/Racecourse Rd (Flemington)","-37.78824148","144.93123539"
"17956","24-Victoria St/Racecourse Rd (Flemington)","-37.78844326","144.93348950"
"17957","23-Stubbs St/Racecourse Rd (Flemington)","-37.78876781","144.93658052"
"17958","22-Boundary Rd/Racecourse Rd (North Melbourne)","-37.78913148","144.93985216"
"17959","20-Melrose St/Flemington Rd (North Melbourne)","-37.79039354","144.94348502"
"17961","19-Abbotsford St Interchange/Abbotsford St (North Melbourne)","-37.79410630","144.94709559"
"18006","11-Albert St/Gisborne St (East Melbourne)","-37.80969458","144.97560605"
"18009","10-Nicholson St/Victoria Pde (East Melbourne)","-37.80801928","144.97356184"
"18010","9-La Trobe St/Victoria St (Melbourne City)","-37.80761421","144.97097182"
"18030","6-Melbourne Central & State Library stations/La Trobe St (Melbourne City)","-37.80954153","144.96411517"
"18033","3-Flagstaff Station/La Trobe St (Melbourne City)","-37.81168516","144.95676376"
"18037","D10-New Quay Prom/Docklands Dr (Docklands)","-37.81378105","144.94050751"
"18038","D11-Waterfront City/Docklands Dr (Docklands)","-37.81434514","144.93875383"
"18039","D10-NewQuay Prom/Docklands Dr (Docklands)","-37.81331193","144.94150880"
"18040","D1-Docklands Stadium/La Trobe St (Docklands)","-37.81460496","144.94640290"
"18045","5-Melbourne Central Station/La Trobe St (Melbourne City)","-37.81035321","144.96102598"
"18046","6-Melbourne Central & State Library stations/La Trobe St (Melbourne City)","-37.80928289","144.96479244"
"18049","9-Victoria St/La Trobe St (Melbourne City)","-37.80765612","144.97026645"
"18050","10-Nicholson St/Victoria Pde (Carlton)","-37.80786246","144.97282782"
"18051","12-St Vincents Plaza/Victoria Pde (Fitzroy)","-37.80823120","144.97645248"
"18052","D2-Central Pier/Harbour Esp (Docklands)","-37.81470491","144.94490068"
"18053","D3-Stadium Precinct - Bourke St/Harbour Esp (Docklands)","-37.81781940","144.94624566"
"18054","D4-Docklands Park/Harbour Esp (Docklands)","-37.82146591","144.94761009"
"18055","D5-South Wharf/Wurundjeri Way (Docklands)","-37.82183505","144.95121254"
"18056","D6-Flinders Street West/Flinders St (Docklands)","-37.82147119","144.95360832"
"18059","16-Haines St/Abbotsford St (North Melbourne)","-37.79828366","144.94634395"
"18060","15-Arden St/Abbotsford St (North Melbourne)","-37.80099657","144.94584858"
"18061","14-Queensberry St/Abbotsford St (North Melbourne)","-37.80238955","144.94562827"
"18064","24-Elliott Ave/Royal Park (Parkville)","-37.78801554","144.94975101"
"18065","25-State Netball Hockey Centre/Royal Park (Parkville)","-37.78453929","144.94884786"
"18066","26-Melbourne Zoo/Royal Park (Parkville)","-37.78261723","144.94921893"
"18067","27-Royal Park Station/Royal Park (Parkville)","-37.78075300","144.95135965"
"18068","28-Park St/Royal Park (Parkville)","-37.77706714","144.94980376"
"18069","29-Brunswick Rd/Grantham St (Brunswick West)","-37.77553769","144.94891503"
"18071","30-Union Square Shopping Centre/Grantham St (Brunswick West)","-37.77225925","144.94953923"
"18072","31-Grantham St/Dawson St (Brunswick West)","-37.77005124","144.94953211"
"18075","34-Smith St/Melville Rd (Brunswick)","-37.76731147","144.94331864"
"18076","35-Victoria St/Melville Rd (Brunswick West)","-37.76470803","144.94389025"
"18077","36-Hope St/Melville Rd (Brunswick West)","-37.76204015","144.94438414"
"18078","37-Albion St/Melville Rd (Brunswick West)","-37.75856317","144.94499119"
"18079","38-Jacobs Reserve/Melville Rd (Brunswick West)","-37.75662349","144.94538538"
"18081","40-Moreland Rd/Melville Rd (Brunswick West)","-37.75316294","144.94590108"
"18083","42-Reynard St/Melville Rd (Pascoe Vale South)","-37.74639864","144.94455600"
"18084","43-Princes Tce/Melville Rd (Pascoe Vale South)","-37.74392811","144.94499886"
"18085","44-Brearley Pde/Melville Rd (Pascoe Vale South)","-37.74159210","144.94540392"
"18086","45-Bell St/Melville Rd (Pascoe Vale South)","-37.74011744","144.94559222"
"18087","3-Market St/Flinders St (Melbourne City)","-37.81906291","144.96179738"
"18089","4-Elizabeth St/Flinders St (Melbourne City)","-37.81823770","144.96462602"
"18090","5-Swanston St/Flinders St (Melbourne City)","-37.81756006","144.96713247"
"18091","6-Russell St/Flinders St (Melbourne City)","-37.81642552","144.97084417"
"18092","8-Spring St/Flinders St (Melbourne City)","-37.81536272","144.97454245"
"18093","9-Lansdowne St/Wellington Pde (East Melbourne)","-37.81545285","144.97716407"
"18094","10-Jolimont Rd/Wellington Pde (East Melbourne)","-37.81575029","144.97979141"
"18095","11-Jolimont Station-MCG/Wellington Pde (East Melbourne)","-37.81630429","144.98477463"
"18097","13-Simpson St/Wellington Pde (East Melbourne)","-37.81654033","144.98698338"
"18098","14-Punt Rd/Wellington Pde (Melbourne City)","-37.81738838","144.98967538"
"18099","14-Punt Rd/Bridge Rd (Richmond)","-37.81753279","144.99021674"
"18100","13-Simpson St/Wellington Pde (East Melbourne)","-37.81660319","144.98697031"
"18102","11-Jolimont Station-MCG/Wellington Pde (East Melbourne)","-37.81626114","144.98383293"
"18103","10-Jolimont Rd/Wellington Pde (East Melbourne)","-37.81576932","144.97932514"
"18104","9-Lansdowne St/Wellington Pde (Melbourne City)","-37.81547129","144.97666374"
"18105","8-Spring St/Flinders St (Melbourne City)","-37.81553662","144.97417418"
"18108","7B-Rod Laver Arena/MCG Gates 1-3 (Melbourne City)","-37.81958697","144.97913015"
"18116","7C-MCG Gates 4-7/John Cain Arena (Melbourne City)","-37.82238396","144.98352999"
"18118","7D-Olympic Boulevard (Melbourne City)","-37.82413510","144.98685655"
"18155","7D-Olympic Boulevard (Melbourne City)","-37.82382690","144.98675132"
"18161","7C-MCG Gates 4-7/John Cain Arena (Melbourne City)","-37.82213712","144.98279826"
"18172","7B-Rod Laver Arena/MCG Gates 1-3 (Melbourne City)","-37.81934950","144.97842093"
"18174","6-Russell St/Flinders St (Melbourne City)","-37.81665933","144.97029250"
"18175","5-Swanston St/Flinders St (Melbourne City)","-37.81775625","144.96649093"
"18176","4-Elizabeth St/Flinders St (Melbourne City)","-37.81841196","144.96428043"
"18178","3-Market St/Flinders St (Melbourne City)","-37.81930627","144.96127947"
"18179","D6-Victoria Police Centre/Flinders St (Southbank)","-37.82172569","144.95321503"
"18180","D5-South Wharf/Wurundjeri Way (Docklands)","-37.82200105","144.95091257"
"18181","D4-Docklands Park/Harbour Esp (Docklands)","-37.82172534","144.94750066"
"18182","D3-Stadium Precinct - Bourke St/Harbour Esp (Docklands)","-37.81746297","144.94596018"
"18183","D2-Central Pier/Harbour Esp (Docklands)","-37.81424880","144.94458390"
"18184","125-Clarendon St/Whiteman St (Southbank)","-37.82566042","144.95665101"
"18185","124A-Casino/MCEC/Clarendon St (Southbank)","-37.82328904","144.95605749"
"18186","124-Batman Park/Spencer St (Melbourne City)","-37.82155404","144.95526467"
"18187","122-Southern Cross Railway Station/Spencer St (Melbourne City)","-37.81832017","144.95378623"
"18189","120-Lonsdale St/Spencer St (Melbourne City)","-37.81531286","144.95238116"
"18190","119-La Trobe St/Spencer St (Melbourne City)","-37.81340511","144.95150241"
"18192","120-Lonsdale St/Spencer St (Melbourne City)","-37.81496019","144.95231139"
"18194","122-Southern Cross Railway Station/Spencer St (Melbourne City)","-37.81875707","144.95403544"
"18196","124-Batman Park/Spencer St (Melbourne City)","-37.82177278","144.95540632"
"18197","124A-Casino/MCEC/Clarendon St (Southbank)","-37.82359082","144.95631046"
"18199","5-Bourke St/William St (Melbourne City)","-37.81587437","144.95824997"
"18201","7-Flagstaff Railway Station/William St (Melbourne City)","-37.81199629","144.95651664"
"18203","10-Victoria St/Peel St (West Melbourne)","-37.80539121","144.95602860"
"18204","10-Victoria St/Peel St (West Melbourne)","-37.80569845","144.95607692"
"18205","9-Queen Victoria Market/Peel St (North Melbourne)","-37.80744156","144.95577897"
"18206","9-Queen Victoria Market/39 Peel St (North Melbourne)","-37.80721578","144.95575112"
"18208","7-Flagstaff Railway Station/William St (Melbourne City)","-37.81246079","144.95679917"
"18210","5-Bourke St/William St (Melbourne City)","-37.81544024","144.95815970"
"18211","4-Collins St/William St (Melbourne City)","-37.81745702","144.95909244"
"18214","1-Flinders St/Queens Bridge St (Melbourne City)","-37.81951285","144.96123971"
"18215","115-Casino/Southbank/Queens Bridge St (Southbank)","-37.82211699","144.96122485"
"18217","117-York St/Kings Way (South Melbourne)","-37.82976589","144.96422972"
"18219","119-Wells St/Park St (South Melbourne)","-37.83280018","144.96981611"
"18221","119-Wells St/Park St (South Melbourne)","-37.83289006","144.96980229"
"18222","118-Sturt St/Kings Way (Southbank)","-37.83107437","144.96537541"
"18224","20-Kings Way/Sturt St (Southbank)","-37.83009138","144.96533424"
"18225","19-Miles St/Sturt St (Southbank)","-37.82843147","144.96575477"
"18226","18-Grant St/Sturt St (Southbank)","-37.82577919","144.96663426"
"18227","17-Arts Precinct/Sturt St (Southbank)","-37.82378874","144.96722286"
"18229","17-Arts Precinct/Sturt St (Southbank)","-37.82409441","144.96718039"
"18230","18-Grant St/Sturt St (Southbank)","-37.82592390","144.96666437"
"18231","19-Miles St/Sturt St (Southbank)","-37.82818436","144.96605696"
"18232","20-Kings Way/Sturt St (Southbank)","-37.83011938","144.96539028"
"18233","116-City Rd/Kings Way (Southbank)","-37.82626018","144.96057684"
"18341","24-Grattan St/Church St (Hawthorn)","-37.81790581","145.01860689"
"18342","25-Brook St/Church St (Hawthorn)","-37.81592073","145.02060250"
"18343","26-Barkers Rd/Church St (Hawthorn)","-37.81325268","145.02325235"
"18347","34-Pakington St/High St (Kew)","-37.80561661","145.03383744"
"18348","35-Cobden St/High St (Kew)","-37.80498727","145.03554650"
"18349","36-Parkhill Rd/High St (Kew)","-37.80348933","145.03975456"
"18350","37-Kew Cemetery/High St (Kew)","-37.80247266","145.04256410"
"18351","38-Victoria Park/High St (Kew)","-37.80125872","145.04598072"
"18352","39-Harp Rd/High St (Kew)","-37.79941303","145.05043601"
"18353","40-Harp Village/High St (Kew East)","-37.79862823","145.05202394"
"18354","41-Clyde St/High St (Kew East)","-37.79743880","145.05475817"
"18355","42-Irymple Ave/High St (Kew East)","-37.79639700","145.05715908"
"18356","43-Kew High School/High St (Kew East)","-37.79465037","145.06108881"
"18357","44-Burke Rd/High St (Kew)","-37.79353016","145.06366194"
"18359","46-Wattle Ave/Doncaster Rd (Balwyn North)","-37.79283539","145.06745040"
"18360","47-North Balwyn Shopping Centre/Doncaster Rd (Balwyn North)","-37.79271153","145.07143970"
"18361","48-Sunburst Ave/Doncaster Rd (Balwyn North)","-37.79321738","145.07426566"
"18362","49-Cityview Rd/Doncaster Rd (Balwyn North)","-37.79375630","145.07746556"
"18363","50-Hill Rd/Doncaster Rd (Balwyn North)","-37.79425860","145.08118886"
"18364","36-St Kilda Primary School/Brighton Rd (Elwood)","-37.87012046","144.98834518"
"18365","38-Wimbledon Ave/Brighton Rd (Elwood)","-37.87288061","144.99007770"
"18367","39-Glen Eira Rd/Brighton Rd (Elwood)","-37.87595969","144.99201768"
"18368","40-Scott St/Brighton Rd (Elwood)","-37.87894750","144.99389209"
"18369","41-Coleridge St/Brighton Rd (Elwood)","-37.88084218","144.99507998"
"18370","42-Hotham St/Brighton Rd (St Kilda East)","-37.88286431","144.99634407"
"18371","43-Brighton Rd/Glenhuntly Rd (Elsternwick)","-37.88390364","144.99757800"
"18372","44-Elsternwick Railway Station/Glenhuntly Rd (Elsternwick)","-37.88430576","145.00055749"
"18373","45-Elsternwick Shopping Centre/Glenhuntly Rd (Elsternwick)","-37.88475077","145.00394520"
"18374","46-Orrong Rd/Glenhuntly Rd (Elsternwick)","-37.88505052","145.00621119"
"18375","47-Shoobra Rd/Glenhuntly Rd (Elsternwick)","-37.88538803","145.00911293"
"18376","48-Parkside St/Glenhuntly Rd (Elsternwick)","-37.88575632","145.01224128"
"18392","49-Kooyong Rd/Glenhuntly Rd (Elsternwick)","-37.88610173","145.01508602"
"18393","50-Royal Pde/Glenhuntly Rd (Caulfield)","-37.88649766","145.01825917"
"18394","51-Hawthorn Rd/Glenhuntly Rd (Caulfield)","-37.88698794","145.02222579"
"18395","52-Jasmine St/Glenhuntly Rd (Caulfield)","-37.88721838","145.02414129"
"18396","53-Glenhuntly Tram Depot/Glenhuntly Rd (Caulfield)","-37.88761063","145.02710997"
"18397","54-Bambra Rd/Glenhuntly Rd (Caulfield)","-37.88783890","145.02890048"
"18398","55-Fallon St/Glenhuntly Rd (Caulfield)","-37.88810811","145.03098555"
"18399","56-Kean St/Glenhuntly Rd (Caulfield)","-37.88841940","145.03343339"
"18400","57-Laura St/Glenhuntly Rd (Caulfield)","-37.88866994","145.03548488"
"18401","58-Booran Rd/Glenhuntly Rd (Caulfield)","-37.88896104","145.03780822"
"18403","60-Glenhuntly Shops/Glenhuntly Rd (Glen Huntly)","-37.88930772","145.04076688"
"18404","61-Glen Huntly Railway Station/Glen Huntly Rd (Glen Huntly)","-37.88954800","145.04275047"
"18405","62-Grange Rd/Glenhuntly Rd (Glen Huntly)","-37.88983839","145.04503977"
"18406","63-Maroona Rd/Glenhuntly Rd (Carnegie)","-37.89014321","145.04765847"
"18407","64-Mernda Ave/Glenhuntly Rd (Carnegie)","-37.89040572","145.04990306"
"18408","65-Mimosa Rd/Glenhuntly Rd (Carnegie)","-37.89071398","145.05219195"
"18409","66-Glenhuntly Rd/Truganini Rd (Carnegie)","-37.89106911","145.05404750"
"18410","67-Centre Rd/Truganini Rd (Carnegie)","-37.89269653","145.05436854"
"18411","68-Carnegie/Truganini Rd (Carnegie)","-37.89386477","145.05580476"
"18412","68-East Brighton/Hawthorn Rd (Brighton East)","-37.91422166","145.01688973"
"18413","67-Howell St/Hawthorn Rd (Brighton East)","-37.91109410","145.01739457"
"18414","66-Union St/Hawthorn Rd (Brighton East)","-37.90873026","145.01776513"
"18415","65-Davey Ave/Hawthorn Rd (Brighton East)","-37.90657379","145.01814147"
"18416","64-Taylor St/Hawthorn Rd (Brighton East)","-37.90409419","145.01859469"
"18417","63-North Rd/Hawthorn Rd (Brighton East)","-37.90156994","145.01907183"
"18418","62-Gardenvale Rd/Hawthorn Rd (Caulfield South)","-37.89949587","145.01952548"
"18419","61-Raynes St/Hawthorn Rd (Caulfield South)","-37.89670233","145.02006662"
"18420","60-Dover St/Hawthorn Rd (Caulfield South)","-37.89505832","145.02037223"
"18421","59-Princes Park/Hawthorn Rd (Caulfield South)","-37.89313508","145.02068530"
"18422","58-Sycamore St/Hawthorn Rd (Caulfield South)","-37.88993771","145.02132813"
"18423","57-Glenhuntly Rd/Hawthorn Rd (Caulfield South)","-37.88708072","145.02184807"
"18424","56-Lockhart St/Hawthorn Rd (Caulfield)","-37.88458384","145.02234697"
"18425","55-Sylverly Gr/Hawthorn Rd (Caulfield)","-37.88258047","145.02271892"
"18426","54-Glen Eira Rd/Hawthorn Rd (Caulfield)","-37.88012843","145.02320518"
"18427","53-Crotonhurst Ave/Hawthorn Rd (Caulfield North)","-37.87748761","145.02371919"
"18428","52-Halstead St/Hawthorn Rd (Caulfield North)","-37.87525099","145.02415415"
"18429","51-Balaclava Rd/Hawthorn Rd (Caulfield North)","-37.87288844","145.02460380"
"18430","50-Inkerman Rd/Hawthorn Rd (Caulfield North)","-37.86969909","145.02518919"
"18431","49-Wanda Rd/Hawthorn Rd (Caulfield North)","-37.86799239","145.02551895"
"18432","48A-Dandenong Rd/Hawthorn Rd (Caulfield North)","-37.86589911","145.02590449"
"18437","44-Bailey Ave/Dandenong Rd (Armadale)","-37.86461810","145.02367658"
"18438","43-Matlock Ct/Dandenong Rd (Armadale)","-37.86382247","145.02191318"
"18439","42-Kooyong Rd/Dandenong Rd (Armadale)","-37.86250903","145.01883375"
"18441","40-Wattletree Rd/Dandenong Rd (Armadale)","-37.86080819","145.01469634"
"18443","38-Orrong Rd/Dandenong Rd (Armadale)","-37.86030140","145.01083392"
"18444","37-Lansdowne Rd/Dandenong Rd (Prahran)","-37.85982670","145.00727758"
"18445","36-Alexandra St/Dandenong Rd (Prahran)","-37.85942478","145.00429902"
"18446","35-Williams Rd/Dandenong Rd (Prahran)","-37.85907341","145.00164876"
"18447","34-Westbury St/Dandenong Rd (St Kilda East)","-37.85850790","144.99753805"
"18448","33-Hornby St/Dandenong Rd (Windsor)","-37.85827918","144.99574837"
"18449","32-Chapel St/Dandenong Rd (Windsor)","-37.85742600","144.99169103"
"18450","115-Casino/Southbank/Queens Bridge St (Southbank)","-37.82171146","144.96122465"
"18451","64-Darling Rd/Waverley Rd (Malvern East)","-37.87726887","145.05876520"
"18452","63-Hughes St/Waverley Rd (Malvern East)","-37.87710299","145.05690499"
"18453","62-Macgregor St/Waverley Rd (Malvern East)","-37.87687328","145.05500099"
"18454","61-Tennyson St/Waverley Rd (Malvern East)","-37.87637585","145.05108034"
"18455","60-Burke Rd/Waverley Rd (Malvern East)","-37.87605084","145.04832621"
"18456","59-Dandenong Rd/Waverley Rd (Caulfield East)","-37.87584358","145.04506876"
"18457","57-Caulfield Railway Station/Derby Rd (Caulfield East)","-37.87640435","145.04193878"
"18459","56-Caulfield Racecourse/Normanby Rd (Caulfield East)","-37.87535680","145.03910153"
"18460","55-Balaclava Rd/Normanby Rd (Caulfield East)","-37.87449359","145.03813533"
"18461","54-Kambrook Rd/Balaclava Rd (Caulfield East)","-37.87414477","145.03613231"
"18462","53-Caulfield Park/Balaclava Rd (Caulfield North)","-37.87364387","145.03204150"
"18463","52-Caulfield Park Bowling Club/Balaclava Rd (Caulfield North)","-37.87313706","145.02814417"
"18464","51-Hawthorn Rd/Balaclava Rd (Caulfield North)","-37.87279508","145.02494735"
"18465","1-Flinders St/Queens Bridge St (Melbourne City)","-37.81942943","144.96110568"
"18468","47-Caulfield Junior College/Balaclava Rd (Caulfield North)","-37.87229914","145.02117489"
"18469","4-Collins St/William St (Melbourne City)","-37.81781889","144.95917335"
"18479","50-Wharton St/Whitehorse Rd (Surrey Hills)","-37.81410622","145.09137590"
"18481","22-Dorcas St/Eastern Rd (South Melbourne)","-37.83222966","144.96495735"
"18482","23-Moray St/Park St (South Melbourne)","-37.83447246","144.96385036"
"18483","24-Clarendon St/Park St (South Melbourne)","-37.83520347","144.96130775"
"18484","25-Cecil St/Park St (South Melbourne)","-37.83594598","144.95891248"
"18485","41-Maribyrnong Park/Maribyrnong Rd (Ascot Vale)","-37.77029680","144.90257069"
"18486","42-Clyde St/Raleigh Rd (Maribyrnong)","-37.76982919","144.89908732"
"18487","43-Van Ness Ave/Raleigh Rd (Maribyrnong)","-37.76950591","144.89612211"
"18488","44-Warrs Rd/Raleigh Rd (Maribyrnong)","-37.76905702","144.89218420"
"18489","45-Maribyrnong Community Centre/Raleigh Rd (Maribyrnong)","-37.76873947","144.88954811"
"18490","46-Rosamond Rd/Raleigh Rd (Maribyrnong)","-37.76900299","144.88715661"
"18491","48-Wests Rd/Raleigh Rd (Maribyrnong)","-37.76938048","144.88208268"
"18492","49-Highpoint Shopping Centre/Wests Rd (Maribyrnong)","-37.77328585","144.88226641"
"18493","50-Williamson Rd/Wests Rd (Maribyrnong)","-37.77493006","144.88199242"
"18494","51-Williamson Rd/Rosamond Rd (Maidstone)","-37.77629334","144.88564340"
"18495","52-River St/Rosamond Rd (Maribyrnong)","-37.77850236","144.88520578"
"18496","53-Maribyrnong College/River St (Maribyrnong)","-37.77954548","144.88809403"
"18497","54-Gordon St/River St (Maribyrnong)","-37.77991725","144.89123988"
"18498","55-Lyric St/Gordon St (Maribyrnong)","-37.78211804","144.89134764"
"18499","56-Edgewater Square/Gordon St (Maribyrnong)","-37.78444356","144.89087277"
"18500","57-Titch St/Gordon St (Footscray)","-37.78879981","144.89006758"
"18501","58-Ballarat Rd/Gordon St (Footscray)","-37.79055091","144.88972252"
"18505","59-Droop St/Ballarat Rd (Footscray)","-37.79231292","144.89351070"
"18506","60-Tiernan St/Droop St (Footscray)","-37.79461924","144.89548933"
"18507","61-Geelong Rd/Droop St (Footscray)","-37.79613795","144.89676359"
"18508","62-Nicholson St/Droop St (Footscray)","-37.79927622","144.89941162"
"18509","63-Leeds St/Hopkins St (Footscray)","-37.79985278","144.90091715"
"18511","33-Chaucer St/Ascot Vale Rd (Moonee Ponds)","-37.77005340","144.92444269"
"18512","34-Maribyrnong Rd/Ascot Vale Rd (Moonee Ponds)","-37.77245216","144.92402367"
"18513","35-Moore St/Maribyrnong Rd (Moonee Ponds)","-37.77233988","144.92123398"
"18515","37-Union Rd/Maribyrnong Rd (Moonee Ponds)","-37.77181150","144.91632162"
"18516","38-Ferguson St/Maribyrnong Rd (Ascot Vale)","-37.77141495","144.91275662"
"18517","39-Bowen St/Maribyrnong Rd (Moonee Ponds)","-37.77102710","144.90918005"
"18518","40-Epsom Rd/Maribyrnong Rd (Ascot Vale)","-37.77063134","144.90567187"
"18519","37-Maribyrnong Rd/Union Rd (Ascot Vale)","-37.77187014","144.91607021"
"18520","36-St Leonards Rd/Union Rd (Ascot Vale)","-37.77370341","144.91578032"
"18521","35-Munro St/Union Rd (Ascot Vale)","-37.77610272","144.91539503"
"18522","34-Burrowes St/Union Rd (Ascot Vale)","-37.77862713","144.91494943"
"18524","32-Sandown Rd/Epsom Rd (Ascot Vale)","-37.78266790","144.91667531"
"18525","31-Racing Victoria/400 Epsom Rd (Flemington)","-37.78442519","144.91820428"
"18526","30-Flemington Racecourse/Epsom Rd (Flemington)","-37.78591304","144.91978630"
"18527","29-Flemington Racecourse/Racecourse Rd (Flemington)","-37.78744612","144.92188946"
"18528","28-Smithfield Rd/Racecourse Rd (Flemington)","-37.78774134","144.92534456"
"18529","26-Newmarket Plaza/Racecourse Rd (Kensington)","-37.78807431","144.92838985"
"18530","25-Wellington St/Racecourse Rd (Flemington)","-37.78835402","144.93046008"
"18531","24-Collett St/Racecourse Rd (Kensington)","-37.78850691","144.93352180"
"18532","23-Stubbs St/Racecourse Rd (Flemington)","-37.78874852","144.93547957"
"18533","22-Boundary Rd/Racecourse Rd (North Melbourne)","-37.78920870","144.94014526"
"18536","19-Abbotsford St Interchange/Abbotsford St (North Melbourne)","-37.79372898","144.94716282"
"18539","16-Haines St/Abbotsford St (North Melbourne)","-37.79796781","144.94631863"
"18540","15-Arden St/Abbotsford St (North Melbourne)","-37.80067191","144.94583486"
"18541","14-Abbotsford St/Queensberry St (North Melbourne)","-37.80266294","144.94580241"
"18544","24-Elliott Ave/Royal Park (Parkville)","-37.78787806","144.94961855"
"18545","25-State Netball Hockey Centre/Royal Park (Parkville)","-37.78438300","144.94867050"
"18546","26-Melbourne Zoo/Royal Park (Parkville)","-37.78237502","144.94928239"
"18547","27-Royal Park Station/Royal Park (Parkville)","-37.78087160","144.95092491"
"18548","28-Park St/Royal Park (Parkville)","-37.77691749","144.94948999"
"18550","30-Union Square Shopping Centre/Grantham St (Brunswick West)","-37.77244466","144.94931840"
"18551","31-Dawson St/Grantham St (Brunswick West)","-37.77029819","144.94974099"
"18553","33-Daly St/Dawson St (Brunswick)","-37.76959274","144.94442475"
"18554","34-Smith St/Melville Rd (Brunswick West)","-37.76761396","144.94309457"
"18555","35-Victoria St/Melville Rd (Brunswick West)","-37.76491164","144.94368028"
"18556","36-Hope St/Melville Rd (Brunswick West)","-37.76216229","144.94415373"
"18557","37-Albion St/Melville Rd (Brunswick West)","-37.75873956","144.94477064"
"18560","40-Moreland Rd/Melville Rd (Brunswick West)","-37.75342901","144.94565536"
"18563","43-Princes Tce/Melville Rd (Pascoe Vale South)","-37.74412232","144.94476652"
"18564","44-Brearley Pde/Melville Rd (Pascoe Vale South)","-37.74196587","144.94513257"
"18566","51-Balwyn Rd/Doncaster Rd (Balwyn North)","-37.79464808","145.08463121"
"18567","50-Dight Ave/Doncaster Rd (Balwyn North)","-37.79437164","145.08093609"
"18568","49-Buchanan Ave/Doncaster Rd (Balwyn North)","-37.79394072","145.07772198"
"18569","48-Osburn Ave/Doncaster Rd (Balwyn North)","-37.79341156","145.07456724"
"18570","47-North Balwyn Shopping Centre/Doncaster Rd (Balwyn North)","-37.79272684","145.07072386"
"18571","46-Wattle Ave/Doncaster Rd (Balwyn North)","-37.79300579","145.06740053"
"18573","26-Ferrars St/Park St (South Melbourne)","-37.83663243","144.95640508"
"18574","43-Kew High School/High St (Kew East)","-37.79469970","145.06134872"
"18575","42-Woodlands Ave/High St (Kew East)","-37.79632435","145.05767205"
"18576","41-Station St/High St (Kew East)","-37.79796577","145.05392663"
"18577","40-Harp Village/High St (Kew East)","-37.79872113","145.05219186"
"18578","39-Harp Rd/High St (Kew East)","-37.79956353","145.05027305"
"18579","38-Victoria Park/High St (Kew East)","-37.80131597","145.04617229"
"18580","37-Kew Cemetery/High St (Kew)","-37.80258226","145.04265207"
"18581","36-Gladstone St/High St (Kew)","-37.80353871","145.04001449"
"18582","35-Charles St/High St (Kew)","-37.80501248","145.03597744"
"18583","34-Union St/High St (Kew)","-37.80564013","145.03416620"
"18584","33-Kew Shopping Centre/High St (Kew)","-37.80667385","145.03131054"
"18588","25-Brook St/Church St (Hawthorn)","-37.81575588","145.02098178"
"18589","24-Hill St/Church St (Hawthorn)","-37.81797135","145.01875282"
"18591","65-Victoria St/Church St (Richmond)","-37.81091460","145.00059662"
"18592","64-Elizabeth St/Church St (Richmond)","-37.81259249","145.00016514"
"18593","63-Tweedie Pl/Church St (Richmond)","-37.81431791","144.99988003"
"18594","62-Highett St/Church St (Richmond)","-37.81596188","144.99957438"
"18595","61-Bridge Rd/Church St (Richmond)","-37.81872910","144.99907934"
"18596","60-Abinger St/Church St (Richmond)","-37.82030159","144.99880967"
"18597","59-St Ignatius Church/Church St (Richmond)","-37.82183804","144.99854095"
"18598","58-Gipps St/Church St (Richmond)","-37.82405752","144.99816288"
"18599","57-Swan St/Church St (Richmond)","-37.82587282","144.99786388"
"18601","55-Adelaide St/Church St (Cremorne)","-37.82897177","144.99726883"
"18602","54-Cotter St/Church St (Cremorne)","-37.83050017","144.99705707"
"18603","53-Howard St/Church St (Richmond)","-37.83279190","144.99668831"
"18605","51-Malcolm St/Chapel St (South Yarra)","-37.83696197","144.99601871"
"18606","50-Toorak Rd/Chapel St (South Yarra)","-37.83964770","144.99550284"
"18607","49-Arthur St/Chapel St (South Yarra)","-37.84201972","144.99508634"
"18608","48-Cliff St/Chapel St (South Yarra)","-37.84383268","144.99465086"
"18609","47-Commercial Rd/Chapel St (Prahran)","-37.84697624","144.99403157"
"18610","46-Chatham St/Chapel St (Prahran)","-37.84910601","144.99367836"
"18611","45-High St/Chapel St (Prahran)","-37.85195599","144.99328287"
"18612","44-Duke St/Chapel St (Windsor)","-37.85410202","144.99282688"
"18613","43-Windsor Railway Station/Chapel St (Windsor)","-37.85624040","144.99245063"
"18614","42-Dandenong Rd/Chapel St (St Kilda East)","-37.85792055","144.99215499"
"18615","41-St Michaels Grammar School/Chapel St (St Kilda)","-37.85952884","144.99187264"
"18616","40-Alma Rd/Chapel St (St Kilda East)","-37.86157733","144.99151014"
"18617","39-Argyle St/Chapel St (St Kilda East)","-37.86339220","144.99118805"
"18618","38-Inkerman St/Chapel St (St Kilda East)","-37.86544011","144.99079142"
"18619","37-Chapel St/Carlisle St (Balaclava)","-37.86824957","144.99013534"
"18620","36-St Kilda Town Hall/Carlisle St (St Kilda)","-37.86808962","144.98868461"
"18621","37-Carlisle St/Chapel St (St Kilda)","-37.86847651","144.99023149"
"18622","36-Brighton Rd/Chapel St (St Kilda)","-37.87115338","144.98972675"
"18623","35-St Kilda Rd/Carlisle St (St Kilda)","-37.86782810","144.98656595"
"18624","34-Greeves St/Carlisle St (St Kilda)","-37.86747788","144.98400639"
"18625","33-Barkly St/Carlisle St (St Kilda)","-37.86706733","144.98108473"
"18632","38-Balaclava Station/Carlisle St (Balaclava)","-37.86880615","144.99423540"
"18633","39-Orange Gr/Carlisle St (Balaclava)","-37.86907024","144.99651320"
"18634","40-Hotham St/Carlisle St (Balaclava)","-37.86943287","144.99928854"
"18635","41-Empress Rd/Balaclava Rd (St Kilda East)","-37.86970606","145.00157749"
"18636","42-Sidwell Ave/Balaclava Rd (Caulfield North)","-37.87016601","145.00531655"
"18637","43-Orrong Rd/Balaclava Rd (Caulfield North)","-37.87055279","145.00846648"
"18638","44-Ontario St/Balaclava Rd (Caulfield North)","-37.87106925","145.01236326"
"18639","45-Kent Gr/Balaclava Rd (Caulfield North)","-37.87134353","145.01473187"
"18640","46-Kooyong Rd/Balaclava Rd (Caulfield North)","-37.87172566","145.01762056"
"18641","47-Elmhurst Rd/Balaclava Rd (Caulfield North)","-37.87214468","145.02109944"
"18645","51-Hawthorn Rd/Balaclava Rd (Caulfield North)","-37.87257012","145.02443041"
"18646","52-Caulfield Park Bowling Club/Balaclava Rd (Caulfield North)","-37.87308067","145.02854358"
"18647","53-Caulfield Park/Balaclava Rd (Caulfield North)","-37.87339637","145.03125228"
"18648","54-Kambrook Rd/Balaclava Rd (Caulfield North)","-37.87395930","145.03581891"
"18649","55-Normanby Rd/Balaclava Rd (Caulfield North)","-37.87419795","145.03769979"
"18650","56-Caulfield Racecourse/Normanby Rd (Caulfield North)","-37.87541577","145.03939556"
"18651","57-Caulfield Railway Station/Derby Rd (Caulfield East)","-37.87640000","145.04167740"
"18652","58-Dandenong Rd/Derby Rd (Caulfield North)","-37.87570923","145.04186623"
"18653","59-Dandenong Rd/Waverley Rd (Malvern East)","-37.87576043","145.04494589"
"18654","60-Burke Rd/Waverley Rd (Malvern East)","-37.87589300","145.04804615"
"18655","61-Tennyson St/Waverley Rd (Malvern East)","-37.87624729","145.05093593"
"18656","62-The Avenue/Waverley Rd (Malvern East)","-37.87669687","145.05468729"
"18657","63-Oak Gr/Waverley Rd (Malvern East)","-37.87691683","145.05654607"
"18658","27-Park St/Montague St (South Melbourne)","-37.83752193","144.95417610"
"18659","28-Montague St/Bridport St (Albert Park)","-37.84067899","144.95538431"
"18660","29-Bridport St/Victoria Ave (Albert Park)","-37.84156261","144.95333717"
"18661","30-Richardson St/Victoria Ave (Albert Park)","-37.84394201","144.95128269"
"18662","31-Graham St/Victoria Ave (Albert Park)","-37.84567393","144.94982559"
"18663","32-Beaconsfield Pde/Victoria Ave (Albert Park)","-37.84712372","144.94872853"
"18699","124-Walsh St/Toorak Rd (South Yarra)","-37.83819030","144.98456545"
"18700","125-Punt Rd/Toorak Rd (South Yarra)","-37.83841678","144.98674102"
"18703","127-South Yarra Railway Station/Toorak Rd (South Yarra)","-37.83913121","144.99216464"
"18704","128-Chapel St/Toorak Rd (South Yarra)","-37.83958890","144.99575443"
"18705","129-Tivoli Rd/Toorak Rd (South Yarra)","-37.83992681","144.99866570"
"18706","130-Hawksburn Rd/Toorak Rd (South Yarra)","-37.84036764","145.00233557"
"18707","131-Williams Rd/Toorak Rd (Toorak)","-37.84072532","145.00536000"
"18708","132-Toorak Village/Toorak Rd (Toorak)","-37.84109309","145.00845238"
"18709","133-Canterbury Rd/Toorak Rd (Toorak)","-37.84138659","145.01088768"
"18710","43-Deepdene Shopping Centre/Whitehorse Rd (Balwyn)","-37.81092511","145.06487739"
"18712","120-Brunswick Rd/Lygon St (Brunswick)","-37.77845522","144.97063402"
"18713","121-Weston St/Lygon St (Brunswick East)","-37.77566737","144.97097140"
"18714","122-Glenlyon Rd/Lygon St (Brunswick East)","-37.77273715","144.97141481"
"18715","123-Albert St/Lygon St (Brunswick East)","-37.76978147","144.97194969"
"18716","124-Victoria St/Lygon St (Brunswick East)","-37.76820024","144.97223130"
"18717","125-Blyth St/Lygon St (Brunswick East)","-37.76666404","144.97251166"
"18718","126-Stewart St/Lygon St (Brunswick East)","-37.76442681","144.97290196"
"18719","127-Albion St/Lygon St (Brunswick East)","-37.76236934","144.97326463"
"18720","128-Mitchell St/Holmes St (Brunswick East)","-37.75938678","144.97433358"
"18721","129-Moreland Rd/Holmes St (Brunswick)","-37.75687970","144.97475384"
"18722","130-Barrow St/Moreland Rd (Coburg)","-37.75620573","144.97015253"
"18723","131-De Carle St/Moreland Rd (Coburg)","-37.75580964","144.96651984"
"18724","132-Sydney Rd/Moreland Rd (Coburg)","-37.75556367","144.96427918"
"18725","133-Moreland Station/Moreland Rd (Coburg)","-37.75526049","144.96238062"
"18726","130-The Avenue/Nicholson St (Coburg)","-37.75356579","144.97594518"
"18727","131-Rennie St/Nicholson St (Coburg)","-37.75134047","144.97650522"
"18728","132-Crozier St/Nicholson St (Coburg)","-37.74941770","144.97684134"
"18729","133-Harding St/Nicholson St (Coburg)","-37.74637073","144.97731019"
"18730","134-Merribell Ave/Nicholson St (Coburg)","-37.74435924","144.97772812"
"18732","44-Deepdene Park/Whitehorse Rd (Balwyn)","-37.81137490","145.06867098"
"18733","45-Hardwicke St/Whitehorse Rd (Balwyn)","-37.81175036","145.07178499"
"18734","46-Balwyn Cinema/Whitehorse Rd (Balwyn)","-37.81224172","145.07592973"
"18735","47-Balwyn Rd/Whitehorse Rd (Balwyn)","-37.81291876","145.08152373"
"18736","48-Balwyn Shopping Centre/Whitehorse Rd (Balwyn)","-37.81319896","145.08378838"
"18737","49-Northcote Ave/Whitehorse Rd (Balwyn)","-37.81369027","145.08795601"
"18738","51-Narrak Rd/Whitehorse Rd (Mont Albert)","-37.81456418","145.09516962"
"18781","134-Orrong Rd/Toorak Rd (Toorak)","-37.84175536","145.01404827"
"18782","135-Woorigoleen Rd/Toorak Rd (Toorak)","-37.84216640","145.01758276"
"18783","136-Irving Rd/Toorak Rd (Toorak)","-37.84246086","145.02008630"
"18784","137-Kooyong Rd/Toorak Rd (Toorak)","-37.84284435","145.02306477"
"18785","138-Moonga Rd/Toorak Rd (Toorak)","-37.84323120","145.02624773"
"18786","139-Glenbervie Rd/Toorak Rd (Toorak)","-37.84361542","145.02981717"
"18789","112-Lygon St/Elgin St (Carlton)","-37.79711281","144.96715938"
"18790","113-Lytton St/Lygon St (Carlton)","-37.79412682","144.96802483"
"18791","114-Princes St/Lygon St (Carlton North)","-37.79268914","144.96826863"
"18792","115-Melbourne Cemetery/Lygon St (Carlton North)","-37.78958017","144.96879666"
"18793","116-Fenwick St/Lygon St (Carlton North)","-37.78736999","144.96918649"
"18794","117-Richardson St/Lygon St (Carlton North)","-37.78403601","144.96973195"
"18795","118-Pigdon St/Lygon St (Carlton North)","-37.78192413","144.97007361"
"18899","26-Alfred Hospital/Commercial Rd (South Yarra)","-37.84527850","144.98222463"
"18918","27-Punt Rd/Commercial Rd (South Yarra)","-37.84563009","144.98486293"
"18923","28-Braille Library/Commercial Rd (South Yarra)","-37.84589900","144.98741260"
"18931","29-Porter St/Commercial Rd (South Yarra)","-37.84631364","144.99058337"
"18933","30-Prahran Market/Commercial Rd (South Yarra)","-37.84654069","144.99227051"
"18934","31-Chapel St/Commercial Rd (South Yarra)","-37.84675967","144.99401471"
"18935","32-Surrey Rd/Malvern Rd (South Yarra)","-37.84729285","144.99780740"
"18936","33-Francis St/Malvern Rd (South Yarra)","-37.84765291","145.00043426"
"18937","34-Williams Rd/Malvern Rd (South Yarra)","-37.84800372","145.00305004"
"18938","35-Mathoura Rd/Malvern Rd (Toorak)","-37.84847987","145.00668529"
"18939","36-A'Beckett St/Malvern Rd (Toorak)","-37.84892332","145.00999189"
"18940","37-Orrong Rd/Malvern Rd (Toorak)","-37.84919284","145.01207579"
"18941","38-Clendon Rd/Malvern Rd (Toorak)","-37.84961775","145.01536023"
"18942","39-Irving Rd/Malvern Rd (Toorak)","-37.85005214","145.01867854"
"18943","40-Kooyong Rd/Malvern Rd (Toorak)","-37.85040273","145.02130587"
"18944","41-Albany Rd/Malvern Rd (Toorak)","-37.85076266","145.02395570"
"18945","42-Lauriston Girls School/Malvern Rd (Toorak)","-37.85105166","145.02614147"
"18946","43-Glenferrie Rd/Malvern Rd (Toorak)","-37.85154665","145.02986746"
"18947","44-Plant St/Malvern Rd (Malvern)","-37.85189700","145.03249490"
"18948","45-Elizabeth St/Malvern Rd (Malvern)","-37.85225933","145.03530389"
"18949","46-Meredith St/Malvern Rd (Malvern)","-37.85278446","145.03923379"
"18950","47-Tooronga Rd/Malvern Rd (Malvern)","-37.85312767","145.04198653"
"18951","48-Edgar St/Malvern Rd (Malvern)","-37.85355646","145.04555536"
"18952","49-Kenilworth Gr/Malvern Rd (Malvern)","-37.85389971","145.04831953"
"18953","50-Burke Rd/Malvern Rd (Malvern)","-37.85432174","145.05149082"
"18954","51-Gardiner Railway Station/Burke Rd (Hawthorn East)","-37.85279981","145.05264471"
"18955","52-Harris Ave/Burke Rd (Hawthorn East)","-37.84977841","145.05304243"
"18957","54-Toorak Rd/Burke Rd (Glen Iris)","-37.84579993","145.05387441"
"18958","55-Middle Rd/Burke Rd (Hawthorn East)","-37.84379642","145.05424527"
"18959","56-Anderson Rd/Burke Rd (Hawthorn East)","-37.84185615","145.05462582"
"18960","57-Pine Ave/Burke Rd (Hawthorn East)","-37.84025724","145.05494056"
"18961","58-Leura Gr/Burke Rd (Hawthorn East)","-37.83816402","145.05533644"
"18962","59-Pleasant Rd/Burke Rd (Hawthorn East)","-37.83541453","145.05582908"
"18964","61-Riversdale Rd/Burke Rd (Hawthorn East)","-37.83156962","145.05656630"
"18965","62-Camberwell Shopping Centre/755 Burke Rd (Hawthorn East)","-37.83020398","145.05681801"
"18966","63-Prospect Hill Rd/Burke Rd (Hawthorn East)","-37.82821902","145.05722230"
"18967","64-Camberwell Station/Burke Rd (Hawthorn East)","-37.82605391","145.05763129"
"18968","65-Victoria Rd/Burke Rd (Hawthorn East)","-37.82358271","145.05805964"
"18969","66-Rathmines Rd/Burke Rd (Hawthorn East)","-37.82148065","145.05846692"
"18970","67-Camberwell Girls Grammar/Burke Rd (Hawthorn East)","-37.81858850","145.05905391"
"18971","68-Mont Albert Rd/Burke Rd (Kew)","-37.81599212","145.05954224"
"18972","69-Sackville St/Burke Rd (Kew)","-37.81413214","145.05987493"
"18973","36-St Kilda Primary School/Brighton Rd (Balaclava)","-37.87005858","144.98841507"
"18974","37-Chapel St/Brighton Rd (Balaclava)","-37.87177121","144.98949396"
"18975","38-Brunning St/Brighton Rd (Balaclava)","-37.87280032","144.99012535"
"18976","39-Glen Eira Rd/Brighton Rd (Balaclava)","-37.87663555","144.99254505"
"18977","40-Scott St/Brighton Rd (Balaclava)","-37.87888580","144.99397335"
"18978","41-Coleridge St/Brighton Rd (Balaclava)","-37.88079850","144.99516076"
"18979","42-Hotham St/Brighton Rd (Balaclava)","-37.88295709","144.99650074"
"18980","43-Brighton Rd/Glenhuntly Rd (Elsternwick)","-37.88379999","144.99784232"
"18981","44-Elsternwick Railway Station/Glenhuntly Rd (Elsternwick)","-37.88414954","145.00037979"
"18982","45-Elsternwick Shopping Centre/Glenhuntly Rd (Elsternwick)","-37.88461334","145.00381246"
"18983","46-Orrong Rd/Glenhuntly Rd (Elsternwick)","-37.88486171","145.00570461"
"18984","47-Shoobra Rd/Glenhuntly Rd (Elsternwick)","-37.88527112","145.00912745"
"18985","48-Parkside St/Glenhuntly Rd (Elsternwick)","-37.88564862","145.01226692"
"18986","49-Kooyong Rd/Glenhuntly Rd (Elsternwick)","-37.88596297","145.01487370"
"18987","50-Royal Pde/Glenhuntly Rd (Caulfield)","-37.88639071","145.01833026"
"19000","67-Rogers Ave/Hawthorn Rd (Brighton East)","-37.91107838","145.01753149"
"19001","66-Union St/Hawthorn Rd (Brighton East)","-37.90851734","145.01796420"
"19002","65-Davey Ave/Hawthorn Rd (Brighton East)","-37.90636968","145.01832893"
"19003","64-Taylor St/Hawthorn Rd (Brighton East)","-37.90378237","145.01880778"
"19004","63-North Rd/Hawthorn Rd (Brighton East)","-37.90119582","145.01933206"
"19005","62-Gardenvale Rd/Hawthorn Rd (Caulfield South)","-37.89896881","145.01980118"
"19006","61-Stone St/Hawthorn Rd (Caulfield South)","-37.89655226","145.02025260"
"19007","60-Dover St/Hawthorn Rd (Caulfield South)","-37.89488104","145.02054756"
"19008","59-Princes Park/Hawthorn Rd (Caulfield South)","-37.89303963","145.02090392"
"19009","58-Sycamore St/Hawthorn Rd (Caulfield South)","-37.88960806","145.02155301"
"19010","57-Glenhuntly Rd/Hawthorn Rd (Caulfield)","-37.88666137","145.02209808"
"19011","56-Briggs St/Hawthorn Rd (Caulfield)","-37.88483778","145.02244251"
"19012","55-Sylverly Gr/Hawthorn Rd (Caulfield North)","-37.88244860","145.02291574"
"19013","54-Glen Eira Rd/Hawthorn Rd (Caulfield North)","-37.87993351","145.02340368"
"19014","53-Northcote Ave/Hawthorn Rd (Caulfield North)","-37.87721162","145.02391985"
"19015","52-Halstead St/Hawthorn Rd (Caulfield North)","-37.87493896","145.02435575"
"19016","51-Balaclava Rd/Hawthorn Rd (Caulfield North)","-37.87244149","145.02482038"
"19017","50-Inkerman Rd/Hawthorn Rd (Caulfield North)","-37.86951355","145.02541013"
"19018","49-Arthur St/Hawthorn Rd (Caulfield North)","-37.86768993","145.02575438"
"19019","48-Hawthorn Rd/Dandenong Rd (Caulfield North)","-37.86542823","145.02576928"
"19023","44-Bailey Ave/Dandenong Rd (Armadale)","-37.86455771","145.02383733"
"19024","43-Egerton Rd/Dandenong Rd (Armadale)","-37.86378873","145.02205049"
"19025","42-Kooyong Rd/Dandenong Rd (Armadale)","-37.86256958","145.01921861"
"19027","40-Wattletree Rd/Dandenong Rd (Armadale)","-37.86082524","145.01517329"
"19028","38-Orrong Rd/Dandenong Rd (Prahran)","-37.86027017","145.01111893"
"19029","37-Lansdowne Rd/Dandenong Rd (St Kilda East)","-37.85980391","145.00752826"
"19030","36-Closeburn Ave/Dandenong Rd (St Kilda East)","-37.85939453","145.00464083"
"19031","35-Williams Rd/Dandenong Rd (Prahran)","-37.85906253","145.00206961"
"19032","34-The Avenue/Dandenong Rd (Windsor)","-37.85841261","144.99723374"
"19033","33-Hornby St/Dandenong Rd (Windsor)","-37.85820616","144.99569351"
"19034","32-Chapel St/Dandenong Rd (Windsor)","-37.85749429","144.99199606"
"19035","31-Queens Way/Queens Way (Windsor)","-37.85615426","144.98740648"
"19036","70-Cotham Rd/Burke Rd (Kew)","-37.81087270","145.06059636"
"19037","69-Peverill St/Burke Rd (Balwyn)","-37.81410829","145.06006867"
"19038","68-Mont Albert Rd/Burke Rd (Camberwell)","-37.81574345","145.05976459"
"19039","67-Camberwell Girls Grammar/Burke Rd (Canterbury)","-37.81849222","145.05922684"
"19040","66-Canterbury Rd/Burke Rd (Camberwell)","-37.82128659","145.05872194"
"19041","65-Victoria Rd/Burke Rd (Camberwell)","-37.82343370","145.05831349"
"19042","64-Camberwell Station/Burke Rd (Camberwell)","-37.82596683","145.05781536"
"19043","63-Prospect Hill Rd/Burke Rd (Camberwell)","-37.82802422","145.05743192"
"19044","61-Camberwell Junction/Burke Rd (Camberwell)","-37.83108751","145.05684028"
"19046","59-Seymour Gr/Burke Rd (Camberwell)","-37.83519327","145.05607350"
"19047","58-Currajong Ave/Burke Rd (Camberwell)","-37.83808595","145.05552031"
"19048","57-Pine Ave/Burke Rd (Camberwell)","-37.84006226","145.05513886"
"19049","56-Anderson Rd/Burke Rd (Camberwell)","-37.84158948","145.05484874"
"19050","55-Middle Rd/Burke Rd (Camberwell)","-37.84365567","145.05445353"
"19051","54-Toorak Rd/Burke Rd (Camberwell)","-37.84561414","145.05408385"
"19053","52-Bickleigh St/Burke Rd (Glen Iris)","-37.84988051","145.05322159"
"19054","51-Gardiner Station/Burke Rd (Glen Iris)","-37.85296233","145.05266317"
"19056","50-Glenarm Rd/Malvern Rd (Glen Iris)","-37.85441763","145.05129508"
"19057","49-Belmont Ave/Malvern Rd (Glen Iris)","-37.85404554","145.04841798"
"19058","48-Edgar St/Malvern Rd (Glen Iris)","-37.85373233","145.04583486"
"19059","47-Tooronga Rd/Malvern Rd (Glen Iris)","-37.85330411","145.04230010"
"19060","46-Shaftesbury Ave/Malvern Rd (Malvern)","-37.85285871","145.03882266"
"19061","45-Elizabeth St/Malvern Rd (Malvern)","-37.85243389","145.03550384"
"19062","44-Plant St/Malvern Rd (Malvern)","-37.85208380","145.03288772"
"19063","43-Glenferrie Rd/Malvern Rd (Malvern)","-37.85168017","145.03030715"
"19064","42-Lauriston Girls School/Malvern Rd (Armadale)","-37.85119002","145.02633099"
"19065","41-Murray St/Malvern Rd (Malvern)","-37.85087919","145.02391849"
"19066","40-Kooyong Rd/Malvern Rd (Toorak)","-37.85058785","145.02159641"
"19067","39-Densham Rd/Malvern Rd (Toorak)","-37.85015603","145.01842573"
"19068","38-Clendon Rd/Malvern Rd (Toorak)","-37.84979330","145.01561692"
"19069","37-Orrong Rd/Malvern Rd (Toorak)","-37.84937971","145.01246855"
"19070","51-Hawthorn Rd/Glenhuntly Rd (Caulfield)","-37.88680896","145.02176438"
"19071","52-Jasmine St/Glenhuntly Rd (Caulfield)","-37.88710990","145.02412145"
"19072","53-Glenhuntly Tram Depot/Glenhuntly Rd (Caulfield)","-37.88745140","145.02675035"
"19073","54-Bambra Rd/Glenhuntly Rd (Caulfield)","-37.88767314","145.02868885"
"19074","55-Fallon St/Glenhuntly Rd (Caulfield)","-37.88793069","145.03061504"
"19075","56-Kambrook Rd/Glenhuntly Rd (Caulfield)","-37.88825137","145.03308536"
"19076","57-Clarke Ave/Glenhuntly Rd (Caulfield East)","-37.88850154","145.03511412"
"19077","58-Booran Rd/Glenhuntly Rd (Caulfield East)","-37.88879435","145.03753974"
"19078","60-Glenhuntly Shops/Glenhuntly Rd (Caulfield East)","-37.88913166","145.04047590"
"19079","61-Glen Huntly Railway Station/Glen Huntly Rd (Caulfield South)","-37.88930730","145.04182441"
"19081","62-Grange Rd/Glenhuntly Rd (Caulfield East)","-37.88963266","145.04459036"
"19082","63-Maroona Rd/Glenhuntly Rd (Carnegie)","-37.88993824","145.04725452"
"19083","64-Mernda Ave/Glenhuntly Rd (Carnegie)","-37.89023661","145.04948679"
"19084","65-Mimosa Rd/Glenhuntly Rd (Carnegie)","-37.89051748","145.05175364"
"19085","66-Truganini Rd/Glenhuntly Rd (Carnegie)","-37.89078104","145.05406646"
"19086","67-Centre Rd/Truganini Rd (Carnegie)","-37.89265356","145.05449476"
"19087","64-Baker St/Church St (Richmond)","-37.81225444","145.00042416"
"19088","63-Kent St/Church St (Richmond)","-37.81432962","145.00003874"
"19089","62-Highett St/Church St (Richmond)","-37.81574897","144.99977324"
"19090","61-Bridge Rd/Church St (Richmond)","-37.81842632","144.99929200"
"19091","60-Abinger St/Church St (Richmond)","-37.82032211","144.99895680"
"19092","59-St Ignatius Church/Church St (Richmond)","-37.82174185","144.99871396"
"19093","58-Gipps St/Church St (Richmond)","-37.82372733","144.99835358"
"19094","57-Swan St/Church St (Richmond)","-37.82555125","144.99803163"
"19095","56-East Richmond Railway Station/Church St (Richmond)","-37.82663847","144.99784318"
"19096","55-Gibbons St/Church St (Richmond)","-37.82876768","144.99745614"
"19097","54-Balmain St/Church St (Richmond)","-37.83032098","144.99711873"
"19098","53-Howard St/Church St (Richmond)","-37.83264855","144.99673764"
"19100","51-Malcolm St/Chapel St (South Yarra)","-37.83633530","144.99626293"
"19101","50-Toorak Rd/Chapel St (South Yarra)","-37.83934608","144.99578373"
"19102","49-Palermo St/Chapel St (South Yarra)","-37.84156226","144.99521237"
"19103","48-Wilson St/Chapel St (South Yarra)","-37.84363857","144.99489477"
"19104","47-Malvern Rd/Chapel St (South Yarra)","-37.84670068","144.99425496"
"19105","46-Chatham St/Chapel St (Prahran)","-37.84894793","144.99392131"
"19106","45-High St/Chapel St (Prahran)","-37.85172528","144.99349370"
"19107","44-Duke St/Chapel St (Prahran)","-37.85398860","144.99304590"
"19108","43-Windsor Railway Station/Chapel St (Prahran)","-37.85612660","144.99264694"
"19109","42-Dandenong Rd/Chapel St (Prahran)","-37.85742039","144.99241861"
"19110","41-St Michaels Grammar School/Chapel St (St Kilda East)","-37.85937920","144.99208130"
"19111","40-Alma Rd/Chapel St (St Kilda East)","-37.86137384","144.99173163"
"19112","39-Argyle St/Chapel St (St Kilda East)","-37.86332363","144.99139452"
"19113","38-Inkerman St/Chapel St (St Kilda East)","-37.86520098","144.99103663"
"19115","36-St Kilda Town Hall/Carlisle St (St Kilda)","-37.86822609","144.98876048"
"19116","37-Carlisle St/Chapel St (St Kilda)","-37.86816435","144.99042185"
"19118","35-Brighton Rd/Carlisle St (St Kilda)","-37.86808134","144.98767310"
"19119","34-Mitchell St/Carlisle St (St Kilda)","-37.86759440","144.98396911"
"19123","36-Canterbury Rd/Malvern Rd (Toorak)","-37.84894802","145.00932070"
"19124","35-Lorne Rd/Malvern Rd (Toorak)","-37.84859370","145.00648903"
"19125","34-Williams Rd/Malvern Rd (Toorak)","-37.84819004","145.00340868"
"19126","33-Hobson St/Malvern Rd (South Yarra)","-37.84788144","145.00115543"
"19127","32-Bendigo St/Malvern Rd (Prahran)","-37.84745004","144.99804181"
"19128","31-Chapel St/Malvern Rd (Prahran)","-37.84693430","144.99421454"
"19129","30-Prahran Market/Commercial Rd (Prahran)","-37.84670554","144.99242514"
"19130","29-Porter St/Commercial Rd (Prahran)","-37.84651413","144.99071430"
"19131","28-Braille Library/Commercial Rd (Prahran)","-37.84607267","144.98755561"
"19132","27-Punt Rd/Commercial Rd (Prahran)","-37.84577026","144.98515459"
"19133","26-Alfred Hospital/Commercial Rd (Prahran)","-37.84536112","144.98231329"
"19135","33-Barkly St/Carlisle St (St Kilda)","-37.86725274","144.98138660"
"19136","32-Havelock St/Carlisle St (St Kilda)","-37.86704244","144.97858454"
"19250","13-Curzon St/Queensberry St (North Melbourne)","-37.80282645","144.94794449"
"19251","12-North Melbourne Town Hall/Queensberry St (North Melbourne)","-37.80298707","144.94940519"
"19253","14-Royal Melbourne Hospital/Flemington Rd (Parkville)","-37.79947767","144.95488555"
"19256","19-Royal Childrens Hospital/Flemington Rd (North Melbourne)","-37.79428158","144.94836266"
"19259","22-Flemington Bridge Station/Flemington Rd (North Melbourne)","-37.78827623","144.94093197"
"19260","23-Djerring Flemington Hub/Mt Alexander Rd (Flemington)","-37.78592738","144.93905545"
"19261","24-Mooltan St/Mt Alexander Rd (Flemington)","-37.78393582","144.93699879"
"19262","25-Mount Alexander College/Mt Alexander Rd (Flemington)","-37.78244033","144.93394058"
"19263","26-Wellington St/Mt Alexander Rd (Flemington)","-37.78111958","144.93262620"
"19264","27-Essendon Tram Depot/Mt Alexander Rd (Ascot Vale)","-37.77943672","144.93121976"
"19265","28-Middle St/Mt Alexander Rd (Ascot Vale)","-37.77745680","144.92983303"
"19266","29-Warrick St/Mt Alexander Rd (Ascot Vale)","-37.77554152","144.92853540"
"19267","30-Ormond Rd/Mt Alexander Rd (Moonee Ponds)","-37.77243086","144.92690792"
"19268","31-Montgomery St/Mt Alexander Rd (Moonee Ponds)","-37.77059860","144.92623253"
"19269","32-Moonee Ponds Junction/Pascoe Vale Rd (Moonee Ponds)","-37.76693466","144.92491587"
"19270","34-Moonee Valley Civic Centre/Pascoe Vale Rd (Moonee Ponds)","-37.76431271","144.92545458"
"19271","35-Queens Park/Pascoe Vale Rd (Moonee Ponds)","-37.76252564","144.92581100"
"19272","36-Salisbury St/Pascoe Vale Rd (Moonee Ponds)","-37.75974036","144.92628610"
"19274","38-Pascoe Vale Rd/Fletcher St (Essendon)","-37.75581197","144.92581693"
"19275","39-Hoddle St/Fletcher St (Essendon)","-37.75546977","144.92276188"
"19276","40-Nicholson St/Fletcher St (Essendon)","-37.75517232","144.92020502"
"19277","41-Fletcher St/Napier St (Essendon)","-37.75492807","144.91760129"
"19278","8-Richmond Station/Swan St (Richmond)","-37.82467737","144.98905723"
"19279","9-Lennox St/Swan St (Richmond)","-37.82523953","144.99348420"
"19280","10-Swan Street Shopping Centre/Swan St (Richmond)","-37.82552664","144.99605543"
"19281","11-Church St/Swan St (Richmond)","-37.82575958","144.99809416"
"19282","12-Coppin St/Swan St (Richmond)","-37.82625932","145.00257977"
"19283","13-Edinburgh St/Swan St (Burnley)","-37.82650597","145.00490221"
"19294","14-Burnley St/Swan St (Burnley)","-37.82679091","145.00735997"
"19295","15-Stawell St/Swan St (Burnley)","-37.82704820","145.00978442"
"19296","16-Park Gr/Swan St (Burnley)","-37.82726212","145.01177830"
"19297","17-Madden Gr/Swan St (Burnley)","-37.82746811","145.01651056"
"19298","18-Yarra Bvd/Swan St (Burnley)","-37.82666322","145.01955426"
"19299","29-Power St/Riversdale Rd (Hawthorn)","-37.82739295","145.02544278"
"19300","30-Through St/Riversdale Rd (Hawthorn)","-37.82821069","145.02906809"
"19301","31-Fordholm Rd/Riversdale Rd (Hawthorn)","-37.82850585","145.03162800"
"19302","32-Glenferrie Rd/Riversdale Rd (Hawthorn)","-37.82884172","145.03447090"
"19303","33-Berkeley St/Riversdale Rd (Hawthorn)","-37.82915856","145.03725751"
"19304","125-Port Junction/79 Whiteman St (Southbank)","-37.82607628","144.95620781"
"19305","22-Dorcas St/Eastern Rd (South Melbourne)","-37.83217053","144.96518622"
"19306","23-Moray St/Park St (South Melbourne)","-37.83450813","144.96434934"
"19307","24-Clarendon St/Park St (South Melbourne)","-37.83522349","144.96194350"
"19308","25-Cecil St/Park St (South Melbourne)","-37.83613824","144.95856629"
"19309","26-Ferrars St/Park St (South Melbourne)","-37.83662171","144.95682580"
"19310","27-Montague St/Park St (South Melbourne)","-37.83732870","144.95446552"
"19311","28-Bridport St/Montague St (Albert Park)","-37.84042350","144.95572090"
"19312","29-Bridport St/Victoria Ave (Albert Park)","-37.84172534","144.95336677"
"19313","30-Richardson St/Victoria Ave (Albert Park)","-37.84378680","144.95168472"
"19314","31-Graham St/Victoria Ave (Albert Park)","-37.84576736","144.95001619"
"19322","124-Walsh St/Toorak Rd (South Yarra)","-37.83802758","144.98453579"
"19323","125-Punt Rd/Toorak Rd (South Yarra)","-37.83821045","144.98626938"
"19325","127-South Yarra Railway Station/Toorak Rd (South Yarra)","-37.83898574","144.99208904"
"19326","128-Chapel St/Toorak Rd (South Yarra)","-37.83937612","144.99543065"
"19327","129-Tivoli Rd/Toorak Rd (South Yarra)","-37.83977059","144.99848810"
"19328","130-Hawksburn Rd/Toorak Rd (South Yarra)","-37.84019798","145.00189697"
"19329","131-Williams Rd/Toorak Rd (South Yarra)","-37.84051387","145.00458161"
"19330","132-Toorak Village/Toorak Rd (Toorak)","-37.84096506","145.00834218"
"19331","133-Grange Rd/Toorak Rd (Toorak)","-37.84122828","145.01058511"
"19332","134-Orrong Rd/Toorak Rd (Toorak)","-37.84161488","145.01373385"
"19333","135-Woorigoleen Rd/Toorak Rd (Toorak)","-37.84202994","145.01750687"
"19334","136-Irving Rd/Toorak Rd (Toorak)","-37.84231444","145.01995385"
"19335","137-Kooyong Rd/Toorak Rd (Toorak)","-37.84268703","145.02281896"
"19336","138-Moonga Rd/Toorak Rd (Toorak)","-37.84316656","145.02669265"
"19338","139-Glenferrie Rd/Toorak Rd (Toorak)","-37.84361827","145.02998756"
"19340","112-Lygon St/Elgin St (Carlton)","-37.79707383","144.96646768"
"19341","113-Lytton St/Lygon St (Carlton)","-37.79413759","144.96812674"
"19342","114-Princes St/Lygon St (Carlton North)","-37.79212480","144.96846579"
"19343","115-Melbourne Cemetery/Lygon St (Carlton North)","-37.78928546","144.96895236"
"19344","116-Fenwick St/Lygon St (Carlton North)","-37.78720080","144.96930468"
"19345","117-Richardson St/Lygon St (Carlton North)","-37.78408261","144.96982152"
"19346","118-Pigdon St/Lygon St (Carlton North)","-37.78153934","144.97023174"
"19348","120-Brunswick Rd/Lygon St (Brunswick)","-37.77811528","144.97077957"
"19349","121-Weston St/Lygon St (Brunswick East)","-37.77555281","144.97112212"
"19350","122-Glenlyon Rd/Lygon St (Brunswick East)","-37.77251529","144.97161387"
"19351","123-Albert St/Lygon St (Brunswick East)","-37.76964909","144.97211225"
"19352","124-Victoria St/Lygon St (Brunswick East)","-37.76807726","144.97241630"
"19353","125-Blyth St/Lygon St (Brunswick East)","-37.76644237","144.97272205"
"19354","126-Stewart St/Lygon St (Brunswick East)","-37.76429482","144.97308719"
"19355","127-Albion St/Holmes St (Brunswick East)","-37.76188739","144.97406103"
"19356","128-Mitchell St/Holmes St (Brunswick East)","-37.75926379","144.97451855"
"19357","129-Moreland Rd/Nicholson St (Coburg)","-37.75654111","144.97497874"
"19358","129-Moreland Rd/Holmes St (Brunswick)","-37.75657110","144.97462605"
"19359","130-Barrow St/Moreland Rd (Coburg)","-37.75605848","144.96997495"
"19360","131-De Carle St/Moreland Rd (Coburg)","-37.75566258","144.96635361"
"19361","132-Sydney Rd/Moreland Rd (Coburg)","-37.75534004","144.96385399"
"19362","133-Moreland Station/Cameron St (Coburg)","-37.75529201","144.96211869"
"19363","130-The Avenue/Nicholson St (Coburg)","-37.75337171","144.97618882"
"19364","131-Rennie St/Nicholson St (Coburg)","-37.75121728","144.97667882"
"19365","132-Crozier St/Nicholson St (Coburg)","-37.74939321","144.97698955"
"19366","133-Harding St/Nicholson St (Coburg)","-37.74605896","144.97752296"
"19367","134-Merribell Ave/Nicholson St (Coburg)","-37.74437098","144.97788668"
"19368","135-Bell St/Nicholson St (Coburg)","-37.74286119","144.97813204"
"19369","125A-Southbank Tram Depot/Light Rail (South Melbourne)","-37.82745257","144.95398843"
"19370","126-Montague St/Light Rail (South Melbourne)","-37.83024028","144.94846907"
"19371","127-North Port Station/Light Rail (Port Melbourne)","-37.83320837","144.94348967"
"19372","128-Graham St/Light Rail (Port Melbourne)","-37.83705429","144.93719006"
"19374","13-Lansdowne St/Victoria Pde (Fitzroy)","-37.80843491","144.97834381"
"19376","42-Grice Cres/Mt Alexander Rd (Essendon)","-37.75266296","144.91589421"
"19377","16-Wellington St/Victoria Pde (Collingwood)","-37.80927135","144.98613581"
"19379","18-Hoddle St/Victoria Pde (Collingwood)","-37.80972686","144.99064424"
"19381","19-North Richmond Railway Station/Victoria St (Abbotsford)","-37.80969430","144.99296233"
"19382","20-Lennox St/Victoria St (Abbotsford)","-37.80999428","144.99575984"
"19383","21-Church St/Victoria St (Abbotsford)","-37.81048970","145.00051721"
"19384","22-McKay St/Victoria St (Richmond)","-37.81082884","145.00404071"
"19385","23-Flockhart St/Victoria St (Abbotsford)","-37.81111112","145.00687288"
"19386","24-Burnley St/Victoria St (Richmond)","-37.81144088","145.01038534"
"19387","25-River Bvd/Victoria St (Richmond)","-37.81176843","145.01323906"
"19389","27-Findon Cres/Barkers Rd (Kew)","-37.81271281","145.02062002"
"19391","29-High St/Barkers Rd (Kew)","-37.81302615","145.02317888"
"19393","31-Stevenson St/High St (Kew)","-37.81022844","145.02616139"
"19394","32-Kew Junction/High St (Kew)","-37.80759248","145.02858281"
"19395","33-Kew Shopping Centre/High St (Kew)","-37.80681369","145.03051174"
"19396","34-QPO/Cotham Rd (Kew)","-37.80688691","145.03165700"
"19397","35-Charles St/Cotham Rd (Kew)","-37.80730828","145.03530325"
"19398","36-Glenferrie Rd/Cotham Rd (Kew)","-37.80762205","145.03790741"
"19399","37-Belmont Ave/Cotham Rd (Kew)","-37.80811893","145.04231278"
"19400","38-Marshall Ave/Cotham Rd (Kew)","-37.80852889","145.04583452"
"19401","39-Florence Ave/Cotham Rd (Kew)","-37.80893742","145.04927682"
"19402","40-St George's Hospital/Cotham Rd (Kew)","-37.80937608","145.05291148"
"19403","41-Kew Traffic School/Cotham Rd (Kew)","-37.80993225","145.05766764"
"19404","42-Burke Rd/Cotham Rd (Kew)","-37.81027630","145.06049838"
"19405","43-Deepdene Shopping Centre/Whitehorse Rd (Balwyn)","-37.81078738","145.06472195"
"19406","44-Deepdene Park/Whitehorse Rd (Balwyn)","-37.81123736","145.06852689"
"19407","45-Hardwicke St/Whitehorse Rd (Balwyn)","-37.81159053","145.07138022"
"19408","46-Balwyn Cinema/Whitehorse Rd (Balwyn)","-37.81211319","145.07578540"
"19409","47-Balwyn Rd/Whitehorse Rd (Balwyn)","-37.81276908","145.08118682"
"19410","48-Balwyn Shopping Centre/Whitehorse Rd (Balwyn)","-37.81306107","145.08362156"
"19411","49-Northcote Ave/Whitehorse Rd (Balwyn)","-37.81355182","145.08775511"
"19412","50-Wharton St/Whitehorse Rd (Surrey Hills)","-37.81403012","145.09168457"
"19413","51-Narrak Rd/Whitehorse Rd (Balwyn)","-37.81440479","145.09478749"
"19414","53-Union Rd/Whitehorse Rd (Balwyn)","-37.81494552","145.09924935"
"19416","54-Inglisby Rd/Whitehorse Rd (Mont Albert)","-37.81540450","145.10312266"
"19417","55-Hood St/Whitehorse Rd (Mont Albert)","-37.81616419","145.10945346"
"19418","56-Elgar Rd/Whitehorse Rd (Box Hill)","-37.81691144","145.11559159"
"19419","57-Nelson Rd/Whitehorse Rd (Box Hill)","-37.81745731","145.11986051"
"19421","61-Elgar Rd/Riversdale Rd (Surrey Hills)","-37.83760932","145.11037193"
"19422","60-Ferndale St/Riversdale Rd (Surrey Hills)","-37.83709005","145.10665805"
"19423","59-Alandale St/Riversdale Rd (Surrey Hills)","-37.83685934","145.10464130"
"19424","58-Wattle Park/Riversdale Rd (Surrey Hills)","-37.83653137","145.10218389"
"19425","57-Glendale St/Riversdale Rd (Surrey Hills)","-37.83620369","145.10030602"
"19426","56-Warrigal Rd/Riversdale Rd (Surrey Hills)","-37.83589695","145.09805265"
"19427","55-Union Rd/Riversdale Rd (Surrey Hills)","-37.83557473","145.09540199"
"19428","54-Through Rd/Riversdale Rd (Surrey Hills)","-37.83534070","145.09319223"
"19429","53-Essex Rd/Riversdale Rd (Surrey Hills)","-37.83508806","145.09094889"
"19430","52-Lockhart St/Riversdale Rd (Camberwell)","-37.83475409","145.08813951"
"19431","51-Highfield Rd/Riversdale Rd (Canterbury)","-37.83436725","145.08485430"
"19432","50-Wattle Valley Rd/Riversdale Rd (Canterbury)","-37.83411853","145.08120193"
"19433","49-Glyndon Rd/Riversdale Rd (Camberwell)","-37.83388980","145.07933301"
"19434","48-Cooloongatta Rd/Riversdale Rd (Camberwell)","-37.83365510","145.07710066"
"19435","47-Willow Gr/Riversdale Rd (Canterbury)","-37.83310960","145.07239936"
"19436","46-Spencer Rd/Riversdale Rd (Canterbury)","-37.83269847","145.06930810"
"19438","44-Derby St/Riversdale Rd (Camberwell)","-37.83233590","145.06588610"
"19439","43-Trafalgar Rd/Riversdale Rd (Camberwell)","-37.83206249","145.06350714"
"19440","42-Fermanagh Rd/Riversdale Rd (Camberwell)","-37.83168361","145.06019925"
"19441","41-Camberwell Market/517 Riversdale Rd (Camberwell)","-37.83140689","145.05762726"
"19442","40-Camberwell Junction/Riversdale Rd (Hawthorn East)","-37.83126992","145.05642645"
"19443","39-Camberwell Tram Depot/Riversdale Rd (Hawthorn East)","-37.83107214","145.05427282"
"19444","38-Hastings Rd/Riversdale Rd (Hawthorn East)","-37.83069020","145.05134006"
"19445","37-Tooronga Rd/Riversdale Rd (Hawthorn East)","-37.83025934","145.04763600"
"19446","36-Auburn Rd/Riversdale Rd (Hawthorn East)","-37.82977617","145.04350160"
"19447","35-Robinson Rd/Riversdale Rd (Hawthorn)","-37.82953651","145.04155368"
"19448","34-Kooyongkoot Rd/Riversdale Rd (Hawthorn)","-37.82917882","145.03847270"
"19449","33-Berkeley St/Riversdale Rd (Hawthorn)","-37.82897064","145.03679666"
"19450","32-Glenferrie Rd/Riversdale Rd (Hawthorn)","-37.82863483","145.03395374"
"19451","31-Fordholm Rd/Riversdale Rd (Hawthorn)","-37.82835063","145.03150715"
"19452","30-Through St/Riversdale Rd (Hawthorn)","-37.82807576","145.02908305"
"19454","29-Power St/Riversdale Rd (Hawthorn)","-37.82761428","145.02574364"
"19456","18-Yarra Bvd/Swan St (Burnley)","-37.82641976","145.02061738"
"19457","17-Madden Gr/Swan St (Burnley)","-37.82724846","145.01684592"
"19458","16-Park Gr/Swan St (Burnley)","-37.82719850","145.01227992"
"19459","15-Stawell St/Swan St (Richmond)","-37.82690101","145.00960659"
"19460","14-Burnley St/Swan St (Richmond)","-37.82659348","145.00687674"
"19461","13-Edinburgh St/Swan St (Richmond)","-37.82639233","145.00510977"
"19462","12-Coppin St/Swan St (Richmond)","-37.82610214","145.00234542"
"19463","11-Church St/Swan St (Richmond)","-37.82561005","144.99778009"
"19464","10-Swan Street Shopping Centre/Swan St (Richmond)","-37.82537981","144.99590035"
"19465","9-Lennox St/Swan St (Richmond)","-37.82509192","144.99328370"
"19466","8-Richmond Station/Swan St (Cremorne)","-37.82453158","144.98843633"
"19467","43-Brewster St/Mt Alexander Rd (Essendon)","-37.75022730","144.91422607"
"19468","44-Thorn St/Mt Alexander Rd (Essendon)","-37.74810148","144.91275361"
"19469","45-Glass St/Mt Alexander Rd (Essendon)","-37.74648648","144.91163004"
"19470","47-Mt Alexander Rd/Keilor Rd (Essendon)","-37.74395158","144.90894359"
"19471","48-Service St/Keilor Rd (Essendon North)","-37.74268759","144.90576757"
"19472","49-Essendon North PS/Keilor Rd (Essendon North)","-37.74150083","144.90288452"
"19473","50-Cooper St/Keilor Rd (Essendon North)","-37.74003205","144.89935136"
"19475","53-Keilor Rd/Matthews Ave (Niddrie)","-37.73525758","144.88936458"
"19477","54-Fullarton Rd/Matthews Ave (Niddrie)","-37.73235517","144.88983279"
"19478","55-Cameron St/Matthews Ave (Airport West)","-37.72991151","144.89025391"
"19479","56-Earl St/Matthews Ave (Airport West)","-37.72732353","144.89066774"
"19480","57-Hawker St/Matthews Ave (Airport West)","-37.72306487","144.89138987"
"19481","58-Marshall Rd/Matthews Ave (Airport West)","-37.71837305","144.89207881"
"19482","59-Airport West/Matthews Ave (Airport West)","-37.71384002","144.89056242"
"19489","1-Melbourne University/Swanston St (Carlton)","-37.79930548","144.96419183"
"19491","3-Lincoln Square/Swanston St (Carlton)","-37.80236978","144.96368745"
"19492","4-Queensberry St/Swanston St (Carlton)","-37.80569411","144.96310774"
"19494","7-RMIT University/Swanston St (Melbourne City)","-37.80813946","144.96329043"
"19495","8-Melbourne Central Station/Swanston St (Melbourne City)","-37.81038237","144.96427381"
"19497","10-Bourke Street Mall/Swanston St (Melbourne City)","-37.81319863","144.96558229"
"19498","11-City Square/Swanston St (Melbourne City)","-37.81637753","144.96701723"
"19499","13-Federation Square/Swanston St (Melbourne City)","-37.81847590","144.96798207"
"19500","14-Arts Precinct/St Kilda Rd (Southbank)","-37.82184570","144.96951422"
"19504","19-Shrine of Remembrance/St Kilda Rd (Melbourne City)","-37.82879869","144.97136874"
"19528","22-Toorak Rd/St Kilda Rd (Melbourne City)","-37.83595132","144.97539977"
"19539","23-Arthur St/St Kilda Rd (Melbourne City)","-37.83885520","144.97657033"
"19560","24-Leopold St/St Kilda Rd (South Melbourne)","-37.84115853","144.97740511"
"19561","25-Commercial Rd/St Kilda Rd (South Melbourne)","-37.84452295","144.97863142"
"19562","26-Moubray St/St Kilda Rd (South Melbourne)","-37.84755154","144.97971927"
"19563","27-High St/St Kilda Rd (South Melbourne)","-37.84986386","144.98055399"
"19565","29-Union St/St Kilda Rd (St Kilda)","-37.85300170","144.98170720"
"19566","30-St Kilda Junction/St Kilda Rd (St Kilda)","-37.85529579","144.98253116"
"19567","31-Queens Way/Queens Way (St Kilda)","-37.85624589","144.98749492"
"19568","30-St Kilda Junction/St Kilda Rd (St Kilda)","-37.85503126","144.98234516"
"19569","29-Union St/St Kilda Rd (St Kilda)","-37.85248340","144.98143720"
"19572","26-Beatrice St/St Kilda Rd (Melbourne City)","-37.84789461","144.97975537"
"19573","25-Commercial Rd/St Kilda Rd (Melbourne City)","-37.84401326","144.97833851"
"19574","24-Leopold St/St Kilda Rd (Melbourne City)","-37.84148319","144.97741896"
"19575","23-Arthur St/St Kilda Rd (Melbourne City)","-37.83929754","144.97661506"
"19589","13-Curzon St/Queensberry St (North Melbourne)","-37.80294186","144.94836153"
"19590","12-North Melbourne Town Hall/Errol St (North Melbourne)","-37.80322364","144.94953494"
"19591","14-Royal Melbourne Hospital/Flemington Rd (North Melbourne)","-37.79982567","144.95520532"
"19594","19-Royal Childrens Hospital/Flemington Rd (North Melbourne)","-37.79414113","144.94805992"
"19595","20-Melrose St/Flemington Rd (North Melbourne)","-37.79047421","144.94346007"
"19597","22-Flemington Bridge Station/Flemington Rd (North Melbourne)","-37.78805429","144.94060882"
"19598","23-Djerring Flemington Hub/Mt Alexander Rd (Flemington)","-37.78584274","144.93885341"
"19599","24-Mooltan St/Mt Alexander Rd (Flemington)","-37.78421823","144.93717261"
"19600","25-Mount Alexander College/Mt Alexander Rd (Travancore)","-37.78256524","144.93386898"
"19601","26-Wellington St/Mt Alexander Rd (Flemington)","-37.78143563","144.93266281"
"19602","27-Essendon Tram Depot/Mt Alexander Rd (Ascot Vale)","-37.77980781","144.93131160"
"19603","28-Middle St/Mt Alexander Rd (Ascot Vale)","-37.77769900","144.92976951"
"19604","29-Warrick St/Mt Alexander Rd (Ascot Vale)","-37.77574769","144.92847288"
"19605","30-Maribyrnong Rd/Mt Alexander Rd (Ascot Vale)","-37.77300833","144.92694856"
"19606","31-Montgomery St/Mt Alexander Rd (Moonee Ponds)","-37.77068587","144.92607115"
"19608","32-Moonee Ponds Junction/Pascoe Vale Rd (Moonee Ponds)","-37.76665343","144.92481021"
"19609","34-Moonee Valley Civic Centre/Pascoe Vale Rd (Moonee Ponds)","-37.76400466","144.92536102"
"19623","35-Queens Park/Pascoe Vale Rd (Moonee Ponds)","-37.76270199","144.92559040"
"19624","36-Murray St/Pascoe Vale Rd (Moonee Ponds)","-37.75986286","144.92607836"
"19625","37-Buckley St/Pascoe Vale Rd (Moonee Ponds)","-37.75825454","144.92635030"
"19626","38-Fletcher St/Pascoe Vale Rd (Essendon)","-37.75611321","144.92603553"
"19627","39-Hoddle St/Fletcher St (Essendon)","-37.75569314","144.92316425"
"19628","40-Nicholson St/Fletcher St (Essendon)","-37.75545596","144.92095755"
"19657","41-Fletcher St/Napier St (Essendon)","-37.75487922","144.91738701"
"19658","42-Shamrock St/Mt Alexander Rd (Essendon)","-37.75249642","144.91564919"
"19659","43-Thistle St/Mt Alexander Rd (Essendon)","-37.75066226","144.91436140"
"19660","44-Thorn St/Mt Alexander Rd (Essendon)","-37.74835469","144.91280325"
"19661","45-Leake St/Mt Alexander Rd (Essendon)","-37.74638439","144.91146268"
"19662","46-Lincoln Rd/Mt Alexander Rd (Essendon)","-37.74476958","144.91035051"
"19663","47-Mt Alexander Rd/Keilor Rd (Essendon)","-37.74416157","144.90909656"
"19664","48-Service St/Keilor Rd (Essendon)","-37.74282149","144.90569570"
"19665","49-Essendon North Primary School/Keilor Rd (Essendon North)","-37.74168259","144.90297018"
"19666","50-Cooper St/Keilor Rd (Essendon)","-37.74020440","144.89941458"
"19667","51-Bradshaw St/Keilor Rd (Essendon)","-37.73877237","144.89592590"
"19669","53A-Matthews Ave/Keilor Rd (Essendon)","-37.73655163","144.89016754"
"19670","53-Keilor Rd/Matthews Ave (Niddrie)","-37.73495933","144.88931631"
"19671","54-Fullarton Rd/Matthews Ave (Airport West)","-37.73237075","144.88969619"
"19672","55-Cameron St/Matthews Ave (Airport West)","-37.72996332","144.89012763"
"19673","56-Earl St/Matthews Ave (Airport West)","-37.72720522","144.89060302"
"19674","57-Hawker St/Matthews Ave (Airport West)","-37.72311709","144.89128628"
"19675","58-Marshall Rd/Matthews Ave (Airport West)","-37.71841626","144.89197548"
"19676","22-Toorak Rd/St Kilda Rd (Melbourne City)","-37.83547648","144.97503778"
"19679","19-Shrine of Remembrance/St Kilda Rd (Melbourne City)","-37.82893146","144.97122876"
"19684","14-Arts Precinct/St Kilda Rd (Southbank)","-37.82151653","144.96923923"
"19685","13-Federation Square/Swanston St (Melbourne City)","-37.81806508","144.96767526"
"19686","11-City Square/Swanston St (Melbourne City)","-37.81572996","144.96656925"
"19687","10-Bourke Street Mall/Swanston St (Melbourne City)","-37.81275921","144.96518542"
"19689","8-Melbourne Central Station/Swanston St (Melbourne City)","-37.80988909","144.96388980"
"19690","35-Carlisle St/St Kilda Rd (St Kilda)","-37.86754374","144.98680105"
"19691","7-RMIT University/Swanston St (Melbourne City)","-37.80779872","144.96286817"
"19693","4-Queensberry St/Swanston St (Carlton)","-37.80513545","144.96311173"
"19694","3-Lincoln Square/Swanston St (Carlton)","-37.80262884","144.96355540"
"19696","1-Melbourne University/Swanston St (Carlton)","-37.79876562","144.96424072"
"19697","34-Inkerman St/St Kilda Rd (St Kilda)","-37.86511320","144.98590098"
"19698","34-Inkerman St/St Kilda Rd (St Kilda)","-37.86406917","144.98545198"
"19699","15-Murphy St/Flemington Rd (North Melbourne)","-37.79758696","144.95239376"
"19700","33-Argyle St/St Kilda Rd (St Kilda)","-37.86248255","144.98489274"
"19701","33-Argyle St/St Kilda Rd (St Kilda)","-37.86208602","144.98489218"
"19702","32-Alma Rd/St Kilda Rd (St Kilda)","-37.85994487","144.98405254"
"19703","32-Alma Rd/St Kilda Rd (St Kilda)","-37.86098010","144.98451310"
"19704","31-Barkly St/St Kilda Rd (St Kilda)","-37.85796839","144.98335622"
"19705","31-Barkly St/St Kilda Rd (St Kilda)","-37.85826072","144.98358695"
"19706","15-Epworth Hospital/Bridge Rd (Richmond)","-37.81790945","144.99380768"
"19708","17-Bosisto St/Bridge Rd (Richmond)","-37.81827150","144.99654703"
"19709","18-Church St/Bridge Rd (Richmond)","-37.81847187","144.99879093"
"19710","19-Richmond Town Hall/Bridge Rd (Richmond)","-37.81875004","145.00137354"
"19711","20-Coppin St/Bridge Rd (Richmond)","-37.81897658","145.00357133"
"19712","21-Burnley St/Bridge Rd (Richmond)","-37.81953496","145.00887293"
"19713","22-Yarra Bvd/Bridge Rd (Richmond)","-37.82009867","145.01396998"
"19714","22-Yarra Bvd/Bridge Rd (Richmond)","-37.82015215","145.01340053"
"19715","21-Burnley St/Bridge Rd (Richmond)","-37.81948030","145.00777244"
"19716","20-Coppin St/Bridge Rd (Richmond)","-37.81908259","145.00397744"
"19717","19-Richmond Town Hall/Bridge Rd (Richmond)","-37.81881310","145.00137184"
"19718","18-Church St/Bridge Rd (Richmond)","-37.81861779","144.99942316"
"19719","17-Waltham St/Bridge Rd (Richmond)","-37.81829814","144.99652359"
"19721","125A-Southbank Tram Depot/Light Rail (South Melbourne)","-37.82769104","144.95370916"
"19722","126-Montague St/Light Rail (South Melbourne)","-37.83019138","144.94876583"
"19723","127-North Port Station/Light Rail (Port Melbourne)","-37.83343097","144.94333578"
"19724","128-Graham St/Light Rail (Port Melbourne)","-37.83703204","144.93746339"
"19725","129-Beacon Cove/Light Rail (Port Melbourne)","-37.84078946","144.93281332"
"19726","13-Lansdowne St/Victoria Pde (East Melbourne)","-37.80855099","144.97880634"
"19728","15-Smith St/Victoria Pde (East Melbourne)","-37.80892486","144.98221511"
"19729","16-Wellington St/Victoria Pde (East Melbourne)","-37.80929157","144.98573770"
"19731","18-Hoddle St/Victoria Pde (Collingwood)","-37.80979505","144.99041522"
"19732","19-North Richmond Railway Station/Victoria St (Richmond)","-37.80978642","144.99255091"
"19733","20-Lennox St/Victoria St (Richmond)","-37.81017296","144.99619801"
"19734","15-Epworth Hospital/Bridge Rd (Richmond)","-37.81802267","144.99357741"
"19735","22-McKay St/Victoria St (Richmond)","-37.81097624","145.00422985"
"19736","23-Leslie St/Victoria St (Richmond)","-37.81131297","145.00761715"
"19737","24-Burnley St/Victoria St (Richmond)","-37.81150853","145.01012226"
"19738","25-River Bvd/Victoria St (Richmond)","-37.81182593","145.01290810"
"19740","27-Findon St/Barkers Rd (Hawthorn)","-37.81287762","145.02077465"
"19742","29-Barkers Rd/High St (Kew)","-37.81296400","145.02377122"
"19744","31-Stevenson St/High St (Kew)","-37.81008101","145.02650609"
"19745","32-Kew Junction/High St (Kew)","-37.80743064","145.02914368"
"19746","34-High St/Cotham Rd (Kew)","-37.80698912","145.03130217"
"19747","35-Charles St/Cotham Rd (Kew)","-37.80747458","145.03554873"
"19748","36-Glenferrie Rd/Cotham Rd (Kew)","-37.80779906","145.03825484"
"19749","37-Belmont Ave/Cotham Rd (Kew)","-37.80831583","145.04277329"
"19750","38-Marshall Ave/Cotham Rd (Kew)","-37.80870569","145.04617062"
"19751","39-Thomas St/Cotham Rd (Kew)","-37.80911647","145.04974918"
"19752","40-St George's Hospital/Cotham Rd (Kew)","-37.80952265","145.05305530"
"19753","41-Kew Traffic School/Cotham Rd (Kew)","-37.81009796","145.05787912"
"19754","34-Kooyongkoot Rd/Riversdale Rd (Hawthorn)","-37.82930776","145.03863971"
"19755","35-Robinson Rd/Riversdale Rd (Hawthorn)","-37.82966224","145.04152763"
"19756","36-Auburn Rd/Riversdale Rd (Hawthorn East)","-37.82994303","145.04378124"
"19757","37-Tooronga Rd/Riversdale Rd (Hawthorn East)","-37.83038003","145.04784869"
"19758","38-Hastings Rd/Riversdale Rd (Hawthorn East)","-37.83083902","145.05162020"
"19759","39-Camberwell Tram Depot/Riversdale Rd (Hawthorn East)","-37.83121589","145.05479171"
"19760","40-Camberwell Junction/Riversdale Rd (Camberwell)","-37.83148910","145.05714789"
"19761","42-Fermanagh Rd/Riversdale Rd (Camberwell)","-37.83182755","145.06018411"
"19762","43-Trafalgar Rd/Riversdale Rd (Camberwell)","-37.83224844","145.06385451"
"19763","44-Derby St/Riversdale Rd (Camberwell)","-37.83248302","145.06606406"
"19764","46-Spencer Rd/Riversdale Rd (Camberwell)","-37.83294199","145.06986988"
"19765","47-Willow Gr/Riversdale Rd (Camberwell)","-37.83327621","145.07266772"
"19766","48-Cooloongatta Rd/Riversdale Rd (Camberwell)","-37.83379263","145.07724480"
"19767","49-Glyndon Rd/Riversdale Rd (Camberwell)","-37.83408416","145.07964613"
"19768","50-Wattle Valley Rd/Riversdale Rd (Canterbury)","-37.83429487","145.08151552"
"19769","51-Highfield Rd/Riversdale Rd (Camberwell)","-37.83453420","145.08514541"
"19770","52-Lockhart St/Riversdale Rd (Camberwell)","-37.83492269","145.08853286"
"19771","53-Essex Rd/Riversdale Rd (Camberwell)","-37.83521454","145.09096835"
"19772","54-Through Rd/Riversdale Rd (Camberwell)","-37.83553079","145.09380094"
"19773","55-Union Rd/Riversdale Rd (Canterbury)","-37.83576169","145.09581761"
"19774","56-Warrigal Rd/Riversdale Rd (Surrey Hills)","-37.83606460","145.09838923"
"19775","57-Glendale St/Riversdale Rd (Surrey Hills)","-37.83627117","145.10002021"
"19776","58-Wattle Park/1013 Riversdale Rd (Surrey Hills)","-37.83675452","145.10260998"
"19777","59-Alandale St/Riversdale Rd (Surrey Hills)","-37.83699720","145.10480822"
"19778","42-Burke Rd/Whitehorse Rd (Balwyn)","-37.81044443","145.06085747"
"19779","60-Ferndale St/Riversdale Rd (Surrey Hills)","-37.83720770","145.10668913"
"19781","58-Box Hill Central/Whitehorse Rd (Box Hill)","-37.81783515","145.12207754"
"19782","57-Nelson Rd/Whitehorse Rd (Box Hill)","-37.81742098","145.11871405"
"19783","56-Elgar Rd/Whitehorse Rd (Box Hill)","-37.81688389","145.11443355"
"19784","55-Hood St/Whitehorse Rd (Mont Albert)","-37.81634136","145.10982382"
"19785","54-Inglisby Rd/Whitehorse Rd (Mont Albert)","-37.81547972","145.10275721"
"19786","53-Union Rd/Whitehorse Rd (Surrey Hills)","-37.81511207","145.09951771"
"20482","15-Murphy St/Flemington Rd (North Melbourne)","-37.79748768","144.95238514"
"20490","12-Flemington Rd/Peel St (North Melbourne)","-37.80145599","144.95671633"
"20491","12-Flemington Rd/Peel St (North Melbourne)","-37.80177224","144.95676440"
"20492","11-Queensberry St/Peel St (North Melbourne)","-37.80362305","144.95644080"
"20493","11-Queensberry St/Peel St (North Melbourne)","-37.80330680","144.95639273"
"20494","126-City Rd/Light Rail (South Melbourne)","-37.82955117","144.95444174"
"20495","126-City Rd/Light Rail (South Melbourne)","-37.82918949","144.95437219"
"20496","127-South Melbourne Station/Light Rail (South Melbourne)","-37.83315604","144.95548977"
"20497","127-South Melbourne Station/Light Rail (South Melbourne)","-37.83303539","144.95528858"
"20498","128-Albert Park Station/Light Rail (South Melbourne)","-37.84023273","144.95874885"
"20499","128-Albert Park Station/Light Rail (South Melbourne)","-37.84007645","144.95857134"
"20500","129-Melbourne Sports and Aquatic Centre/Light Rail (Middle Park)","-37.84526677","144.96166702"
"20501","129-Melbourne Sports and Aquatic Centre/Light Rail (Middle Park)","-37.84548314","144.96167242"
"20502","130-Middle Park Station/Light Rail (Middle Park)","-37.84962583","144.96568380"
"20503","130-Middle Park Station/Light Rail (Middle Park)","-37.84958489","144.96540080"
"20504","131-Fraser St/Light Rail (Middle Park)","-37.85376429","144.97102550"
"20505","131-Fraser St/Light Rail (Middle Park)","-37.85398301","144.97116726"
"20506","132-St Kilda Station/Fitzroy St (St Kilda)","-37.85928510","144.97763712"
"20507","132-St Kilda Station/Fitzroy St (St Kilda)","-37.85904427","144.97725725"
"20508","133-Canterbury Rd/Fitzroy St (St Kilda)","-37.86018041","144.97677153"
"20509","133-Canterbury Rd/Fitzroy St (St Kilda)","-37.85993230","144.97701701"
"20510","134-Park St/Fitzroy St (St Kilda)","-37.86108259","144.97525782"
"20511","134-Park St/Fitzroy St (St Kilda)","-37.86095668","144.97527263"
"20512","135-Acland St/Fitzroy St (St Kilda)","-37.86205113","144.97341261"
"20513","135-Jacka Bvd/Fitzroy St (St Kilda)","-37.86241359","144.97300484"
"20514","136-Alfred Square/The Esplanade (St Kilda)","-37.86519747","144.97348556"
"20515","136-Alfred Square/The Esplanade (St Kilda)","-37.86529263","144.97377850"
"20518","138-Luna Park/The Esplanade (St Kilda)","-37.86698535","144.97683549"
"20519","138-Luna Park/The Esplanade (St Kilda)","-37.86700081","144.97721020"
"20520","139-Belford St/Acland St (St Kilda)","-37.86887714","144.97994401"
"20522","139-Belford St/Acland St (St Kilda)","-37.86880722","144.98007097"
"20523","48-Hawthorn Rd/Dandenong Rd (Malvern)","-37.86583600","145.02644044"
"20524","48-Hawthorn Rd/Dandenong Rd (Malvern)","-37.86588695","145.02679148"
"20525","52-Dandenong Rd/Glenferrie Rd (Malvern)","-37.86605722","145.02781001"
"20526","53-Malvern Railway Station/Glenferrie Rd (Malvern)","-37.86526359","145.02777434"
"20527","53-Malvern Railway Station/Glenferrie Rd (Malvern)","-37.86417955","145.02815562"
"20528","54-Wattletree Rd/Glenferrie Rd (Malvern)","-37.86247803","145.02825781"
"20529","54-Wattletree Rd/Glenferrie Rd (Malvern)","-37.86215775","145.02850505"
"20530","55-Llaneast St/Glenferrie Rd (Malvern)","-37.86114774","145.02846377"
"20531","55-Edsall St/Glenferrie Rd (Malvern)","-37.86103406","145.02867140"
"20532","56-Malvern Tram Depot/Glenferrie Rd (Malvern)","-37.85901804","145.02882741"
"20533","56-Malvern Tram Depot/Glenferrie Rd (Malvern)","-37.85884150","145.02904808"
"20534","57-High St/Glenferrie Rd (Malvern)","-37.85682509","145.02918135"
"20535","57-High St/Glenferrie Rd (Malvern)","-37.85649579","145.02942881"
"20536","58-Bell St/Glenferrie Rd (Malvern)","-37.85407422","145.02958422"
"20537","58-Sorrett Ave/Glenferrie Rd (Malvern)","-37.85409547","145.02977687"
"20538","59-Malvern Rd/Glenferrie Rd (Malvern)","-37.85183623","145.02993931"
"20539","59-Malvern Rd/Glenferrie Rd (Malvern)","-37.85152495","145.03018627"
"20540","60-Stonnington Pl/Glenferrie Rd (Malvern)","-37.84966243","145.03036085"
"20541","60-Stonnington Pl/Glenferrie Rd (Malvern)","-37.84967391","145.03050829"
"20542","61-Moorakyne Ave/Glenferrie Rd (Malvern)","-37.84770405","145.03073118"
"20543","61-Moorakyne Ave/Glenferrie Rd (Malvern)","-37.84773354","145.03087813"
"20544","62-Mayfield Ave/Glenferrie Rd (Malvern)","-37.84573666","145.03110172"
"20545","62-Mayfield Ave/Glenferrie Rd (Malvern)","-37.84536194","145.03132761"
"20546","63-Toorak Rd/Glenferrie Rd (Malvern)","-37.84393985","145.03143361"
"20547","63-Toorak Rd/Glenferrie Rd (Kooyong)","-37.84364620","145.03165734"
"20548","64-Mernda Rd/Glenferrie Rd (Kooyong)","-37.84247481","145.03166576"
"20549","64-Power St/Glenferrie Rd (Kooyong)","-37.84184000","145.03196673"
"20550","65-Warra St/Glenferrie Rd (Toorak)","-37.84004052","145.03213956"
"20551","65-Kooyong Railway Station/Glenferrie Rd (Kooyong)","-37.83933346","145.03243108"
"20552","66-Kooyong Tennis Centre/Glenferrie Rd (Toorak)","-37.83849403","145.03235111"
"20553","66-Vision Australia/Glenferrie Rd (Kooyong)","-37.83833625","145.03261666"
"20554","67-Gardiner Rd/Glenferrie Rd (Hawthorn)","-37.83555701","145.03294049"
"20555","67-Gardiner Rd/Glenferrie Rd (Hawthorn)","-37.83545138","145.03309101"
"20556","68-Callantina Rd/Glenferrie Rd (Hawthorn)","-37.83342728","145.03330384"
"20557","68-Callantina Rd/Glenferrie Rd (Hawthorn)","-37.83322332","145.03350242"
"20558","69-South St/Glenferrie Rd (Hawthorn)","-37.83138762","145.03366479"
"20559","69-South St/Glenferrie Rd (Hawthorn)","-37.83111179","145.03387663"
"20560","70-Riversdale Rd/Glenferrie Rd (Hawthorn)","-37.82897940","145.03408094"
"20561","70-Riversdale Rd/Glenferrie Rd (Hawthorn)","-37.82863208","145.03432876"
"20562","71-Urquhart St/Glenferrie Rd (Hawthorn)","-37.82604142","145.03461337"
"20563","71-Urquhart St/Glenferrie Rd (Hawthorn)","-37.82597315","145.03484241"
"20564","72-Manningtree Rd/Glenferrie Rd (Hawthorn)","-37.82415489","145.03497017"
"20565","72-Manningtree Rd/Glenferrie Rd (Hawthorn)","-37.82402337","145.03518952"
"20566","73-Burwood Rd/Glenferrie Rd (Hawthorn)","-37.82270898","145.03526982"
"20567","73-Burwood Rd/Glenferrie Rd (Hawthorn)","-37.82249563","145.03544589"
"20569","74-Glenferrie Station/Glenferrie Rd (Hawthorn)","-37.82053476","145.03566829"
"20570","75-Chrystobel Cres/Glenferrie Rd (Hawthorn)","-37.81888148","145.03596205"
"20571","75-Liddiard St/Glenferrie Rd (Hawthorn)","-37.81860640","145.03621927"
