fullDate,location,leakClass,month,date,weekday,year,week,lon,lat,ObjectId
1294963200000,1205 W FAYETTE ST,0,1.0,14.0,,2011.0,2.0,-76.1755746057759,43.046733230433105,1
1294963200000,1003 JAMESVILLE AVE,0,1.0,14.0,,2011.0,2.0,-76.12891836828341,43.0168952398567,2
1294963200000,PALMER AVE & CHENEY ST,0,1.0,14.0,,2011.0,2.0,-76.162257176012,43.0300222543868,3
1295136000000,2100 E FAYETTE ST,0,1.0,16.0,,2011.0,3.0,-76.11368295094621,43.0481581239255,4
1295222400000,206 BUTTERNUT ST,0,1.0,17.0,,2011.0,3.0,-76.15193611820071,43.0577131761086,5
1295740800000,104 CROLY ST,0,1.0,23.0,,2011.0,4.0,-76.1129337964234,43.0503665597289,6
1295568000000,169 MARSHALL ST,0,1.0,21.0,,2011.0,3.0,-76.1351535135851,43.0416673820757,7
1295481600000,356 NICHOLS AVE,0,1.0,20.0,,2011.0,3.0,-76.1034576580358,43.0627852023022,8
1296000000000,634 RICHMOND AVE,0,1.0,26.0,,2011.0,4.0,-76.17680541000459,43.0503435066048,9
1296000000000,1559 LEMOYNE AVE,0,1.0,26.0,,2011.0,4.0,-76.14912006238,43.083098621823,10
1296000000000,313 SEELEY RD,0,1.0,26.0,,2011.0,4.0,-76.10381653589009,43.0512061436391,11
1296086400000,543 CUMBERLAND AVE,0,1.0,27.0,,2011.0,4.0,-76.1126517038646,43.0361600036413,12
1296086400000,LOCKWOOD RD & KIMBER RD,0,1.0,27.0,,2011.0,4.0,-76.09344634472441,43.038227848591006,13
1296172800000,543 CUMBERLAND AVE,0,1.0,28.0,,2011.0,4.0,-76.1126517038646,43.0361600036413,14
1296345600000,1225 W FAYETTE ST,0,1.0,30.0,,2011.0,5.0,-76.1759312549101,43.0468643214129,15
1296432000000,HIGHRIDGE PL & HIGHRIDGE DR,0,1.0,31.0,,2011.0,5.0,-76.1996898652051,43.0268318678504,16
1296432000000,400 BROOKFORD RD,0,1.0,31.0,,2011.0,5.0,-76.1008283907088,43.03721169488271,17
1296432000000,425 RICH ST,0,1.0,31.0,,2011.0,5.0,-76.1610865975349,43.031281459834204,18
1296432000000,425 RICH ST,0,1.0,31.0,,2011.0,5.0,-76.1610865975349,43.031281459834204,19
1296777600000,312 ARNOLD AVE,0,2.0,4.0,,2011.0,5.0,-76.12563526127859,43.016952856780605,20
1296950400000,718 SUMMIT AVE,0,2.0,6.0,,2011.0,6.0,-76.1655913207997,43.0205766617243,21
1296691200000,S MCBRIDE ST & MONROE ST,0,2.0,3.0,,2011.0,5.0,-76.1439983950428,43.0416164824396,22
1297036800000,819 HIAWATHA BLVD E,0,2.0,7.0,,2011.0,6.0,-76.1603079055073,43.079280080165795,23
1297123200000,305 MAPLEWOOD AVE,0,2.0,8.0,,2011.0,6.0,-76.1366035777099,42.9889747617576,24
1297209600000,2410 ERIE BLVD E,0,2.0,9.0,,2011.0,6.0,-76.1052124342983,43.0533367265069,25
1297296000000,422 HAWLEY AVE,0,2.0,10.0,,2011.0,6.0,-76.1384435861266,43.0532376319575,26
1297296000000,700 E WASHINGTON ST,0,2.0,10.0,,2011.0,6.0,-76.1420746582517,43.0494091434208,27
1297296000000,250 WHEATON RD,0,2.0,10.0,,2011.0,6.0,-76.1261912869984,43.0702990344592,28
1297468800000,518 HILLSBORO PKWY,0,2.0,12.0,,2011.0,7.0,-76.0856279861081,43.0402747106008,29
1297555200000,2564 ERIE BLVD E,0,2.0,13.0,,2011.0,7.0,-76.1021500586301,43.0536962987634,30
1297555200000,115 TURTLE ST,0,2.0,13.0,,2011.0,7.0,-76.16198141837259,43.0662651145183,31
1297555200000,175 MILNOR AVE,0,2.0,13.0,,2011.0,7.0,-76.1009779817632,43.047532979130104,32
1297728000000,S EDWARDS AVE & CALEB AVE,0,2.0,15.0,,2011.0,7.0,-76.1055412769811,43.059803493172396,33
1297728000000,100 KEEN PL,0,2.0,15.0,,2011.0,7.0,-76.1573325774884,43.0156233490615,34
1297728000000,204 HERKIMER ST,0,2.0,15.0,,2011.0,7.0,-76.18985424978679,43.05425734839379,35
1297814400000,606 THURBER ST,0,2.0,16.0,,2011.0,7.0,-76.1258886239179,43.0193627081386,36
1297900800000,1524 VALLEY DR,0,2.0,17.0,,2011.0,7.0,-76.153280286225,43.0029984483794,37
1297814400000,513 FAYETTE BLVD,0,2.0,16.0,,2011.0,7.0,-76.0943668295314,43.0493528423051,38
1297814400000,640 MYRTLE ST,0,2.0,16.0,,2011.0,7.0,-76.1954786763409,43.050096438250996,39
1297900800000,SOLAR ST & PLUM ST,0,2.0,17.0,,2011.0,7.0,-76.1575424257355,43.05660659665279,40
1297900800000,300 HOPE AVE,0,2.0,17.0,,2011.0,7.0,-76.1513480630494,43.020623470743104,41
1297987200000,232 W DIVISION ST,0,2.0,18.0,,2011.0,7.0,-76.1575546176705,43.059192750628995,42
1298246400000,209 KENWICK DR,0,2.0,21.0,,2011.0,8.0,-76.1352721226436,43.0749985930133,43
1298332800000,304 SUNSET AVE,0,2.0,22.0,,2011.0,8.0,-76.16139091082059,43.0658969005507,44
1298419200000,206 MYRTLE ST,0,2.0,23.0,,2011.0,8.0,-76.19241719539471,43.0456418280344,45
1298851200000,1913 BELLEVUE AVE,0,2.0,28.0,,2011.0,9.0,-76.1855550332113,43.032413945581595,46
1298419200000,217 SCOTTHOLM BLVD,0,2.0,23.0,,2011.0,8.0,-76.11152075905791,43.0434521942782,47
1298505600000,E WILLOW ST & PROSPECT AVE,0,2.0,24.0,,2011.0,8.0,-76.14777505802431,43.05386973628939,48
1298937600000,515 DANFORTH ST,0,3.0,1.0,,2011.0,9.0,-76.15728591629771,43.066918499316394,49
1299024000000,519 DANFORTH ST,0,3.0,2.0,,2011.0,9.0,-76.1572532086382,43.06696255865789,50
1299024000000,519 DANFORTH ST,0,3.0,2.0,,2011.0,9.0,-76.1572532086382,43.06696255865789,51
1299196800000,2507 E FAYETTE ST,0,3.0,4.0,,2011.0,9.0,-76.10928928819659,43.0484226568921,52
1299456000000,170 INTREPID LA,0,3.0,7.0,,2011.0,10.0,-76.1281162329218,43.0034246570712,53
1299628800000,S WILBUR AVE & MAGNOLIA ST,0,3.0,9.0,,2011.0,10.0,-76.17404671520809,43.04244621273911,54
1299715200000,VAN RENSSELAER ST & W BEAR ST,0,3.0,10.0,,2011.0,10.0,-76.1701901605568,43.061196761575204,55
1300060800000,658 E DIVISION ST,0,3.0,14.0,,2011.0,11.0,-76.1489471447727,43.06332599384971,56
1300320000000,290 TEX SIMONE DR,0,3.0,17.0,,2011.0,11.0,-76.166954732534,43.078124168259,57
1300320000000,829 EMERSON AVE,0,3.0,17.0,,2011.0,11.0,-76.1913621348733,43.0580348806298,58
1300320000000,EMERSON AVE & ERIE BLVD W,0,3.0,17.0,,2011.0,11.0,-76.1966963274371,43.0599445510374,59
1300665600000,W GENESEE ST & N FRANKLIN ST,0,3.0,21.0,,2011.0,12.0,-76.1550570209063,43.0519588244318,60
1300838400000,MONTGOMERY ST & E JEFFERSON ST,0,3.0,23.0,,2011.0,12.0,-76.149341179094,43.047050626943594,61
1300924800000,DAWES AVE & S SALINA ST,0,3.0,24.0,,2011.0,12.0,-76.1425452101706,43.008857220453905,62
1301097600000,411 MONTGOMERY ST,0,3.0,26.0,,2011.0,13.0,-76.14875103805458,43.0465268130733,63
1301616000000,1000 ERIE BLVD W,0,4.0,1.0,,2011.0,13.0,-76.17537416468659,43.0481569751011,64
1302652800000,912 ERIE BLVD W,0,4.0,13.0,,2011.0,15.0,-76.1733134024754,43.0481462417986,65
1302652800000,JAMES ST & WOODBINE AVE,0,4.0,13.0,,2011.0,15.0,-76.1100569372345,43.06868611731621,66
1303948800000,807 S WEST ST,0,4.0,28.0,,2011.0,17.0,-76.1575479333065,43.0422366433761,67
1303689600000,334 FOREST HILL DR,0,4.0,25.0,,2011.0,17.0,-76.1109393487448,43.0630657820018,68
1303516800000,JAMES ST & WOODBINE AVE,0,4.0,23.0,,2011.0,17.0,-76.1100569372345,43.06868611731621,69
1303430400000,819 HIAWATHA BLVD E,0,4.0,22.0,,2011.0,16.0,-76.1603079055073,43.079280080165795,70
1303084800000,HIAWATHA BLVD E & FOURTH NORTH ST,0,4.0,18.0,,2011.0,16.0,-76.1606184728639,43.0787644487803,71
1305331200000,EMERSON AVE & LEWIS ST,0,5.0,14.0,,2011.0,20.0,-76.1896054281312,43.0561398518159,72
1305072000000,835 HIAWATHA BLVD W,0,5.0,11.0,,2011.0,19.0,-76.1779068128149,43.0610455458993,73
1303084800000,835 HIAWATHA BLVD W,0,4.0,18.0,,2011.0,16.0,-76.1779068128149,43.0610455458993,74
1304640000000,4710 S SALINA ST,0,5.0,6.0,,2011.0,18.0,-76.14286256789251,43.001677037914,75
1304553600000,1427 S MCBRIDE ST,0,5.0,5.0,,2011.0,18.0,-76.1435761338586,43.036630954996006,76
1304380800000,3012 E GENESEE ST,0,5.0,3.0,,2011.0,18.0,-76.10063322542509,43.04254785893371,77
1304380800000,123 POLK ST,0,5.0,3.0,,2011.0,18.0,-76.0933410325287,43.053679243870704,78
1305676800000,E LAUREL ST & PROSPECT AVE,0,5.0,18.0,,2011.0,20.0,-76.1501886461398,43.0568767813506,79
1305590400000,MAPLEWOOD AVE & COLDBROOK DR,0,5.0,17.0,,2011.0,20.0,-76.1399593790825,42.9882332363507,80
1306800000000,299 WALTON ST,0,5.0,31.0,,2011.0,22.0,-76.1569375505288,43.048046490924705,81
1306195200000,162 BERTRAM PL,0,5.0,24.0,,2011.0,21.0,-76.1593051413085,43.017340304116004,82
1307059200000,W WATER ST & S FRANKLIN ST,0,6.0,3.0,,2011.0,22.0,-76.1555098832006,43.05056510061,83
1307318400000,W GENESEE ST & N LOWELL AVE,0,6.0,6.0,,2011.0,23.0,-76.1850983512804,43.0522661709184,84
1307145600000,E DIVISION ST & LOCK ALY,0,6.0,4.0,,2011.0,23.0,-76.153781188624,43.0602575112281,85
1275868800000,BURNS AVE & CALEB AVE,0,6.0,7.0,,2010.0,23.0,-76.09153483041109,43.0629999007653,86
1307318400000,2646 ERIE BLVD E,0,6.0,6.0,,2011.0,23.0,-76.0990615132411,43.0540501601318,87
1306972800000,LATTER DR & E CHELTENHAM RD,0,6.0,2.0,,2011.0,22.0,-76.13877767137741,42.995339166716995,88
1308268800000,321 N BEECH ST,0,6.0,17.0,,2011.0,24.0,-76.12765200963409,43.053344231306106,89
1308528000000,1312 W GENESEE ST,0,6.0,20.0,,2011.0,25.0,-76.17943375386349,43.0527052435646,90
1308614400000,RICH ST & WHITE ST,0,6.0,21.0,,2011.0,25.0,-76.16179377468279,43.036697793642,91
1308873600000,1900 W FAYETTE ST,0,6.0,24.0,,2011.0,25.0,-76.18496115877359,43.053703124788896,92
1309132800000,100 S CLINTON ST,0,6.0,27.0,,2011.0,26.0,-76.1536195817044,43.0505255530518,93
1309219200000,316 HAWLEY AVE,0,6.0,28.0,,2011.0,26.0,-76.14152954346929,43.053276171480796,94
1309305600000,318 LYDELL ST,0,6.0,29.0,,2011.0,26.0,-76.17849317823509,43.035360834202606,95
1309478400000,300 W KIRKPATRICK ST,0,7.0,1.0,,2011.0,26.0,-76.1609967624132,43.0610156722351,96
1309392000000,300 E FAYETTE ST,0,6.0,30.0,,2011.0,26.0,-76.14926414586341,43.048605685862,97
1309392000000,300 S STATE ST,0,6.0,30.0,,2011.0,26.0,-76.1474930310425,43.048631676667995,98
1262649600000,100 WAVERLY AVE,0,1.0,5.0,,2010.0,1.0,-76.1366253618556,43.040482658413495,99
1262822400000,UNIVERSITY AVE & MADISON ST,0,1.0,7.0,,2010.0,1.0,-76.1343648089353,43.045354774941394,100
1201046400000,ASH ST & N TOWNSEND ST,0,1.0,23.0,,2008.0,4.0,-76.150930342849,43.059833573519896,101
1201046400000,HIAWATHA LAKE,0,1.0,23.0,,2008.0,4.0,-76.1691993071203,43.0246771460122,102
1201132800000,290 TEX SIMONE DR,0,1.0,24.0,,2008.0,4.0,-76.166954732534,43.078124168259,103
1201132800000,JAMESVILLE AVE & THURBER ST,0,1.0,24.0,,2008.0,4.0,-76.13089663281221,43.019064257124796,104
1201392000000,200 CROLY ST,0,1.0,27.0,,2008.0,4.0,-76.1127281927162,43.0480993677704,105
1201305600000,107 MARIPOSA ST,0,1.0,26.0,,2008.0,4.0,-76.1222608665762,43.0620325526589,106
1201478400000,STANDISH DR & SHIRLEY RD,0,1.0,28.0,,2008.0,4.0,-76.1060350934692,43.0374471863455,107
1201737600000,JANET DR & EUCLID AVE,0,1.0,31.0,,2008.0,5.0,-76.10812134717321,43.0349146720556,108
1202169600000,1211 MILTON AVE,0,2.0,5.0,,2008.0,6.0,-76.19782200362471,43.059088825588,109
1202256000000,103 MCCORMICK AVE,0,2.0,6.0,,2008.0,6.0,-76.1563855959738,43.0439690379134,110
1202428800000,115 ROCKLAND AVE,0,2.0,8.0,,2008.0,6.0,-76.1557453666708,43.0239772330276,111
1202860800000,200 MEADOWBROOK DR,0,2.0,13.0,,2008.0,7.0,-76.1204896349743,43.025181909876004,112
1202947200000,STERLING AVE & PALMER AVE,0,2.0,14.0,,2008.0,7.0,-76.16233899456809,43.031721251341295,113
1203033600000,214 SLOCUM AVE,0,2.0,15.0,,2008.0,7.0,-76.1612237334479,43.0406674739141,114
1203120000000,BARNES AVE & PALMER LA,0,2.0,16.0,,2008.0,7.0,-76.1606007832394,43.011965471549,115
1203206400000,TEALL AVE & JAMES ST,0,2.0,17.0,,2008.0,7.0,-76.1226974549908,43.0650226858171,116
1203465600000,2740 ERIE BLVD E,0,2.0,20.0,,2008.0,8.0,-76.0957333027241,43.0544086851791,117
1203638400000,171 HOPPER RD,0,2.0,22.0,,2008.0,8.0,-76.1591165157601,43.0010092621659,118
1204156800000,408 N GEDDES ST,0,2.0,28.0,,2008.0,9.0,-76.17053967077929,43.0523434211761,119
1204329600000,E JEFFERSON ST & BANK ST,0,3.0,1.0,,2008.0,9.0,-76.1515041956357,43.0470544076284,120
1204502400000,805 SPENCER ST,0,3.0,3.0,,2008.0,9.0,-76.17221283509829,43.057218877897796,121
1204502400000,HEADSON DR & THOMPSON RD,0,3.0,3.0,,2008.0,9.0,-76.0827985399998,43.0549982875117,122
1204588800000,2921 ERIE BLVD E,0,3.0,4.0,,2008.0,10.0,-76.09014139698002,43.0550718361872,123
1204675200000,2820 JAMES ST,0,3.0,5.0,,2008.0,10.0,-76.1072666621642,43.0687597808233,124
1204934400000,800 E WASHINGTON ST,0,3.0,8.0,,2008.0,10.0,-76.1398870664988,43.0493872617142,125
1205020800000,357 N EDWARDS AVE,0,3.0,9.0,,2008.0,10.0,-76.10690012437541,43.0752583946204,126
1205452800000,E WASHINGTON ST & S MCBRIDE ST,0,3.0,14.0,,2008.0,11.0,-76.143879563202,43.04949200998261,127
1205539200000,1300 JAMESVILLE AVE,0,3.0,15.0,,2008.0,11.0,-76.1262809783896,43.013643942802894,128
1205712000000,501 MYRTLE ST,0,3.0,17.0,,2008.0,11.0,-76.1947317918608,43.048673347800396,129
1205971200000,SIXTH NORTH ST & WOLF ST,0,3.0,20.0,,2008.0,12.0,-76.157173284629,43.080480437186296,130
1206144000000,RIEGEL ST & PEAT ST,0,3.0,22.0,,2008.0,12.0,-76.11564700412721,43.0551161541299,131
1206316800000,221 RIVOLI AVE,0,3.0,24.0,,2008.0,12.0,-76.1337187944818,43.078940376315096,132
1206403200000,1130 AVERY AVE,0,3.0,25.0,,2008.0,13.0,-76.19854034234,43.0579075430003,133
1206835200000,LEMOYNE AVE & SEVENTH NORTH ST,0,3.0,30.0,,2008.0,13.0,-76.15363887392341,43.0800405064169,134
1206921600000,GLENCOVE RD & S COLLINGWOOD AVE,0,3.0,31.0,,2008.0,13.0,-76.10716021180299,43.064055941266204,135
1206921600000,RIEGEL ST & PEAT ST,0,3.0,31.0,,2008.0,13.0,-76.11564700412721,43.0551161541299,136
1207008000000,PEAT ST & RIEGEL ST,0,4.0,1.0,,2008.0,14.0,-76.11564700412721,43.0551161541299,137
1207008000000,1300 E COLVIN ST,0,4.0,1.0,,2008.0,14.0,-76.1285728259195,43.0237489782916,138
1207526400000,100 E CASTLE ST,0,4.0,7.0,,2008.0,14.0,-76.14876942028029,43.033001385607605,139
1207612800000,1143 CUMBERLAND AVE,0,4.0,8.0,,2008.0,15.0,-76.11221947856741,43.0248547287138,140
1207699200000,1345 TEALL AVE,0,4.0,9.0,,2008.0,15.0,-76.12284556202829,43.066344869210994,141
1207785600000,CHEMUNG ST & WILLIS AVE,0,4.0,10.0,,2008.0,15.0,-76.1958102561903,43.0574914641854,142
1207872000000,601 GRAND AVE,0,4.0,11.0,,2008.0,15.0,-76.18106553369559,43.038383457214096,143
1208131200000,132 BRACE ST,0,4.0,14.0,,2008.0,15.0,-76.1533837739423,43.075643191028796,144
1208217600000,E COLVIN ST & COMSTOCK AVE,0,4.0,15.0,,2008.0,16.0,-76.12866119948221,43.0238528082229,145
1209081600000,123 POLK ST,0,4.0,25.0,,2008.0,17.0,-76.0933410325287,43.053679243870704,146
1208476800000,313 SAND ST,0,4.0,18.0,,2008.0,16.0,-76.1676834926048,43.0563195397371,147
1208822400000,BURT ST & S STATE ST,0,4.0,22.0,,2008.0,17.0,-76.1473709607752,43.03824548556789,148
1208908800000,124 HEADSON DR,0,4.0,23.0,,2008.0,17.0,-76.0863082515267,43.054987511427704,149
1207699200000,W SENECA TPKE & S SALINA ST,0,4.0,9.0,,2008.0,15.0,-76.14273309011729,43.0006902097672,150
1209081600000,VAN BUREN ST & OAKWOOD AVE,0,4.0,25.0,,2008.0,17.0,-76.1455516378645,43.03742535683829,151
1209513600000,ERIE BLVD E & UNIVERSITY AVE,0,4.0,30.0,,2008.0,18.0,-76.1342425086992,43.0506869262284,152
1209686400000,HERKIMER ST & CHARLOTTE ST,0,5.0,2.0,,2008.0,18.0,-76.1933086915675,43.05287327761379,153
1210032000000,836 ERIE BLVD W,0,5.0,6.0,,2008.0,19.0,-76.1716972739904,43.0481558367803,154
1210723200000,2740 ERIE BLVD E,0,5.0,14.0,,2008.0,20.0,-76.0957333027241,43.0544086851791,155
1210464000000,2400 S SALINA ST,0,5.0,11.0,,2008.0,19.0,-76.14461927912609,43.023961600887006,156
1211241600000,333 ELM ST,0,5.0,20.0,,2008.0,21.0,-76.1302467663828,43.05317248585071,157
1211241600000,333 ELM ST,0,5.0,20.0,,2008.0,21.0,-76.1302467663828,43.05317248585071,158
1211500800000,319 HILLSIDE ST,0,5.0,23.0,,2008.0,21.0,-76.1417480739335,43.0778250430718,159
1211500800000,319 HILLSIDE ST,0,5.0,23.0,,2008.0,21.0,-76.1417480739335,43.0778250430718,160
1211587200000,100 HAYES TER,0,5.0,24.0,,2008.0,21.0,-76.13800032592441,42.9862176009124,161
1211846400000,320 HAWLEY AVE,0,5.0,27.0,,2008.0,22.0,-76.1414152499174,43.05327480416571,162
1212364800000,WOODLAND RESRV,0,6.0,2.0,,2008.0,22.0,-76.1787697129173,43.028837852896096,163
1212451200000,205 APPLE ST,0,6.0,3.0,,2008.0,23.0,-76.1754577367541,43.0511157848252,164
1212451200000,207 BURNET AVE,0,6.0,3.0,,2008.0,23.0,-76.14541115482879,43.0523434047655,165
1213056000000,438 BROOKFORD RD,0,6.0,10.0,,2008.0,24.0,-76.0988782632113,43.0366006321465,166
1213142400000,310 LODI ST,0,6.0,11.0,,2008.0,24.0,-76.1332564118422,43.0525832906704,167
1213401600000,1318 WILLIS AVE,0,6.0,14.0,,2008.0,24.0,-76.1974458538624,43.0599674850358,168
1213574400000,315 KIRK AVE,0,6.0,16.0,,2008.0,24.0,-76.152578254627,43.0282167455327,169
1213574400000,461 BURT ST,0,6.0,16.0,,2008.0,24.0,-76.14449225375171,43.038431557926295,170
1213920000000,290 TEX SIMONE DR,0,6.0,20.0,,2008.0,25.0,-76.166954732534,43.078124168259,171
1214179200000,306 SLOCUM AVE,0,6.0,23.0,,2008.0,25.0,-76.1604066851542,43.0400680364616,172
1214438400000,1807 ERIE BLVD E,0,6.0,26.0,,2008.0,26.0,-76.1180790687915,43.0502080261646,173
1214524800000,319 LYDELL ST,0,6.0,27.0,,2008.0,26.0,-76.1783437407927,43.0353661566667,174
1214870400000,LODI ST & BURNET AVE,0,7.0,1.0,,2008.0,27.0,-76.1325194636275,43.0521227952639,175
1214870400000,BURNET PARK,0,7.0,1.0,,2008.0,27.0,-76.1885505041537,43.0423404354687,176
1215043200000,1060 E GENESEE ST,0,7.0,3.0,,2008.0,27.0,-76.1352005179323,43.046829999717296,177
1215302400000,100 S WARREN ST,0,7.0,6.0,,2008.0,27.0,-76.1508451106949,43.0509013362084,178
1215561600000,100 OXFORD ST,0,7.0,9.0,,2008.0,28.0,-76.1520127624607,43.03399940417871,179
1216166400000,1000 S SALINA ST,0,7.0,16.0,,2008.0,29.0,-76.149905772945,43.0378465178148,180
1216684800000,TRUTH TER & OAKWOOD AVE,0,7.0,22.0,,2008.0,30.0,-76.14539080439441,43.035585387811004,181
1216857600000,124 LAFAYETTE RD,0,7.0,24.0,,2008.0,30.0,-76.13017383665651,43.0008307800813,182
1217376000000,200 UNION PL,0,7.0,30.0,,2008.0,31.0,-76.15725694203651,43.0636008822164,183
1217635200000,128 CONKLIN AVE,0,8.0,2.0,,2008.0,31.0,-76.08932261403959,43.065377842962796,184
1217808000000,539 CUMBERLAND AVE,0,8.0,4.0,,2008.0,31.0,-76.11265768215291,43.0362454672198,185
1217894400000,SCOTTHOLM TER & SUNNYSIDE RD,0,8.0,5.0,,2008.0,32.0,-76.1105027342791,43.038609125784596,186
1218499200000,MANOR DR & BARRINGTON RD,0,8.0,12.0,,2008.0,33.0,-76.08242641558829,43.0412338261491,187
1218931200000,E ADAMS ST & HARRISON PL,0,8.0,17.0,,2008.0,33.0,-76.150176358085,43.042766715802706,188
1219276800000,PEARL ST & E BELDEN AVE,0,8.0,21.0,,2008.0,34.0,-76.1512384227707,43.054803961941204,189
1219881600000,940 N SALINA ST,0,8.0,28.0,,2008.0,35.0,-76.15538352078279,43.063495039699106,190
1220313600000,257 PLEASANTVIEW AVE,0,9.0,2.0,,2008.0,36.0,-76.1342415600783,43.0744635292983,191
1220400000000,NORTH AVE & ARNETT AVE,0,9.0,3.0,,2008.0,36.0,-76.1135058903088,43.0698539841157,192
1220486400000,NORTH AVE & ARNETT AVE,0,9.0,4.0,,2008.0,36.0,-76.1135058903088,43.0698539841157,193
1220918400000,347 SEYMOUR ST,0,9.0,9.0,,2008.0,37.0,-76.1620851612115,43.0423026348962,194
1221091200000,175 LINCOLN AVE,0,9.0,11.0,,2008.0,37.0,-76.1571179816452,43.037102586902506,195
1221523200000,325 N BEECH ST,0,9.0,16.0,,2008.0,38.0,-76.12765996601259,43.053448448341506,196
1221868800000,515 ERIE BLVD W,0,9.0,20.0,,2008.0,38.0,-76.16101778119429,43.049898569373,197
1221955200000,309 KIRKPATRICK ST,0,9.0,21.0,,2008.0,38.0,-76.15657021413779,43.065049744669,198
1222041600000,100 TULLY ST,0,9.0,22.0,,2008.0,38.0,-76.1572009635195,43.04581329455879,199
1222214400000,240 SHOTWELL PARK,0,9.0,24.0,,2008.0,39.0,-76.1154190548272,43.062872046427294,200
1222300800000,325 STAFFORD AVE,0,9.0,25.0,,2008.0,39.0,-76.11218386126471,43.0632285470287,201
1222300800000,609 CARBON ST,0,9.0,25.0,,2008.0,39.0,-76.15138474755071,43.0672290541282,202
1222387200000,WAVERLY AVE & WALNUT PL,0,9.0,26.0,,2008.0,39.0,-76.13287515605579,43.040508439281595,203
1222819200000,121 POND ST,0,10.0,1.0,,2008.0,40.0,-76.1533875675277,43.063543017025005,204
1222819200000,302 FOREST HILL DR,0,10.0,1.0,,2008.0,40.0,-76.1110027203965,43.063758422299,205
1223164800000,N MCBRIDE ST & JAMES ST,0,10.0,5.0,,2008.0,40.0,-76.144558365265,43.0542992500407,206
1223424000000,308 LAKEVIEW AVE,0,10.0,8.0,,2008.0,41.0,-76.1794748419063,43.05138751599111,207
1223424000000,428 E COLVIN ST,0,10.0,8.0,,2008.0,41.0,-76.1396697002512,43.026386535502795,208
1223596800000,300 SECOND NORTH ST,0,10.0,10.0,,2008.0,41.0,-76.1546430430874,43.0732951669687,209
1223769600000,580 S SALINA ST,0,10.0,12.0,,2008.0,41.0,-76.1517907555164,43.0430927930612,210
1223164800000,1605 E FAYETTE ST,0,10.0,5.0,,2008.0,40.0,-76.123320355792,43.04839211010611,211
1223337600000,339 NORWOOD AVE,0,10.0,7.0,,2008.0,41.0,-76.1100322578187,43.074468786687795,212
1224288000000,308 LODI ST,0,10.0,18.0,,2008.0,42.0,-76.1332226190178,43.0525654057485,213
1224288000000,HICKORY ST & N STATE ST,0,10.0,18.0,,2008.0,42.0,-76.1497876031626,43.054165305797206,214
1224374400000,441 S SALINA ST,0,10.0,19.0,,2008.0,42.0,-76.1521866879778,43.0459549472213,215
1224547200000,400 CADILLAC ST,0,10.0,21.0,,2008.0,43.0,-76.14957935930671,43.0797226278051,216
1225065600000,611 7TH NORTH ST,0,10.0,27.0,,2008.0,43.0,-76.17406756869909,43.094020467144496,217
1225065600000,227 E KENNEDY ST,0,10.0,27.0,,2008.0,43.0,-76.1447349192526,43.0313466850055,218
1225324800000,2943 ERIE BLVD E,0,10.0,30.0,,2008.0,44.0,-76.0894327016793,43.055139291447894,219
1225670400000,118 CONAN ST,0,11.0,3.0,,2008.0,44.0,-76.14987632527159,43.011579681722495,220
1226275200000,N SALINA ST & ASH ST,0,11.0,10.0,,2008.0,45.0,-76.15216067007229,43.05930538134379,221
1226448000000,119 SEELEY RD,0,11.0,12.0,,2008.0,46.0,-76.1040248974253,43.053277295265396,222
1227052800000,ONONDAGA BLVD,0,11.0,19.0,,2008.0,47.0,-76.1937652746837,43.032171360141795,223
1227139200000,N MIDLER AVE & JAMES ST,0,11.0,20.0,,2008.0,47.0,-76.1053322453027,43.0689058869489,224
1227225600000,159 CLYDE AVE,0,11.0,21.0,,2008.0,47.0,-76.1615652450711,43.02158561699161,225
1227657600000,515 WILKINSON ST,0,11.0,26.0,,2008.0,48.0,-76.17095113331541,43.0509849668206,226
1227830400000,400 BROOKFORD RD,0,11.0,28.0,,2008.0,48.0,-76.1008283907088,43.03721169488271,227
1228003200000,SHERBOURNE RD & CRAWFORD AVE,0,11.0,30.0,,2008.0,48.0,-76.1100603023235,43.0320613587013,228
1228003200000,522 HILLSBORO PKWY,0,11.0,30.0,,2008.0,48.0,-76.085520139765,43.0402272219304,229
1228003200000,285 ASHDALE AVE,0,11.0,30.0,,2008.0,48.0,-76.1087963754137,43.073065694688,230
1228176000000,285 ASHDALE AVE,0,12.0,2.0,,2008.0,49.0,-76.1087963754137,43.073065694688,231
1228176000000,MADISON ST & S STATE ST,0,12.0,2.0,,2008.0,49.0,-76.1475096876045,43.045467800024994,232
1228262400000,MALTBIE ST & EVANS ST,0,12.0,3.0,,2008.0,49.0,-76.16223023374,43.0557325290641,233
1228262400000,WALNUT AVE & ERIE BLVD E,0,12.0,3.0,,2008.0,49.0,-76.1320152895642,43.0506676202083,234
1228262400000,120 BOSTON ST,0,12.0,3.0,,2008.0,49.0,-76.0908167072915,43.067960482841606,235
1228262400000,660 BURNET AVE,0,12.0,3.0,,2008.0,49.0,-76.13405879334209,43.0520906276284,236
1228348800000,105 HILLTOP RD,0,12.0,4.0,,2008.0,49.0,-76.1944350935938,43.0268030847164,237
1228348800000,HOPE AVE & W BRIGHTON AVE,0,12.0,4.0,,2008.0,49.0,-76.15096829846641,43.019853506055696,238
1228435200000,PEAT ST & CANAL ST,0,12.0,5.0,,2008.0,49.0,-76.11556165968359,43.0541999804733,239
1228521600000,200 GENANT DR,0,12.0,6.0,,2008.0,49.0,-76.15484676033259,43.0567602236543,240
1228521600000,200 GENANT DR,0,12.0,6.0,,2008.0,49.0,-76.15484676033259,43.0567602236543,241
1228694400000,100 GRAND AVE,0,12.0,8.0,,2008.0,49.0,-76.1721388902757,43.040984090972,242
1228780800000,ARCHER RD & BELLEVUE AVE,0,12.0,9.0,,2008.0,50.0,-76.1904654823708,43.0302459508846,243
1228694400000,100 BROOKFORD RD,0,12.0,8.0,,2008.0,49.0,-76.1054065602312,43.042413186536294,244
1228867200000,215 GRAND AVE,0,12.0,10.0,,2008.0,50.0,-76.17479154524109,43.039282147070104,245
1228867200000,215 GRAND AVE,0,12.0,10.0,,2008.0,50.0,-76.17479154524109,43.039282147070104,246
1228953600000,152 TEJAH AVE,0,12.0,11.0,,2008.0,50.0,-76.1243366944331,43.0142215247211,247
1228953600000,2250 PARK ST,0,12.0,11.0,,2008.0,50.0,-76.1726481694648,43.076006024229706,248
1229040000000,LOWER ONONDAG PARK DR,0,12.0,12.0,,2008.0,50.0,-76.163350662868,43.0287417900568,249
1229126400000,509 E SENECA TPKE,0,12.0,13.0,,2008.0,50.0,-76.13343782122391,43.002880466528104,250
1229126400000,107 BRADFORD PKWY,0,12.0,13.0,,2008.0,50.0,-76.1067012328799,43.04158967651961,251
1229558400000,1937 W FAYETTE ST,0,12.0,18.0,,2008.0,51.0,-76.1858810938116,43.054427544323396,252
1229558400000,2900 ERIE BLVD E,0,12.0,18.0,,2008.0,51.0,-76.09076639714401,43.0549016715837,253
1229644800000,914 E BRIGHTON AVE,0,12.0,19.0,,2008.0,51.0,-76.1303764444823,43.003696304468406,254
1229731200000,12 CENTENNIAL DR,0,12.0,20.0,,2008.0,51.0,-76.1600146073637,43.0272217075731,255
1229904000000,590 BOYDEN ST,0,12.0,22.0,,2008.0,51.0,-76.1181473551261,43.061312791681004,256
1229990400000,120 RILL AVE,0,12.0,23.0,,2008.0,52.0,-76.1480615083105,43.01199353121329,257
1229990400000,255 ROCKLAND AVE,0,12.0,23.0,,2008.0,52.0,-76.1581446419289,43.0239448621521,258
1229990400000,LINCOLN AVE & MIDLAND AVE,0,12.0,23.0,,2008.0,52.0,-76.1573900930228,43.0393766491708,259
1230076800000,141 MIDLAND AVE,0,12.0,24.0,,2008.0,52.0,-76.1572050526507,43.039321721574204,260
1230249600000,312 IRVING AVE,0,12.0,26.0,,2008.0,52.0,-76.1378314552274,43.0477781619098,261
1230249600000,815 ERIE BLVD E,0,12.0,26.0,,2008.0,52.0,-76.13978348805159,43.050817007683705,262
1230249600000,208 ALTON ST,0,12.0,26.0,,2008.0,52.0,-76.19526808788208,43.0233627948952,263
1230595200000,218 NORTH AVE,0,12.0,30.0,,2008.0,53.0,-76.1134662512485,43.0702148520446,264
1167955200000,709 SOUTH AVE,0,1.0,5.0,,2007.0,1.0,-76.15869818560358,43.031713646712895,265
1167955200000,129 COLLEGE PL,0,1.0,5.0,,2007.0,1.0,-76.1314573594159,43.0384410959923,266
1168214400000,244 WHEATON RD,0,1.0,8.0,,2007.0,2.0,-76.1261838821855,43.070186668716794,267
1168387200000,E RAYNOR AVE & S STATE ST,0,1.0,10.0,,2007.0,2.0,-76.1471654846287,43.0355091171165,268
1168473600000,POLK ST & LIME ST,0,1.0,11.0,,2007.0,2.0,-76.0941513892717,43.0535813130386,269
1168905600000,E DIVISION ST & GILBERT AVE,0,1.0,16.0,,2007.0,3.0,-76.1461249669334,43.067251007564295,270
1168992000000,HARDING ST & HUNTLEY ST,0,1.0,17.0,,2007.0,3.0,-76.13806664405021,43.0778824085717,271
1169164800000,N CHELTENHAM RD & SUNRISE DR,0,1.0,19.0,,2007.0,3.0,-76.13785196646029,42.996248371066706,272
1169251200000,N CHELTENHAM RD & SUNRISE DR,0,1.0,20.0,,2007.0,3.0,-76.13785196646029,42.996248371066706,273
1169251200000,132 LYNN CIR,0,1.0,20.0,,2007.0,3.0,-76.1365026295299,42.993688126628896,274
1169424000000,JAMES ST & RIDGEWOOD DR,0,1.0,22.0,,2007.0,4.0,-76.0939986909448,43.0694277496342,275
1169424000000,POND ST & GRIFFITHS ST,0,1.0,22.0,,2007.0,4.0,-76.1483181201562,43.070212227761004,276
1169424000000,746 N ALVORD ST,0,1.0,22.0,,2007.0,4.0,-76.153940933336,43.065396529411494,277
1169856000000,HUNT AVE & ELMHURST AVE,0,1.0,27.0,,2007.0,4.0,-76.1557242598549,43.0209442211105,278
1169596800000,547 RICHMOND AVE,0,1.0,24.0,,2007.0,4.0,-76.1752525543567,43.0502016270985,279
1169683200000,223 WOODLAWN TER,0,1.0,25.0,,2007.0,4.0,-76.131235957936,43.0717064302864,280
1169596800000,621 HAWLEY AVE,0,1.0,24.0,,2007.0,4.0,-76.13411503057391,43.054180133367204,281
1169856000000,100 ALANSON RD,0,1.0,27.0,,2007.0,4.0,-76.172825488817,43.0272584345467,282
1169769600000,N ALVORD ST & DANFORTH ST,0,1.0,26.0,,2007.0,4.0,-76.1573602267346,43.066703607851,283
1169769600000,RUGBY RD & DURSTON AVE,0,1.0,26.0,,2007.0,4.0,-76.12718429908651,43.0673796455382,284
1169942400000,400 LIBERTY ST,0,1.0,28.0,,2007.0,4.0,-76.17368450909571,43.053798234829905,285
1170028800000,S SALINA ST & E COLVIN ST,0,1.0,29.0,,2007.0,5.0,-76.14529134921429,43.025540237859,286
1170201600000,1604 SPRING ST,0,1.0,31.0,,2007.0,5.0,-76.1627282202076,43.0734000916011,287
1170288000000,UNIVERSITY AVE & E WATER ST,0,2.0,1.0,,2007.0,5.0,-76.1342538975404,43.0502796420932,288
1170201600000,1604 SPRING ST,0,1.0,31.0,,2007.0,5.0,-76.1627282202076,43.0734000916011,289
1170374400000,E COLVIN ST & HUGHES PL,0,2.0,2.0,,2007.0,5.0,-76.1335303710544,43.02573074476479,290
1170288000000,115 PARKVIEW AVE,0,2.0,1.0,,2007.0,5.0,-76.16248485581741,43.026521480144794,291
1170374400000,133 CHATHAM RD,0,2.0,2.0,,2007.0,5.0,-76.1259700076894,43.066319907078295,292
1170374400000,100 BELLSHIRE LA,0,2.0,2.0,,2007.0,5.0,-76.153154846377,43.07962874820661,293
1170374400000,336 AINSLEY DR,0,2.0,2.0,,2007.0,5.0,-76.12663087398941,43.01123499682139,294
1170460800000,555 BUCKINGHAM AVE,0,2.0,3.0,,2007.0,5.0,-76.12033134014321,43.023048725698395,295
1170460800000,100 AINSLEY DR,0,2.0,3.0,,2007.0,5.0,-76.133802565077,43.0111171529661,296
1170460800000,971 E BRIGHTON AVE,0,2.0,3.0,,2007.0,5.0,-76.12985156964159,43.003059552968,297
1170547200000,901 JAMESVILLE AVE,0,2.0,4.0,,2007.0,5.0,-76.1300859005733,43.0182366598464,298
1170547200000,173 HOPPER RD,0,2.0,4.0,,2007.0,5.0,-76.15912727847551,43.0009520987083,299
1170633600000,552 OAKWOOD AVE,0,2.0,5.0,,2007.0,6.0,-76.1447286103844,43.03260259650929,300
1170633600000,901 JAMESVILLE AVE,0,2.0,5.0,,2007.0,6.0,-76.1300859005733,43.0182366598464,301
1170633600000,1347 LANCASTER AVE,0,2.0,5.0,,2007.0,6.0,-76.1219818785951,43.027309270573205,302
1170720000000,238 W JEFFERSON ST,0,2.0,6.0,,2007.0,6.0,-76.15442270072121,43.04747173235379,303
1170720000000,1302 COMSTOCK AVE,0,2.0,6.0,,2007.0,6.0,-76.1284323680366,43.0205293449891,304
1170720000000,336 AINSLEY DR,0,2.0,6.0,,2007.0,6.0,-76.12663087398941,43.01123499682139,305
1170806400000,518 JAMES ST,0,2.0,7.0,,2007.0,6.0,-76.14565129875879,43.053700019961504,306
1170720000000,LAKEVIEW AVE & APPLE ST,0,2.0,6.0,,2007.0,6.0,-76.17937077477549,43.05126361282579,307
1170806400000,WASHINGTON ST,0,2.0,7.0,,2007.0,6.0,-76.1389462743765,43.0504920375512,308
1170806400000,201 E GENESEE PKWY,0,2.0,7.0,,2007.0,6.0,-76.0920646567656,43.0427788221914,309
1170892800000,100 E GLEN AVE,0,2.0,8.0,,2007.0,6.0,-76.1431316151167,43.0053499648262,310
1170979200000,1809 E FAYETTE ST,0,2.0,9.0,,2007.0,6.0,-76.1196367295278,43.0483385389684,311
1170979200000,205 E GENESEE ST,0,2.0,9.0,,2007.0,6.0,-76.15065454927701,43.050133607111505,312
1171152000000,E CASTLE ST & S STATE ST,0,2.0,11.0,,2007.0,6.0,-76.14697961960309,43.033496200741304,313
1171238400000,929 AVERY AVE,0,2.0,12.0,,2007.0,7.0,-76.196468383527,43.054745728083404,314
1171238400000,E SENECA TPKE & E BRIGHTON AVE,0,2.0,12.0,,2007.0,7.0,-76.129411345745,43.002022187053605,315
1171238400000,1813 E FAYETTE ST,0,2.0,12.0,,2007.0,7.0,-76.1195283873146,43.0483372148702,316
1171238400000,100 HEADSON DR,0,2.0,12.0,,2007.0,7.0,-76.087388384926,43.055158502195795,317
1171238400000,944 E BRIGHTON AVE,0,2.0,12.0,,2007.0,7.0,-76.13009282388921,43.0032191346475,318
1171324800000,205 APPLE ST,0,2.0,13.0,,2007.0,7.0,-76.1754577367541,43.0511157848252,319
1171324800000,BRADFORD PKWY & MEADOWBROOK DR,0,2.0,13.0,,2007.0,7.0,-76.10635184572659,43.0405572388694,320
1171324800000,921 TYSON PL,0,2.0,13.0,,2007.0,7.0,-76.1026601022855,43.071023213300506,321
1171497600000,BRADFORD PKWY & MEADOWBROOK DR,0,2.0,15.0,,2007.0,7.0,-76.10635184572659,43.0405572388694,322
1171497600000,109 BRADFORD PKWY,0,2.0,15.0,,2007.0,7.0,-76.1066884435652,43.041524780001296,323
1171670400000,474 HICKOK AVE,0,2.0,17.0,,2007.0,7.0,-76.1133731669205,43.0594745872707,324
1171670400000,318 SUNSET AVE,0,2.0,17.0,,2007.0,7.0,-76.161474169376,43.0659352969239,325
1171670400000,306 SCOTT AVE,0,2.0,17.0,,2007.0,7.0,-76.10778378184901,43.0389023592201,326
1171756800000,1000 S STATE ST,0,2.0,18.0,,2007.0,7.0,-76.1476490657124,43.040529070796396,327
1171756800000,316 CARLTON DR,0,2.0,18.0,,2007.0,7.0,-76.088727190008,43.043336876843206,328
1171929600000,308 MALTBIE ST,0,2.0,20.0,,2007.0,8.0,-76.1624165694827,43.0564522492151,329
1171929600000,1951 E FAYETTE ST,0,2.0,20.0,,2007.0,8.0,-76.11591951795009,43.0482943402007,330
1172016000000,100 MARVIN RD,0,2.0,21.0,,2007.0,8.0,-76.1578866493725,43.0119522345402,331
1172188800000,2527 GRANT BLVD,0,2.0,23.0,,2007.0,8.0,-76.1503618377333,43.074052581413405,332
1172188800000,156 OAKLAND ST,0,2.0,23.0,,2007.0,8.0,-76.14042835894959,43.0338945526312,333
1172275200000,100 N SALINA ST,0,2.0,24.0,,2007.0,8.0,-76.15211511560591,43.05092624160051,334
1172534400000,518 N TOWNSEND ST,0,2.0,27.0,,2007.0,9.0,-76.14737125991421,43.0554285219553,335
1172707200000,ESSEX ST & AVERY AVE,0,3.0,1.0,,2007.0,9.0,-76.19674546887641,43.0552899565342,336
1172707200000,516 HILLSBORO PKWY,0,3.0,1.0,,2007.0,9.0,-76.0856870575246,43.0402998579805,337
1172880000000,HOVEY ST & MIDLAND AVE,0,3.0,3.0,,2007.0,9.0,-76.1552060810563,43.0333536249834,338
1172966400000,811 E WASHINGTON ST,0,3.0,4.0,,2007.0,9.0,-76.1397841492116,43.049496608462,339
1172966400000,410 ENGLEWOOD AVE,0,3.0,4.0,,2007.0,9.0,-76.15766859860871,43.0042686974761,340
1173139200000,300 SEELEY RD,0,3.0,6.0,,2007.0,10.0,-76.10397341497641,43.051293193218605,341
1173225600000,1000 ERIE BLVD E,0,3.0,7.0,,2007.0,10.0,-76.1363963336789,43.050662817006,342
1173225600000,621 BALLANTYNE RD,0,3.0,7.0,,2007.0,10.0,-76.1505144893478,43.010364578091,343
1173312000000,900 JAMESVILLE AVE,0,3.0,8.0,,2007.0,10.0,-76.1302119557673,43.0181775853925,344
1173398400000,241 SCOTTHOLM BLVD,0,3.0,9.0,,2007.0,10.0,-76.11100075128941,43.04305491548221,345
1173744000000,204 KRAMER DR,0,3.0,13.0,,2007.0,11.0,-76.1565242698025,43.00132473306721,346
1174003200000,1416 COURT ST,0,3.0,16.0,,2007.0,11.0,-76.1470742193891,43.0779209299796,347
1174003200000,464 BUCKINGHAM AVE,0,3.0,16.0,,2007.0,11.0,-76.1207283550745,43.025968982639,348
1174089600000,GRANT BLVD & HIAWATHA BLVD E,0,3.0,17.0,,2007.0,11.0,-76.1614953552437,43.077541237024,349
1174089600000,BUCKINGHAM AVE & MEADOWBROOK DR,0,3.0,17.0,,2007.0,11.0,-76.1205763780948,43.0251617526048,350
1237420800000,220 HAYDEN AVE,0,3.0,19.0,,2009.0,12.0,-76.1966005553497,43.0534718344133,351
1174348800000,100 W DIVISION ST,0,3.0,20.0,,2007.0,12.0,-76.1554632363828,43.0595934632816,352
1174867200000,ARDEN DR & S GEDDES ST,0,3.0,26.0,,2007.0,13.0,-76.1743618729559,43.021514017481394,353
1174867200000,198 INTREPID LA,0,3.0,26.0,,2007.0,13.0,-76.12758458837709,43.003076840039796,354
1175040000000,333 E WASHINGTON ST,0,3.0,28.0,,2007.0,13.0,-76.1483765789217,43.0495899841061,355
1175126400000,200 MARSHALL ST,0,3.0,29.0,,2007.0,13.0,-76.1344024384642,43.0415517271061,356
1175212800000,328 FOREST HILL DR,0,3.0,30.0,,2007.0,13.0,-76.1109512316594,43.06319565146401,357
1175472000000,135 FAGE AVE,0,4.0,2.0,,2007.0,14.0,-76.1483321329764,43.02361491545879,358
1175990400000,100 TEX SIMONE DR,0,4.0,8.0,,2007.0,14.0,-76.16330289225779,43.075213334003706,359
1176163200000,404 SEDGWICK DR,0,4.0,10.0,,2007.0,15.0,-76.13197065497259,43.0658329163861,360
1176163200000,PEARL ST & E BELDEN AVE,0,4.0,10.0,,2007.0,15.0,-76.1512384227707,43.054803961941204,361
1176508800000,325 S SALINA ST,0,4.0,14.0,,2007.0,15.0,-76.1521572241348,43.048274241724904,362
1177200000000,105 MCDONALD RD,0,4.0,22.0,,2007.0,16.0,-76.17662979565479,43.019014407326296,363
1177200000000,1440 W GENESEE ST,0,4.0,22.0,,2007.0,16.0,-76.18250346068271,43.0521463203476,364
1177372800000,309 HOPE AVE,0,4.0,24.0,,2007.0,17.0,-76.1511799622086,43.02059170954829,365
1177632000000,S CLINTON ST & W TAYLOR ST,0,4.0,27.0,,2007.0,17.0,-76.1515462242146,43.0389853995218,366
1177632000000,400 PROSPECT AVE,0,4.0,27.0,,2007.0,17.0,-76.1501541050188,43.056941341316005,367
1177632000000,412 PROSPECT AVE,0,4.0,27.0,,2007.0,17.0,-76.1502679871423,43.057080975523206,368
1177977600000,318 SUNSET AVE,0,5.0,1.0,,2007.0,18.0,-76.161474169376,43.0659352969239,369
1178064000000,1020 HIAWATHA BLVD W,0,5.0,2.0,,2007.0,18.0,-76.1825670272688,43.0576144745765,370
1178409600000,117 PHILLIPS RD,0,5.0,6.0,,2007.0,18.0,-76.0932149881145,43.046918699344396,371
1178496000000,418 WESTMORELAND AVE,0,5.0,7.0,,2007.0,19.0,-76.11471209866491,43.0468341073454,372
1178582400000,334 FOREST HILL DR,0,5.0,8.0,,2007.0,19.0,-76.1109393487448,43.0630657820018,373
1179187200000,249 LILAC ST,0,5.0,15.0,,2007.0,20.0,-76.15424903032559,43.0645640472891,374
1179360000000,1215 MADISON ST,0,5.0,17.0,,2007.0,20.0,-76.12849100736341,43.0453982871581,375
1179446400000,412 SPENCER ST,0,5.0,18.0,,2007.0,20.0,-76.1637321306568,43.057619343527605,376
1179705600000,945 E GENESEE ST,0,5.0,21.0,,2007.0,21.0,-76.1371992505748,43.0469838133615,377
1179878400000,SMITH ST & POLK ST,0,5.0,23.0,,2007.0,21.0,-76.0907668337252,43.0537605036767,378
1179878400000,SUNSET AVE & TURTLE ST,0,5.0,23.0,,2007.0,21.0,-76.1620076294159,43.06611647476849,379
1179964800000,102 HEADSON DR,0,5.0,24.0,,2007.0,21.0,-76.0872983728362,43.055144253147404,380
1180396800000,500 HAWLEY AVE,0,5.0,29.0,,2007.0,22.0,-76.1363361797926,43.0532072621764,381
1180569600000,W TAYLOR ST & MIDLAND AVE,0,5.0,31.0,,2007.0,22.0,-76.156060719353,43.0383626293182,382
1180656000000,626 PARK AVE,0,6.0,1.0,,2007.0,22.0,-76.16737916943771,43.052227630104,383
1180656000000,WYOMING ST & OTISCO ST,0,6.0,1.0,,2007.0,22.0,-76.1600019716609,43.046372533488295,384
1180656000000,2208 JAMES ST,0,6.0,1.0,,2007.0,22.0,-76.11635755714391,43.0680563044649,385
1181174400000,217 LAMSON ST,0,6.0,7.0,,2007.0,23.0,-76.10021846607191,43.0714017575678,386
1181260800000,HARRISON ST & OSTROM AVE,0,6.0,8.0,,2007.0,23.0,-76.128896955142,43.0441473985713,387
1181347200000,S LOWELL AVE & WHITTIER AVE,0,6.0,9.0,,2007.0,23.0,-76.1801822472262,43.04595160763311,388
1181433600000,1204 S GEDDES ST,0,6.0,10.0,,2007.0,23.0,-76.174086737849,43.0359227363833,389
1181606400000,231 ELLIOTT ST,0,6.0,12.0,,2007.0,24.0,-76.1714119995989,43.0349556459909,390
1181692800000,506 E BRIGHTON AVE,0,6.0,13.0,,2007.0,24.0,-76.1350879536373,43.0131265087665,391
1181779200000,S LOWELL AVE & WHITTIER AVE,0,6.0,14.0,,2007.0,24.0,-76.1801822472262,43.04595160763311,392
1181779200000,RICHMOND AVE & WALL ST,0,6.0,14.0,,2007.0,24.0,-76.1730238799509,43.050218448606,393
1182124800000,211 PALMER AVE,0,6.0,18.0,,2007.0,25.0,-76.1623196466535,43.0331303561168,394
1181865600000,201 AINSLEY DR,0,6.0,15.0,,2007.0,24.0,-76.13112852841121,43.011273763073596,395
1182211200000,AMY ST & DELAWARE ST,0,6.0,19.0,,2007.0,25.0,-76.1746611700489,43.0404118609309,396
1182297600000,115 E JEFFERSON ST,0,6.0,20.0,,2007.0,25.0,-76.15187674674691,43.0471146851972,397
1182297600000,W FAYETTE ST & S GEDDES ST,0,6.0,20.0,,2007.0,25.0,-76.17095953795321,43.0458132413826,398
1182384000000,COMSTOCK AVE & COMSTOCK PL,0,6.0,21.0,,2007.0,25.0,-76.1307094095339,43.046317246489494,399
1182384000000,100 W FAYETTE ST,0,6.0,21.0,,2007.0,25.0,-76.1522649042896,43.04875535407471,400
1275436800000,207 BRADFORD PKWY,0,6.0,2.0,,2010.0,22.0,-76.105662987024,43.03959498422339,401
1241395200000,732 ERIE BLVD W,0,5.0,4.0,,2009.0,18.0,-76.1677949016664,43.0484249059521,402
1273708800000,1153 W FAYETTE ST,0,5.0,13.0,,2010.0,19.0,-76.1733104308484,43.0462815688336,403
1241568000000,381 MIDLAND AVE,0,5.0,6.0,,2009.0,18.0,-76.1558423658569,43.0367634424687,404
1275782400000,W BEAR ST & VAN RENSSELAER ST,0,6.0,6.0,,2010.0,23.0,-76.1701901605568,43.061196761575204,405
1276128000000,2 FORESTRY DR,0,6.0,10.0,,2010.0,23.0,-76.1369213729114,43.035385795806505,406
1241568000000,152 FOREST HILL DR,0,5.0,6.0,,2009.0,18.0,-76.111307622977,43.0673075757553,407
1276300800000,401 SMITH ST,0,6.0,12.0,,2010.0,24.0,-76.09084478772891,43.05379236126701,408
1241568000000,WALLACE ST & HERALD PL,0,5.0,6.0,,2009.0,18.0,-76.15620032653129,43.0533834527777,409
1276473600000,1002 BURNET AVE,0,6.0,14.0,,2010.0,24.0,-76.1254748697795,43.0532460426237,410
1241740800000,238 HAYDEN AVE,0,5.0,8.0,,2009.0,19.0,-76.1967387000708,43.053666682114105,411
1276473600000,LOCKWOOD RD & EDGEMONT DR,0,6.0,14.0,,2010.0,24.0,-76.0856413090221,43.0385534680474,412
1241913600000,232 E ONONDAGA ST,0,5.0,10.0,,2009.0,19.0,-76.1499225786273,43.04609610718679,413
1276560000000,ERIE BLVD E & COLUMBUS AVE,0,6.0,15.0,,2010.0,24.0,-76.1215539373634,43.049316209298105,414
1242000000000,232 E ONONDAGA ST,0,5.0,11.0,,2009.0,19.0,-76.1499225786273,43.04609610718679,415
1276646400000,ERIE BLVD E & COLUMBUS AVE,0,6.0,16.0,,2010.0,24.0,-76.1215539373634,43.049316209298105,416
1242086400000,232 E ONONDAGA ST,0,5.0,12.0,,2009.0,19.0,-76.1499225786273,43.04609610718679,417
1276646400000,1815 E FAYETTE ST,0,6.0,16.0,,2010.0,24.0,-76.11947421530981,43.0483365531493,418
1242172800000,201 CROYDEN RD,0,5.0,13.0,,2009.0,19.0,-76.10827135414759,43.030836742222995,419
1276646400000,1153 W FAYETTE ST,0,6.0,16.0,,2010.0,24.0,-76.1733104308484,43.0462815688336,420
1242259200000,118 ARDMORE PL,0,5.0,14.0,,2009.0,20.0,-76.14307059166109,43.0813186475471,421
1276732800000,THAYER ST & JAMESVILLE AVE,0,6.0,17.0,,2010.0,24.0,-76.1278482969136,43.0155038610664,422
1243123200000,E WASHINGTON ST & S BEECH ST,0,5.0,24.0,,2009.0,21.0,-76.127654787225,43.04929835230761,423
1276732800000,110 WINDEMERE RD,0,6.0,17.0,,2010.0,24.0,-76.13748966512641,42.991996862914704,424
1243296000000,1210 S STATE ST,0,5.0,26.0,,2009.0,21.0,-76.1473755718275,43.037356872265605,425
1276819200000,200 HERRIMAN ST,0,6.0,18.0,,2010.0,25.0,-76.1772449736394,43.037786950096596,426
1243382400000,402 LOCKWOOD RD,0,5.0,27.0,,2009.0,21.0,-76.08414796586341,43.0385235991841,427
1276905600000,W BEAR ST & VAN RENSSELAER ST,0,6.0,19.0,,2010.0,25.0,-76.1701901605568,43.061196761575204,428
1243468800000,SCOVILLE AVE & WADSWORTH ST,0,5.0,28.0,,2009.0,22.0,-76.1388603145869,43.069272431729495,429
1277078400000,E WATER ST & WALNUT AVE,0,6.0,21.0,,2010.0,25.0,-76.1320320152964,43.0502560165133,430
1244160000000,214 SCOTTHOLM BLVD,0,6.0,5.0,,2009.0,23.0,-76.11167828133792,43.043421998225696,431
1277164800000,443 MOUNTAINVIEW AVE,0,6.0,22.0,,2010.0,25.0,-76.09635831726109,43.050960706734,432
1242086400000,3029 GRANT BLVD,0,5.0,12.0,,2009.0,19.0,-76.1589090839812,43.076439305486005,433
1277251200000,VELASKO RD & ONONDAGA BLVD,0,6.0,23.0,,2010.0,25.0,-76.18742518369899,43.0335012351074,434
1242345600000,200 COLUMBUS AVE,0,5.0,15.0,,2009.0,20.0,-76.12145094551609,43.0482655697583,435
1277683200000,317 LYDELL ST,0,6.0,28.0,,2010.0,26.0,-76.17834618331192,43.0354030527679,436
1245369600000,123 WOODLAWN TER,0,6.0,19.0,,2009.0,25.0,-76.1311612962578,43.07066243215979,437
1277856000000,967 WESTMORELAND AVE,0,6.0,30.0,,2010.0,26.0,-76.1137738397917,43.0356014089849,438
1245369600000,1214 S STATE ST,0,6.0,19.0,,2009.0,25.0,-76.1473689512439,43.037257931148005,439
1277856000000,1418 WESTMORELAND AVE,0,6.0,30.0,,2010.0,26.0,-76.1136225733793,43.0268112527447,440
1246233600000,2351 GRANT BLVD,0,6.0,29.0,,2009.0,26.0,-76.14738935018741,43.073478044271795,441
1277856000000,PARK AVE & N GEDDES ST,0,6.0,30.0,,2010.0,26.0,-76.1706257482482,43.0519677164367,442
1246924800000,1841 W FAYETTE ST,0,7.0,7.0,,2009.0,27.0,-76.1841739507171,43.052735687113504,443
1277942400000,418 BROOKFORD RD,0,7.0,1.0,,2010.0,26.0,-76.099955955888,43.0368178017766,444
1247011200000,SPENCER ST & N CLINTON ST,0,7.0,8.0,,2009.0,27.0,-76.15766418967729,43.06065213792629,445
1278288000000,MANILLA ST & OAK ST,0,7.0,5.0,,2010.0,27.0,-76.13311516523851,43.0531563274787,446
1278374400000,207 DOUGLAS ST,0,7.0,6.0,,2010.0,27.0,-76.1421638977904,43.059170572459706,447
1278460800000,106 MAGNOLIA ST,0,7.0,7.0,,2010.0,27.0,-76.17541144387259,43.046527193836695,448
1278547200000,245 FENWAY DR,0,7.0,8.0,,2010.0,27.0,-76.1103547305478,43.046898295152594,449
1278720000000,121 DAVIS ST,0,7.0,10.0,,2010.0,28.0,-76.1678285085395,43.039266879281996,450
1278633600000,108 DAVIS ST,0,7.0,9.0,,2010.0,28.0,-76.16754697383449,43.0393906569837,451
1278633600000,113 CONCORD PL,0,7.0,9.0,,2010.0,28.0,-76.11881026689,43.039861657078106,452
1278806400000,PARK ST & EXCHANGE ST,0,7.0,11.0,,2010.0,28.0,-76.16554174547409,43.0714700171086,453
1278720000000,367 NORWOOD AVE,0,7.0,10.0,,2010.0,28.0,-76.11008468978692,43.0751428968265,454
1278892800000,928 LANCASTER AVE,0,7.0,12.0,,2010.0,28.0,-76.12294412877459,43.033516848402996,455
1279152000000,LANCASTER AVE & MEADOWBROOK DR,0,7.0,15.0,,2010.0,28.0,-76.12182630745579,43.0247253428414,456
1279411200000,UNIVERSITY PL & COLLEGE PL,0,7.0,18.0,,2010.0,29.0,-76.1316054125545,43.0393865600188,457
1279411200000,230 AINSLEY DR,0,7.0,18.0,,2010.0,29.0,-76.1301338715078,43.01117980691,458
1279411200000,294 AINSLEY DR,0,7.0,18.0,,2010.0,29.0,-76.1280188690197,43.0112132841099,459
1279497600000,117 MONROE ST,0,7.0,19.0,,2010.0,29.0,-76.1419603629032,43.0415680441356,460
1279497600000,KENSINGTON PL & MEADOWBROOK DR,0,7.0,19.0,,2010.0,29.0,-76.1193760680768,43.0260054306044,461
1279497600000,100 HERRIMAN ST,0,7.0,19.0,,2010.0,29.0,-76.177323348953,43.038925542048794,462
1279670400000,113 CONCORD PL,0,7.0,21.0,,2010.0,29.0,-76.11881026689,43.039861657078106,463
1280102400000,3419 MIDLAND AVE,0,7.0,26.0,,2010.0,30.0,-76.1472976744177,43.0067844721083,464
1280275200000,HERRIMAN ST & FITCH ST,0,7.0,28.0,,2010.0,30.0,-76.1771727383108,43.0378282943958,465
1280188800000,SPAULDING AVE & S SALINA ST,0,7.0,27.0,,2010.0,30.0,-76.1439453333555,42.9870808041831,466
1248739200000,HERRIMAN ST & FITCH ST,0,7.0,28.0,,2009.0,30.0,-76.1771727383108,43.0378282943958,467
1280361600000,166 HOOD AVE,0,7.0,29.0,,2010.0,30.0,-76.1447588934909,43.0744935407709,468
1280361600000,117 CAYUGA ST,0,7.0,29.0,,2010.0,30.0,-76.1869222591922,43.0515483295868,469
1280448000000,KIMBER RD & EUCLID AVE,0,7.0,30.0,,2010.0,31.0,-76.0935653840759,43.0393921775879,470
1280707200000,MILNOR AVE & BALL AVE,0,8.0,2.0,,2010.0,31.0,-76.1000633701415,43.04752301904921,471
1276300800000,MILNOR AVE & BALL AVE,0,6.0,12.0,,2010.0,24.0,-76.1000633701415,43.04752301904921,472
1280793600000,MCDONALD RD & REINMAN RD,0,8.0,3.0,,2010.0,31.0,-76.17663655727391,43.019074948226496,473
1281052800000,1100 COMSTOCK AVE,0,8.0,6.0,,2010.0,32.0,-76.12873125909121,43.023798366504096,474
1281312000000,511 KIRKPATRICK ST,0,8.0,9.0,,2010.0,32.0,-76.15479765931741,43.0673894875478,475
1281398400000,SIXTH NORTH ST & HIAWATHA BLVD E,0,8.0,10.0,,2010.0,32.0,-76.15881217013501,43.0811950948697,476
1281312000000,617 HIAWATHA BLVD E,0,8.0,9.0,,2010.0,32.0,-76.1622957847046,43.076589733847506,477
1281398400000,208 S MIDLER AVE,0,8.0,10.0,,2010.0,32.0,-76.1049607973226,43.066183203848404,478
1281484800000,BELLEVUE AVE & SOUTH AVE,0,8.0,11.0,,2010.0,32.0,-76.1588439749877,43.033491188700104,479
1281571200000,1301 E COLVIN ST,0,8.0,12.0,,2010.0,32.0,-76.1284949303062,43.02384267354779,480
1281657600000,522 HAWLEY AVE,0,8.0,13.0,,2010.0,33.0,-76.13599486669699,43.0532022313964,481
1281657600000,100 CATAWBA ST,0,8.0,13.0,,2010.0,33.0,-76.1554102959682,43.061263541953494,482
1187049600000,203 BEECHER ST,0,8.0,14.0,,2007.0,33.0,-76.14126367807779,43.0605246035798,483
1282176000000,SEYMOUR ST & S WILBUR AVE,0,8.0,19.0,,2010.0,33.0,-76.17389786975541,43.041826021093996,484
1282521600000,131 ASHDALE AVE,0,8.0,23.0,,2010.0,34.0,-76.10857755120041,43.069371537771595,485
1282608000000,701 BELLEVUE AVE,0,8.0,24.0,,2010.0,34.0,-76.1635917428425,43.033224279350605,486
1282694400000,S WEST ST,0,8.0,25.0,,2010.0,34.0,-76.1580832456725,43.043005748913295,487
1283212800000,143 FITCH ST,0,8.0,31.0,,2010.0,35.0,-76.1672773705531,43.0354410480073,488
1283212800000,114 RILL AVE,0,8.0,31.0,,2010.0,35.0,-76.147999784169,43.01199597735229,489
1283817600000,1830 BELLEVUE AVE,0,9.0,7.0,,2010.0,36.0,-76.1842445888411,43.0325709189953,490
1284076800000,1014 MILTON AVE,0,9.0,10.0,,2010.0,37.0,-76.19286458605059,43.0570132053687,491
1284163200000,114 FAIRDALE AVE,0,9.0,11.0,,2010.0,37.0,-76.1828999743542,43.0275084311301,492
1284336000000,609 W BRIGHTON AVE,0,9.0,13.0,,2010.0,37.0,-76.1558070530831,43.019150356629495,493
1284768000000,511 HICKORY ST,0,9.0,18.0,,2010.0,38.0,-76.1471407908398,43.0553287750481,494
1284940800000,RONEY RD & S SALINA ST,0,9.0,20.0,,2010.0,38.0,-76.14284606853559,43.002510004315205,495
1285027200000,W CALTHROP AVE & MIDLAND AVE,0,9.0,21.0,,2010.0,38.0,-76.1481378085158,43.015627272242,496
1285113600000,BERKELEY DR & DORSET RD,0,9.0,22.0,,2010.0,38.0,-76.1277445900073,43.0331466484639,497
1285545600000,1121 CANNON ST,0,9.0,27.0,,2010.0,39.0,-76.1450426694925,43.0153889837269,498
1286668800000,233 FITCH ST,0,10.0,10.0,,2010.0,41.0,-76.1705838804677,43.0368461705009,499
1287532800000,250 HOLLAND ST,0,10.0,20.0,,2010.0,42.0,-76.163677041472,43.0378560100111,500
1287705600000,116 RICHARD RD,0,10.0,22.0,,2010.0,43.0,-76.20268101345441,43.024440745894296,501
1287964800000,428 LODI ST,0,10.0,25.0,,2010.0,43.0,-76.1352501246989,43.053643009920904,502
1287964800000,SEYMOUR ST & AMY ST,0,10.0,25.0,,2010.0,43.0,-76.17297945107359,43.041860793348505,503
1288051200000,206 HERBERT ST,0,10.0,26.0,,2010.0,43.0,-76.1490025546561,43.0674495567824,504
1288051200000,115 AUSTIN AVE,0,10.0,26.0,,2010.0,43.0,-76.18830583900291,43.03087427997371,505
1288224000000,308 GORDON AVE,0,10.0,28.0,,2010.0,43.0,-76.1740260467701,43.029158463816,506
1288569600000,ERIE BLVD E & LIME ST,0,11.0,1.0,,2010.0,44.0,-76.0942435411485,43.054619694458104,507
1288656000000,3057 ERIE BLVD E,0,11.0,2.0,,2010.0,44.0,-76.0850524858112,43.055442698078004,508
1288742400000,3057 ERIE BLVD E,0,11.0,3.0,,2010.0,44.0,-76.0850524858112,43.055442698078004,509
1288915200000,300 STAFFORD AVE,0,11.0,5.0,,2010.0,45.0,-76.1123809381633,43.0637423113451,510
1289088000000,527 BUCKINGHAM AVE,0,11.0,7.0,,2010.0,45.0,-76.1203871012678,43.0236950342842,511
1289088000000,248 CROLY ST,0,11.0,7.0,,2010.0,45.0,-76.1125851234307,43.046580295198005,512
1289174400000,4710 S SALINA ST,0,11.0,8.0,,2010.0,45.0,-76.14286256789251,43.001677037914,513
1289433600000,311 ELM ST,0,11.0,11.0,,2010.0,45.0,-76.1301974291108,43.0524788936173,514
1289952000000,315 ELM ST,0,11.0,17.0,,2010.0,46.0,-76.13020639968721,43.0526050012231,515
1290211200000,200 E DIVISION ST,0,11.0,20.0,,2010.0,47.0,-76.1543227586543,43.0599556570481,516
1290211200000,353 NORWOOD AVE,0,11.0,20.0,,2010.0,47.0,-76.11005847425191,43.0748058413717,517
1290470400000,164 FOREST HILL DR,0,11.0,23.0,,2010.0,47.0,-76.1112825653705,43.06702211445211,518
1290643200000,FOURTH NORTH ST & HIAWATHA BLVD E,0,11.0,25.0,,2010.0,47.0,-76.1606184728639,43.0787644487803,519
1290816000000,375 N MIDLER AVE,0,11.0,27.0,,2010.0,48.0,-76.1057983658323,43.075766919601705,520
1290902400000,602 IVY RIDGE DR,0,11.0,28.0,,2010.0,48.0,-76.13454625874121,43.0164472088436,521
1290902400000,509 UNIVERSITY AVE,0,11.0,28.0,,2010.0,48.0,-76.1342930308491,43.045229548554104,522
1291075200000,105 BRADFORD PKWY,0,11.0,30.0,,2010.0,48.0,-76.1067320567723,43.0420495064938,523
1247011200000,700 N CLINTON ST,0,7.0,8.0,,2009.0,27.0,-76.1564821370191,43.0591101341181,524
1291248000000,333 NORWOOD AVE,0,12.0,2.0,,2010.0,48.0,-76.1100210216911,43.07432433430039,525
1247097600000,543 RICHMOND AVE,0,7.0,9.0,,2009.0,28.0,-76.17517126311171,43.0501995796336,526
1291248000000,100 UNIVERSITY AVE,0,12.0,2.0,,2010.0,48.0,-76.1343001625742,43.0511017455547,527
1247097600000,339 N BEECH ST,0,7.0,9.0,,2009.0,28.0,-76.12768781198979,43.0538132055862,528
1291593600000,617 HIAWATHA BLVD E,0,12.0,6.0,,2010.0,49.0,-76.1622957847046,43.076589733847506,529
1247270400000,333 ELM ST,0,7.0,11.0,,2009.0,28.0,-76.1302467663828,43.05317248585071,530
1291593600000,617 HIAWATHA BLVD E,0,12.0,6.0,,2010.0,49.0,-76.1622957847046,43.076589733847506,531
1247443200000,151 W MATSON AVE,0,7.0,13.0,,2009.0,28.0,-76.1448791374833,43.013173755012204,532
1291680000000,123 POLK ST,0,12.0,7.0,,2010.0,49.0,-76.0933410325287,43.053679243870704,533
1247529600000,100 N MCBRIDE ST,0,7.0,14.0,,2009.0,28.0,-76.1437859901905,43.0508045333042,534
1291852800000,306 SENECA DR,0,12.0,9.0,,2010.0,49.0,-76.1401857850768,43.0024877971136,535
1248048000000,300 SUNRISE DR,0,7.0,20.0,,2009.0,29.0,-76.1377830791527,42.99434449611171,536
1292284800000,104 BEAUMONT PL,0,12.0,14.0,,2010.0,50.0,-76.0875109330971,43.0447776119673,537
1248134400000,829 EMERSON AVE,0,7.0,21.0,,2009.0,29.0,-76.1913621348733,43.0580348806298,538
1292284800000,84 ELMHURST AVE,0,12.0,14.0,,2010.0,50.0,-76.1548039798638,43.0210281237394,539
1248048000000,1900 W FAYETTE ST,0,7.0,20.0,,2009.0,29.0,-76.18496115877359,43.053703124788896,540
1292371200000,N CLINTON ST & SPENCER ST,0,12.0,15.0,,2010.0,50.0,-76.15766418967729,43.06065213792629,541
1248220800000,314 SOUTH AVE,0,7.0,22.0,,2009.0,29.0,-76.1590204418387,43.0360670973783,542
1292544000000,1311 PARK ST,0,12.0,17.0,,2010.0,51.0,-76.15507951472101,43.0672509491566,543
1248220800000,2202 MIDLAND AVE,0,7.0,22.0,,2009.0,29.0,-76.148635500336,43.018093232906,544
1292630400000,JAMES ST & N TOWNSEND ST,0,12.0,18.0,,2010.0,51.0,-76.14598106401141,43.05360501545071,545
1248307200000,827 EMERSON AVE,0,7.0,23.0,,2009.0,30.0,-76.1911853931378,43.057940924487895,546
1248739200000,200 PEAT ST,0,7.0,28.0,,2009.0,30.0,-76.1152178825092,43.05217319189261,547
1250467200000,706 TALLMAN ST,0,8.0,17.0,,2009.0,33.0,-76.1590800495494,43.0362374757588,548
1250640000000,800 GRAND AVE,0,8.0,19.0,,2009.0,33.0,-76.1843168322546,43.0377125941077,549
1250640000000,LYNWOOD AVE & JAMES ST,0,8.0,19.0,,2009.0,33.0,-76.1014799962766,43.0690906968717,550
1250726400000,102 STEVENS PL,0,8.0,20.0,,2009.0,34.0,-76.136472114658,43.0190258189274,551
1250985600000,S MCBRIDE ST & BURT ST,0,8.0,23.0,,2009.0,34.0,-76.1438062265389,43.038408682188205,552
1251072000000,327 ONONDAGA AVE,0,8.0,24.0,,2009.0,34.0,-76.1645357069161,43.031147883615205,553
1252022400000,101 WALL ST,0,9.0,4.0,,2009.0,36.0,-76.1731720381924,43.0485449147823,554
1252022400000,530 ERIE BLVD W,0,9.0,4.0,,2009.0,36.0,-76.1614726916474,43.0499015463845,555
1252108800000,401 N MCBRIDE ST,0,9.0,5.0,,2009.0,36.0,-76.1446426901207,43.0542963841751,556
1252281600000,EUCLID AVE & GUILFORD RD,0,9.0,7.0,,2009.0,36.0,-76.0963336773712,43.0383233148563,557
1252627200000,E COLVIN ST & HUGHES PL,0,9.0,11.0,,2009.0,37.0,-76.1335303710544,43.02573074476479,558
1252627200000,121 HUGHES PL,0,9.0,11.0,,2009.0,37.0,-76.1333271694421,43.0254020416366,559
1252800000000,ERIE BLVD E & CHERRY ST,0,9.0,13.0,,2009.0,37.0,-76.12347678841559,43.0493286084877,560
1253923200000,1629 W COLVIN ST,0,9.0,26.0,,2009.0,39.0,-76.1636233437775,43.022903620860205,561
1254355200000,S STATE ST & PAVILION TER,0,10.0,1.0,,2009.0,40.0,-76.14725303623291,43.03664487742189,562
1254528000000,BUTTERNUT ST & DALE ST,0,10.0,3.0,,2009.0,40.0,-76.142580342383,43.0751887153848,563
1254700800000,205 BRADFORD PKWY,0,10.0,5.0,,2009.0,40.0,-76.10571796391942,43.039667584254396,564
1254700800000,205 BRADFORD PKWY,0,10.0,5.0,,2009.0,40.0,-76.10571796391942,43.039667584254396,565
1254787200000,867 EMERSON AVE,0,10.0,6.0,,2009.0,40.0,-76.1928710727853,43.0583069152273,566
1255046400000,ERIE BLVD E & LOMBARD AVE,0,10.0,9.0,,2009.0,41.0,-76.1182414446689,43.0500980294864,567
1256256000000,SMITH ST & POLK ST,0,10.0,23.0,,2009.0,43.0,-76.0907668337252,43.0537605036767,568
1256256000000,1812 MIDLAND AVE,0,10.0,23.0,,2009.0,43.0,-76.1500469324121,43.021816048369,569
1256256000000,166 W GLEN AVE,0,10.0,23.0,,2009.0,43.0,-76.1450741078326,43.0055898196465,570
1257206400000,100 N FRANKLIN ST,0,11.0,3.0,,2009.0,44.0,-76.1554152097528,43.050968308320705,571
1257724800000,210 CROYDEN RD,0,11.0,9.0,,2009.0,45.0,-76.10837638067899,43.0306789376413,572
1257811200000,421 MITCHELL AVE,0,11.0,10.0,,2009.0,45.0,-76.17045344239351,43.0138703788825,573
1257984000000,210 AVERY AVE,0,11.0,12.0,,2009.0,46.0,-76.1904591932655,43.0464447302928,574
1258329600000,2600 ERIE BLVD E,0,11.0,16.0,,2009.0,46.0,-76.1009542770195,43.053833665241896,575
1258329600000,DALE ST & COURT ST,0,11.0,16.0,,2009.0,46.0,-76.1465595628847,43.0782632680141,576
1258848000000,325 JAMES ST,0,11.0,22.0,,2009.0,47.0,-76.1491244883794,43.052133742522706,577
1258934400000,SUNNYCREST RD & NICHOLS AVE,0,11.0,23.0,,2009.0,47.0,-76.1033229933882,43.0619633900086,578
1259193600000,138 THURLOW DR,0,11.0,26.0,,2009.0,48.0,-76.1368403906868,42.995757109864996,579
1259366400000,218 CLYDE AVE,0,11.0,28.0,,2009.0,48.0,-76.1618068487634,43.01975764917629,580
1259452800000,212 SEELEY RD,0,11.0,29.0,,2009.0,48.0,-76.10405193042709,43.052130824041605,581
1259539200000,COMSTOCK AVE & VINCENT ST,0,11.0,30.0,,2009.0,48.0,-76.1284377498435,43.021508294508294,582
1259625600000,307 E GENESEE PKWY,0,12.0,1.0,,2009.0,48.0,-76.0901094582784,43.042764286646396,583
1259712000000,518 N TOWNSEND ST,0,12.0,2.0,,2009.0,48.0,-76.14737125991421,43.0554285219553,584
1259798400000,518 N TOWNSEND ST,0,12.0,3.0,,2009.0,49.0,-76.14737125991421,43.0554285219553,585
1259884800000,360 GREEN ST,0,12.0,4.0,,2009.0,49.0,-76.13492212822909,43.056728622281,586
1259798400000,225 DEFOREST RD,0,12.0,3.0,,2009.0,49.0,-76.0901132195245,43.0439069446115,587
1259884800000,923 JAMESVILLE AVE,0,12.0,4.0,,2009.0,49.0,-76.1298340758497,43.0179473354275,588
1260057600000,125 ROCKLAND AVE,0,12.0,6.0,,2009.0,49.0,-76.1558608127613,43.023975576755106,589
1260057600000,3226 S SALINA ST,0,12.0,6.0,,2009.0,49.0,-76.1414126097688,43.01703299021089,590
1260489600000,121 TEJAH AVE,0,12.0,11.0,,2009.0,50.0,-76.12536273398091,43.013841344671,591
1260576000000,911 E BRIGHTON AVE,0,12.0,12.0,,2009.0,50.0,-76.1302845854563,43.003815015276295,592
1260748800000,115 BRADFORD PKWY,0,12.0,14.0,,2009.0,50.0,-76.10666481697491,43.041455892291005,593
1260748800000,427 CLOVER RIDGE DR,0,12.0,14.0,,2009.0,50.0,-76.09263193657941,43.0622514377991,594
1261008000000,800 EMERSON AVE,0,12.0,17.0,,2009.0,51.0,-76.1896063749555,43.0562603555612,595
1261180800000,221 RIVOLI AVE,0,12.0,19.0,,2009.0,51.0,-76.1337187944818,43.078940376315096,596
1261526400000,200 HALL AVE,0,12.0,23.0,,2009.0,51.0,-76.14489837580341,43.0123987521145,597
1261872000000,ELLIOTT ST & PUTNAM ST,0,12.0,27.0,,2009.0,52.0,-76.16893845342979,43.035110601705,598
1261958400000,159 VALE ST,0,12.0,28.0,,2009.0,52.0,-76.15635409385341,43.0156242922538,599
1261958400000,222 HAWLEY AVE,0,12.0,28.0,,2009.0,52.0,-76.14338338234809,43.053301795340396,600
1262131200000,ERIE BLVD W & VAN RENSSELAER ST,0,12.0,30.0,,2009.0,52.0,-76.1662667667568,43.048714644719404,601
1199404800000,125 ROBINEAU RD,0,1.0,4.0,,2008.0,1.0,-76.1725106221234,43.02713309242121,602
1199664000000,119 DELAWARE ST,0,1.0,7.0,,2008.0,1.0,-76.1647794189543,43.0354882672336,603
1199664000000,2 FORESTRY DR,0,1.0,7.0,,2008.0,1.0,-76.1369213729114,43.035385795806505,604
1199750400000,FABIUS ST & S WEST ST,0,1.0,8.0,,2008.0,2.0,-76.1581670270475,43.0447834850805,605
1199836800000,1420 COURT ST,0,1.0,9.0,,2008.0,2.0,-76.1470288230262,43.077945427425,606
1200096000000,1005 FIRST NORTH ST,0,1.0,12.0,,2008.0,2.0,-76.15241049784099,43.070699641053295,607
1200268800000,1054 S CLINTON ST,0,1.0,14.0,,2008.0,2.0,-76.15129019627369,43.036875525412796,608
1200700800000,3906 E GENESEE ST,0,1.0,19.0,,2008.0,3.0,-76.0800780253995,43.0389958658904,609
1201046400000,504 BROAD ST,0,1.0,23.0,,2008.0,4.0,-76.1196866093823,43.03030795425921,610
1200960000000,HIAWATHA BLVD E & SEVENTH NORTH ST,0,1.0,22.0,,2008.0,4.0,-76.1576038175003,43.082857364652604,611
1263254400000,129 GOODRICH AVE,0,1.0,12.0,,2010.0,2.0,-76.1270538178932,43.020875869858706,612
1201046400000,NICHOLS AVE & BURNET AVE,0,1.0,23.0,,2008.0,4.0,-76.10306732746841,43.05880270838139,613
1292716800000,2315 S SALINA ST,0,12.0,19.0,,2010.0,51.0,-76.14483072008609,43.024743294985,614
1263168000000,203 MERRITT AVE,0,1.0,11.0,,2010.0,2.0,-76.15523534188009,42.998958434502896,615
1292716800000,406 LEXINGTON AVE,0,12.0,19.0,,2010.0,51.0,-76.1168277362619,43.047154897344704,616
1263168000000,S WEST ST & W WATER ST,0,1.0,11.0,,2010.0,2.0,-76.1588683633493,43.0500700016792,617
1292889600000,SEDGWICK DR & SCOVILLE AVE,0,12.0,21.0,,2010.0,51.0,-76.1330502035687,43.0694782153834,618
1263168000000,WHEATON RD & MERTENS AVE,0,1.0,11.0,,2010.0,2.0,-76.1263656347237,43.0716366754842,619
1292889600000,154 NELSON ST,0,12.0,21.0,,2010.0,51.0,-76.1760351028518,43.0457359901215,620
1263340800000,300 NORWOOD AVE,0,1.0,13.0,,2010.0,2.0,-76.1098116369748,43.07356017026979,621
1292976000000,1335 BROAD ST,0,12.0,22.0,,2010.0,51.0,-76.1094453758671,43.0311468579231,622
1263513600000,200 EAST AVE,0,1.0,15.0,,2010.0,3.0,-76.10577301537491,43.0442729488587,623
1293062400000,133 BERTRAM PL,0,12.0,23.0,,2010.0,51.0,-76.15829465788642,43.017274811849795,624
1263600000000,1017 KIRKPATRICK ST,0,1.0,16.0,,2010.0,3.0,-76.1497618161241,43.0742527825441,625
1293408000000,927 W LAFAYETTE AVE,0,12.0,27.0,,2010.0,52.0,-76.15875773582209,43.018134948424,626
1263686400000,130 W BISSELL ST,0,1.0,17.0,,2010.0,3.0,-76.1596091734214,43.0260297760812,627
1293494400000,711 E GENESEE ST,0,12.0,28.0,,2010.0,52.0,-76.1418826433597,43.047455243584096,628
1263772800000,315 RUGBY RD,0,1.0,18.0,,2010.0,3.0,-76.125139178341,43.0676409310963,629
1293494400000,RICH ST & BELLEVUE AVE,0,12.0,28.0,,2010.0,52.0,-76.1612393847951,43.0333811141128,630
1263772800000,1017 KIRKPATRICK ST,0,1.0,18.0,,2010.0,3.0,-76.1497618161241,43.0742527825441,631
1293580800000,E FAYETTE ST & S WARREN ST,0,12.0,29.0,,2010.0,52.0,-76.150806797548,43.0486815011016,632
1232323200000,321 N SALINA ST,0,1.0,19.0,,2009.0,3.0,-76.1521701248406,43.0552401000544,633
1293667200000,245 HOLMES ST,0,12.0,30.0,,2010.0,52.0,-76.12624450499241,43.017208468955005,634
1264118400000,1900 GLENWOOD AVE,0,1.0,22.0,,2010.0,4.0,-76.19019841233849,43.0279188011808,635
1293667200000,200 E FAYETTE ST,0,12.0,30.0,,2010.0,52.0,-76.15076362002391,43.0486260185876,636
1263945600000,254 COLERIDGE AVE,0,1.0,20.0,,2010.0,3.0,-76.181847589914,43.0443227006774,637
1293667200000,74 ELMHURST AVE,0,12.0,30.0,,2010.0,52.0,-76.1545383165932,43.0210359536473,638
1264118400000,190 SPAULDING AVE,0,1.0,22.0,,2010.0,4.0,-76.14730836077631,42.987017254313095,639
1293667200000,239 HOLMES ST,0,12.0,30.0,,2010.0,52.0,-76.1263135665732,43.0172049550632,640
1264464000000,227 MAGNOLIA ST,0,1.0,26.0,,2010.0,4.0,-76.1742597937969,43.043967770837796,641
1293753600000,BURNET AVE & TEALL AVE,0,12.0,31.0,,2010.0,53.0,-76.1219387388002,43.0542757421931,642
1264464000000,227 MAGNOLIA ST,0,1.0,26.0,,2010.0,4.0,-76.1742597937969,43.043967770837796,643
1231286400000,215 GRAND AVE,0,1.0,7.0,,2009.0,1.0,-76.17479154524109,43.039282147070104,644
1165622400000,HAWLEY AVE & CATHERINE ST,0,12.0,9.0,,2006.0,49.0,-76.14207486306759,43.0533375785344,645
1264550400000,911 E BRIGHTON AVE,0,1.0,27.0,,2010.0,4.0,-76.1302845854563,43.003815015276295,646
1264636800000,201 WOLF ST,0,1.0,28.0,,2010.0,4.0,-76.1652843808402,43.06992970024421,647
1264896000000,248 CROLY ST,0,1.0,31.0,,2010.0,5.0,-76.1125851234307,43.046580295198005,648
1264982400000,LINCOLN AVE & CLOVER ST,0,2.0,1.0,,2010.0,5.0,-76.1569682558435,43.0344835740652,649
1265068800000,ERIE BLVD,0,2.0,2.0,,2010.0,5.0,-76.09683378565958,43.05448302749699,650
1265155200000,MOSLEY DR & CALEB AVE,0,2.0,3.0,,2010.0,5.0,-76.10057558053329,43.0609386291456,651
1265155200000,1025 ERIE BLVD W,0,2.0,3.0,,2010.0,5.0,-76.1759034807981,43.04812559183829,652
1265241600000,1000 ERIE BLVD W,0,2.0,4.0,,2010.0,5.0,-76.17537416468659,43.0481569751011,653
1265155200000,504 HILLSBORO PKWY,0,2.0,3.0,,2010.0,5.0,-76.08604191362129,43.0404365723028,654
1291680000000,HILLSBORO PKWY & LOCKWOOD RD,0,12.0,7.0,,2010.0,49.0,-76.084217830538,43.0385825102702,655
1265587200000,MEADOWBROOK DR & EUCLID AVE,0,2.0,8.0,,2010.0,6.0,-76.11024730551449,43.0364788448685,656
1265673600000,212 HIGHRIDGE DR,0,2.0,9.0,,2010.0,6.0,-76.1987966002495,43.0271815605076,657
1265760000000,LORRAINE AVE & VINCENT ST,0,2.0,10.0,,2010.0,6.0,-76.13195443948341,43.0213632142699,658
1265846400000,706 HIXSON AVE,0,2.0,11.0,,2010.0,6.0,-76.119898280311,43.0596638782918,659
1265932800000,336 FOREST HILL DR,0,2.0,12.0,,2010.0,7.0,-76.1109353898693,43.063022491682304,660
1266019200000,CARLTON DR & SALT SPRINGS RD,0,2.0,13.0,,2010.0,7.0,-76.0890162714597,43.0475229199211,661
1266105600000,806 CARBON ST,0,2.0,14.0,,2010.0,7.0,-76.1557648053153,43.069117498648005,662
1266278400000,700 EMERSON AVE,0,2.0,16.0,,2010.0,7.0,-76.1885465848042,43.054716700076106,663
1266364800000,E GENESEE ST & ALBERT RD,0,2.0,17.0,,2010.0,7.0,-76.0921044620142,43.0427165990051,664
1266710400000,127 W FAYETTE ST,0,2.0,21.0,,2010.0,8.0,-76.1525995222414,43.04864634342879,665
1266796800000,1221 MEADOWBROOK DR,0,2.0,22.0,,2010.0,8.0,-76.1087367452451,43.038584135289604,666
1267056000000,207 LAKEVIEW AVE,0,2.0,25.0,,2010.0,8.0,-76.17779475067809,43.0503364537309,667
1267142400000,1811 E FAYETTE ST,0,2.0,26.0,,2010.0,9.0,-76.1195825575229,43.048337876591,668
1267056000000,634 MERTENS AVE,0,2.0,25.0,,2010.0,8.0,-76.1324430996418,43.0712854971923,669
1267056000000,LAKEVIEW AVE & RICHMOND AVE,0,2.0,25.0,,2010.0,8.0,-76.1775946222025,43.0502957638056,670
1267142400000,E LAUREL ST & N TOWNSEND ST,0,2.0,26.0,,2010.0,9.0,-76.1489836352378,43.057387940586096,671
1267315200000,438 BROOKFORD RD,0,2.0,28.0,,2010.0,9.0,-76.0988782632113,43.0366006321465,672
1267228800000,1155 GLENWOOD AVE,0,2.0,27.0,,2010.0,9.0,-76.1793834077834,43.0238720996959,673
1268870400000,S CLINTON ST & W WATER ST,0,3.0,18.0,,2010.0,11.0,-76.1535448553475,43.05055375460879,674
1268956800000,412 HARTSON ST,0,3.0,19.0,,2010.0,12.0,-76.1798741080158,43.036454790468795,675
1269129600000,555 S STATE ST,0,3.0,21.0,,2010.0,12.0,-76.14741596547259,43.0467017243353,676
1269216000000,248 HOOD AVE,0,3.0,22.0,,2010.0,12.0,-76.14671315593371,43.0757925511228,677
1269302400000,821 EMERSON AVE,0,3.0,23.0,,2010.0,12.0,-76.1907444910132,43.0576307466385,678
1269475200000,200 WESTMORELAND AVE,0,3.0,25.0,,2010.0,12.0,-76.1150403682226,43.050357783026506,679
1269648000000,916 E BRIGHTON AVE,0,3.0,27.0,,2010.0,13.0,-76.1303527900443,43.0036595239834,680
1269734400000,123 W FAYETTE ST,0,3.0,28.0,,2010.0,13.0,-76.15254811075941,43.0486462292038,681
1270080000000,1811 BURNET AVE,0,4.0,1.0,,2010.0,13.0,-76.1113766252689,43.0570824937198,682
1270252800000,985 E BRIGHTON AVE,0,4.0,3.0,,2010.0,14.0,-76.12979741021309,43.002949934267505,683
1270425600000,E WATER ST & PINE ST,0,4.0,5.0,,2010.0,14.0,-76.1297343251239,43.05021867376799,684
1270512000000,N CLINTON ST & W COURT ST,0,4.0,6.0,,2010.0,14.0,-76.16021872525751,43.063033827500895,685
1270512000000,WELLINGTON PL & FORMAN AVE,0,4.0,6.0,,2010.0,14.0,-76.1399461873226,43.047666870241606,686
1270598400000,N CLINTON ST & W COURT ST,0,4.0,7.0,,2010.0,14.0,-76.16021872525751,43.063033827500895,687
1270512000000,EMERSON AVE & HARBOR ST,0,4.0,6.0,,2010.0,14.0,-76.1889877204907,43.055258664221604,688
1270598400000,EMERSON AVE & HARBOR ST,0,4.0,7.0,,2010.0,14.0,-76.1889877204907,43.055258664221604,689
1270684800000,1300 E WATER ST,0,4.0,8.0,,2010.0,14.0,-76.1296726153555,43.050162998991794,690
1270684800000,800 E RAYNOR AVE,0,4.0,8.0,,2010.0,14.0,-76.1393071087615,43.0357867565918,691
1270684800000,210 NOTTINGHAM RD,0,4.0,8.0,,2010.0,14.0,-76.11173802738921,43.0305595459246,692
1270771200000,211 CROYDEN RD,0,4.0,9.0,,2010.0,15.0,-76.1082304134285,43.0307029831419,693
1270857600000,118 THURLOW DR,0,4.0,10.0,,2010.0,15.0,-76.13714569661079,42.9962198666302,694
1270857600000,300 SUNRISE DR,0,4.0,10.0,,2010.0,15.0,-76.1377830791527,42.99434449611171,695
1270857600000,176 SUNRISE DR,0,4.0,10.0,,2010.0,15.0,-76.1378972460422,42.99695295219979,696
1271030400000,115 WENDELL TER,0,4.0,12.0,,2010.0,15.0,-76.13006460061959,43.06521317909311,697
1271116800000,S SALINA ST & DORWIN AVE,0,4.0,13.0,,2010.0,15.0,-76.1436644041151,42.98537568548571,698
1271203200000,S SALINA ST & DORWIN AVE,0,4.0,14.0,,2010.0,15.0,-76.1436644041151,42.98537568548571,699
1271462400000,HARTSON ST & LYDELL ST,0,4.0,17.0,,2010.0,16.0,-76.1784916888284,43.0364678416315,700
1271635200000,401 BRADFORD PKWY,0,4.0,19.0,,2010.0,16.0,-76.10207024331709,43.0364825027648,701
1271635200000,800 N CLINTON ST,0,4.0,19.0,,2010.0,16.0,-76.1576351130082,43.0607255341138,702
1271721600000,304 SCOTT AVE,0,4.0,20.0,,2010.0,16.0,-76.1078399292493,43.03895183897821,703
1271808000000,SHERBOURNE RD & CRAWFORD AVE,0,4.0,21.0,,2010.0,16.0,-76.1100603023235,43.0320613587013,704
1271808000000,SHERBOURNE RD & CRAWFORD AVE,0,4.0,21.0,,2010.0,16.0,-76.1100603023235,43.0320613587013,705
1271808000000,1100 SOUTH AVE,0,4.0,21.0,,2010.0,16.0,-76.15838768292559,43.027379038373795,706
1271894400000,1100 SOUTH AVE,0,4.0,22.0,,2010.0,16.0,-76.15838768292559,43.027379038373795,707
1271376000000,1100 SOUTH AVE,0,4.0,16.0,,2010.0,16.0,-76.15838768292559,43.027379038373795,708
1272499200000,HERRIMAN ST & FITCH ST,0,4.0,29.0,,2010.0,17.0,-76.1771727383108,43.0378282943958,709
1272758400000,HERRIMAN ST & GRAND AVE,0,5.0,2.0,,2010.0,18.0,-76.177250981572,43.0389623375245,710
1272844800000,HERRIMAN ST & GRAND AVE,0,5.0,3.0,,2010.0,18.0,-76.177250981572,43.0389623375245,711
1272844800000,825 EMERSON AVE,0,5.0,3.0,,2010.0,18.0,-76.1910129139083,43.0578450870533,712
1273017600000,200 SAINT MARKS AVE,0,5.0,5.0,,2010.0,18.0,-76.18673829500179,43.0544203232233,713
1273104000000,1115 E GENESEE ST,0,5.0,6.0,,2010.0,18.0,-76.13396093357,43.046955600972204,714
1273104000000,1970 W FAYETTE ST,0,5.0,6.0,,2010.0,18.0,-76.18630030701199,43.055025632382495,715
1273536000000,538 ERIE BLVD W,0,5.0,11.0,,2010.0,19.0,-76.1616761654492,43.04985105401651,716
1273795200000,WADSWORTH ST & HUNTLEY ST,0,5.0,14.0,,2010.0,20.0,-76.13946192890909,43.0778167611026,717
1274140800000,E FAYETTE ST & CROLY ST,0,5.0,18.0,,2010.0,20.0,-76.11266287082191,43.048202131101895,718
1274140800000,HARBOR ST & EMERSON AVE,0,5.0,18.0,,2010.0,20.0,-76.1889877204907,43.055258664221604,719
1274313600000,116 HERRIMAN ST,0,5.0,20.0,,2010.0,20.0,-76.1773113411726,43.0387515015528,720
1274227200000,HARBOR ST & EMERSON AVE,0,5.0,19.0,,2010.0,20.0,-76.1889877204907,43.055258664221604,721
1274313600000,116 HERRIMAN ST,0,5.0,20.0,,2010.0,20.0,-76.1773113411726,43.0387515015528,722
1274313600000,328 WESTCOTT ST,0,5.0,20.0,,2010.0,20.0,-76.11971669036791,43.0450867131661,723
1274832000000,317 LYDELL ST,0,5.0,26.0,,2010.0,21.0,-76.17834618331192,43.0354030527679,724
1274832000000,121 HERRIMAN ST,0,5.0,26.0,,2010.0,21.0,-76.17715890874699,43.038713539222094,725
1274918400000,HERRIMAN ST & FITCH ST,0,5.0,27.0,,2010.0,21.0,-76.1771727383108,43.0378282943958,726
1274918400000,601 BELLEVUE AVE,0,5.0,27.0,,2010.0,21.0,-76.1624326286651,43.033275231912604,727
1275177600000,1658 JAMES ST,0,5.0,30.0,,2010.0,22.0,-76.12347307118691,43.064580007735394,728
1275350400000,450 KIMBER RD,0,6.0,1.0,,2010.0,22.0,-76.0931537095374,43.034452256692,729
1231200000000,600 DELAWARE ST,0,1.0,6.0,,2009.0,1.0,-76.1727204991165,43.0391826608233,730
1231113600000,600 DELAWARE ST,0,1.0,5.0,,2009.0,1.0,-76.1727204991165,43.0391826608233,731
1165622400000,RUGBY RD & HAMPTON RD,0,12.0,9.0,,2006.0,49.0,-76.123861209865,43.067836376252295,732
1230768000000,102 STEVENS PL,0,1.0,1.0,,2009.0,1.0,-76.136472114658,43.0190258189274,733
1166140800000,215 HOPE AVE,0,12.0,15.0,,2006.0,50.0,-76.1515084518535,43.0214556640158,734
1230854400000,102 STEVENS PL,0,1.0,2.0,,2009.0,1.0,-76.136472114658,43.0190258189274,735
1166140800000,206 HOPE AVE,0,12.0,15.0,,2006.0,50.0,-76.1516796339157,43.021497705627496,736
1199232000000,1200 CALEB AVE,0,1.0,2.0,,2008.0,1.0,-76.100519752035,43.0608939445819,737
1166486400000,RUGBY RD & DORCHESTER AVE,0,12.0,19.0,,2006.0,51.0,-76.1253789081476,43.067651997649605,738
1231545600000,117 FOXBORO RD,0,1.0,10.0,,2009.0,2.0,-76.0936940722319,43.050778895272295,739
1166659200000,CROSSETT ST & ROBINEAU RD,0,12.0,21.0,,2006.0,51.0,-76.1728032546154,43.0279043520818,740
1231804800000,481 BRATTLE RD,0,1.0,13.0,,2009.0,2.0,-76.1287381770172,43.0708751074459,741
1167436800000,109 ARGONNE DR,0,12.0,30.0,,2006.0,52.0,-76.1797944517046,43.026880782073,742
1231891200000,304 WAVERLY AVE,0,1.0,14.0,,2009.0,2.0,-76.13211998821049,43.04044984322061,743
1133568000000,MIDLAND AVE & W COLVIN ST,0,12.0,3.0,,2005.0,49.0,-76.150859870015,43.024202861319104,744
1231977600000,MIDLAND AVE & HALL AVE,0,1.0,15.0,,2009.0,3.0,-76.14784216487091,43.0122094374146,745
1232323200000,125 WHEATON RD,0,1.0,19.0,,2009.0,3.0,-76.1259460073999,43.068249821528994,746
1232323200000,610 ROBERTS AVE,0,1.0,19.0,,2009.0,3.0,-76.1707338622893,43.0264026917324,747
1232409600000,660 BURNET AVE,0,1.0,20.0,,2009.0,3.0,-76.13405879334209,43.0520906276284,748
1232409600000,300 W KIRKPATRICK ST,0,1.0,20.0,,2009.0,3.0,-76.1609967624132,43.0610156722351,749
1232409600000,749 WESTMORELAND AVE,0,1.0,20.0,,2009.0,3.0,-76.1141141162314,43.0404463378812,750
1232496000000,115 BERWYN AVE,0,1.0,21.0,,2009.0,3.0,-76.139065809598,43.025823158381904,751
1232582400000,202 FOREST AVE,0,1.0,22.0,,2009.0,4.0,-76.149754006171,43.021032912842706,752
1232496000000,520 HAWLEY AVE,0,1.0,21.0,,2009.0,3.0,-76.1360258945069,43.0532026882627,753
1232582400000,S BEECH ST & E GENESEE ST,0,1.0,22.0,,2009.0,4.0,-76.12772042891942,43.047012073661,754
1232582400000,300 W KIRKPATRICK ST,0,1.0,22.0,,2009.0,4.0,-76.1609967624132,43.0610156722351,755
1232841600000,200 S STATE ST,0,1.0,25.0,,2009.0,4.0,-76.1474775503752,43.049494348281605,756
1232928000000,109 BRADFORD PKWY,0,1.0,26.0,,2009.0,4.0,-76.1066884435652,43.041524780001296,757
1232928000000,427 CLOVER RIDGE DR,0,1.0,26.0,,2009.0,4.0,-76.09263193657941,43.0622514377991,758
1233014400000,1500 E COLVIN ST,0,1.0,27.0,,2009.0,4.0,-76.1215361659921,43.021850416237896,759
1233014400000,109 BRADFORD PKWY,0,1.0,27.0,,2009.0,4.0,-76.1066884435652,43.041524780001296,760
1233100800000,700 E WASHINGTON ST,0,1.0,28.0,,2009.0,4.0,-76.1420746582517,43.0494091434208,761
1233187200000,2406 ERIE BLVD E,0,1.0,29.0,,2009.0,5.0,-76.10526057231941,43.0533313642476,762
1233187200000,321 LYNCH AVE,0,1.0,29.0,,2009.0,5.0,-76.166835196414,43.01460577673429,763
1233273600000,115 BRADFORD PKWY,0,1.0,30.0,,2009.0,5.0,-76.10666481697491,43.041455892291005,764
1233360000000,900 N CLINTON ST,0,1.0,31.0,,2009.0,5.0,-76.16028449810591,43.0631565576857,765
1233532800000,106 HERKIMER ST,0,2.0,2.0,,2009.0,5.0,-76.1887377957039,43.0546852919444,766
1233532800000,HIAWATHA BLVD E & GRANT BLVD,0,2.0,2.0,,2009.0,5.0,-76.1614953552437,43.077541237024,767
1233619200000,301 SEELEY RD,0,2.0,3.0,,2009.0,5.0,-76.1038240206531,43.0512996269621,768
1233532800000,208 DILLAYE AVE,0,2.0,2.0,,2009.0,5.0,-76.1168569162373,43.0567011035726,769
1233705600000,345 PEAT ST,0,2.0,4.0,,2009.0,5.0,-76.1156611777458,43.054403275096,770
1234051200000,673 HAZELWOOD AVE,0,2.0,8.0,,2009.0,6.0,-76.0958093522995,43.051841818891496,771
1202515200000,MEADOWBROOK DR & BUCKINGHAM AVE,0,2.0,9.0,,2008.0,6.0,-76.1205763780948,43.0251617526048,772
1234137600000,SHERWOOD AVE & BURNET AVE,0,2.0,9.0,,2009.0,6.0,-76.1245468004965,43.0535645777872,773
1234224000000,2030 E COLVIN ST,0,2.0,10.0,,2009.0,6.0,-76.1136277297091,43.02225277763429,774
1234310400000,912 ERIE BLVD E,0,2.0,11.0,,2009.0,6.0,-76.1387607965248,43.050690810407296,775
1234396800000,506 E WASHINGTON ST,0,2.0,12.0,,2009.0,7.0,-76.1454576040172,43.0494598626303,776
1234656000000,HILLSDALE AVE & JAMES ST,0,2.0,15.0,,2009.0,7.0,-76.1088178235894,43.0687426494015,777
1233446400000,404 THAYER ST,0,2.0,1.0,,2009.0,5.0,-76.1244082623135,43.015699260228395,778
1234828800000,201 DORCHESTER AVE,0,2.0,17.0,,2009.0,7.0,-76.1252836903208,43.069402301824205,779
1234828800000,3100 E GENESEE ST,0,2.0,17.0,,2009.0,7.0,-76.0995023857213,43.042702760679596,780
1234915200000,1318 WILLIS AVE,0,2.0,18.0,,2009.0,7.0,-76.1974458538624,43.0599674850358,781
1235260800000,JAMES ST & OAK ST,0,2.0,22.0,,2009.0,8.0,-76.1345516971419,43.059215730197,782
1235260800000,ALDEN ST & VINCENT ST,0,2.0,22.0,,2009.0,8.0,-76.1334911901349,43.020929081426104,783
1235347200000,HUNTINGTON RD & BELLEVUE AVE,0,2.0,23.0,,2009.0,8.0,-76.1956178981419,43.0286029634054,784
1235433600000,409 SCOTT AVE,0,2.0,24.0,,2009.0,8.0,-76.106859302234,43.0358040823838,785
1235779200000,1903 E FAYETTE ST,0,2.0,28.0,,2009.0,9.0,-76.116999091699,43.048306414644394,786
1238025600000,416 LODI ST,0,3.0,26.0,,2009.0,13.0,-76.1350748957263,43.0535485206061,787
1238025600000,313 LYNCH AVE,0,3.0,26.0,,2009.0,13.0,-76.16674288733209,43.0146105939254,788
1238457600000,431 7TH NORTH ST,0,3.0,31.0,,2009.0,13.0,-76.1702622997657,43.0914434795152,789
1236038400000,198 FOXBORO RD,0,3.0,3.0,,2009.0,9.0,-76.0937268077392,43.049495042812794,790
1236211200000,S CROUSE AVE & WAVERLY AVE,0,3.0,5.0,,2009.0,10.0,-76.1366909963635,43.0405379972859,791
1236297600000,137 CROLY ST,0,3.0,6.0,,2009.0,10.0,-76.1127198132312,43.0496595322667,792
1237075200000,312 LIBERTY ST,0,3.0,15.0,,2009.0,11.0,-76.1737488572161,43.0523157961281,793
1237075200000,806 N ALVORD ST,0,3.0,15.0,,2009.0,11.0,-76.1558271573791,43.066159514829906,794
1237334400000,529 DARLINGTON RD,0,3.0,18.0,,2009.0,11.0,-76.1366743802257,43.0782795628099,795
1238544000000,SACKETT ST & PARK AVE,0,4.0,1.0,,2009.0,13.0,-76.1762584680489,43.05220304689,796
1238630400000,416 LODI ST,0,4.0,2.0,,2009.0,14.0,-76.1350748957263,43.0535485206061,797
1238976000000,219 BRADFORD PKWY,0,4.0,6.0,,2009.0,14.0,-76.1054991945033,43.0393956856137,798
1239235200000,331 N BEECH ST,0,4.0,9.0,,2009.0,15.0,-76.12767190013109,43.0536047725779,799
1239580800000,KING ST & TEMPLE ST,0,4.0,13.0,,2009.0,15.0,-76.1552013738842,43.0397129933714,800
1239840000000,300 TEMPLE ST,0,4.0,16.0,,2009.0,16.0,-76.1532147747862,43.0402144755527,801
1239753600000,1000 ERIE BLVD W,0,4.0,15.0,,2009.0,15.0,-76.17537416468659,43.0481569751011,802
1239840000000,1000 ERIE BLVD W,0,4.0,16.0,,2009.0,16.0,-76.17537416468659,43.0481569751011,803
1239840000000,MIDLAND AVE & W CORNING AVE,0,4.0,16.0,,2009.0,16.0,-76.14857738113379,43.01814523379001,804
1239926400000,1000 ERIE BLVD W,0,4.0,17.0,,2009.0,16.0,-76.17537416468659,43.0481569751011,805
1240963200000,621 BALLANTYNE RD,0,4.0,29.0,,2009.0,17.0,-76.1505144893478,43.010364578091,806
1241049600000,595 E SENECA TPKE,0,4.0,30.0,,2009.0,18.0,-76.1297296197485,43.0020949727739,807
1241222400000,CATHERINE ST & JAMES ST,0,5.0,2.0,,2009.0,18.0,-76.1431277784121,43.0550083704378,808
1133740800000,100 UNIVERSITY PL,0,12.0,5.0,,2005.0,49.0,-76.1379733737709,43.0393794336629,809
1133827200000,126 HENDERSON ST,0,12.0,6.0,,2005.0,49.0,-76.1340755541087,43.0550146935167,810
1134086400000,304 AINSLEY DR,0,12.0,9.0,,2005.0,49.0,-76.12768839409809,43.0112184549611,811
1134259200000,NEUTRAL CT & MARY ST,0,12.0,11.0,,2005.0,50.0,-76.1493336215675,43.064527820427294,812
1134518400000,ALBERT RD & DEMONG DR,0,12.0,14.0,,2005.0,50.0,-76.0917867773055,43.0454543726326,813
1134518400000,400 E WILLOW ST,0,12.0,14.0,,2005.0,50.0,-76.1489517396554,43.0532218425089,814
1134691200000,1215 EUCLID AVE,0,12.0,16.0,,2005.0,50.0,-76.1137651557779,43.037131042164795,815
1134691200000,1300 EUCLID AVE,0,12.0,16.0,,2005.0,50.0,-76.1127351834057,43.0370692925611,816
1134691200000,W GENESEE ST & WALLACE ST,0,12.0,16.0,,2005.0,50.0,-76.1565858591967,43.052626982870905,817
1134691200000,W GENESEE ST & WALLACE ST,0,12.0,16.0,,2005.0,50.0,-76.1565858591967,43.052626982870905,818
1134691200000,MADISON ST & S WARREN ST,0,12.0,16.0,,2005.0,50.0,-76.1508397297863,43.04548736962521,819
1134777600000,W GENESEE ST & WALLACE ST,0,12.0,17.0,,2005.0,51.0,-76.1565858591967,43.052626982870905,820
1134777600000,1565 LEMOYNE AVE,0,12.0,17.0,,2005.0,51.0,-76.1489852468155,43.083207730651104,821
1134864000000,ALANSON RD & ROBINEAU RD,0,12.0,18.0,,2005.0,51.0,-76.1727515305197,43.0272715178731,822
1134864000000,313 W MATSON AVE,0,12.0,18.0,,2005.0,51.0,-76.14868778138721,43.0128487838679,823
1135814400000,117 WALL ST,0,12.0,29.0,,2005.0,52.0,-76.173160429264,43.048809972565,824
1135814400000,GRAVES ST & DOUGLAS ST,0,12.0,29.0,,2005.0,52.0,-76.1388191816284,43.060742913246,825
1135900800000,1200 MADISON ST,0,12.0,30.0,,2005.0,52.0,-76.12891663722979,43.0452609116341,826
1135900800000,100 LINWILL TER,0,12.0,30.0,,2005.0,52.0,-76.116690250006,43.072045367095605,827
1135900800000,1200 MADISON ST,0,12.0,30.0,,2005.0,52.0,-76.12891663722979,43.0452609116341,828
1135987200000,120 HASBROUCK ST,0,12.0,31.0,,2005.0,53.0,-76.0935233788532,43.062184525263795,829
1073088000000,1855 W FAYETTE ST,0,1.0,3.0,,2004.0,1.0,-76.184371726505,43.0529323639699,830
1073174400000,200 SHERBOURNE RD,0,1.0,4.0,,2004.0,1.0,-76.1100126350196,43.0320072282885,831
1073260800000,224 BRATTLE RD,0,1.0,5.0,,2004.0,1.0,-76.12848751920521,43.0640866029785,832
1073347200000,HAWLEY AVE & CATHERINE ST,0,1.0,6.0,,2004.0,1.0,-76.14207486306759,43.0533375785344,833
1073433600000,357 PLEASANTVIEW AVE,0,1.0,7.0,,2004.0,1.0,-76.1343887122067,43.076268900972096,834
1073520000000,600 S GEDDES ST,0,1.0,8.0,,2004.0,2.0,-76.171779381804,43.04189882989039,835
1073520000000,2724 ERIE BLVD E,0,1.0,8.0,,2004.0,2.0,-76.0961260039455,43.0543676704095,836
1073606400000,2646 ERIE BLVD E,0,1.0,9.0,,2004.0,2.0,-76.0990615132411,43.0540501601318,837
1073606400000,2704 ERIE BLVD E,0,1.0,9.0,,2004.0,2.0,-76.0966168793494,43.05431639993979,838
1073606400000,2646 ERIE BLVD E,0,1.0,9.0,,2004.0,2.0,-76.0990615132411,43.0540501601318,839
1073692800000,2649 ERIE BLVD E,0,1.0,10.0,,2004.0,2.0,-76.0990022810262,43.0541680115057,840
1073779200000,E WASHINGTON ST & WALNUT AVE,0,1.0,11.0,,2004.0,2.0,-76.1320547911821,43.049349227189396,841
1073779200000,N BEECH ST & ERIE BLVD E,0,1.0,11.0,,2004.0,2.0,-76.1276305623567,43.0504289642125,842
1073779200000,106 RONEY RD,0,1.0,11.0,,2004.0,2.0,-76.1426544372243,43.0024621494053,843
1073865600000,600 S GEDDES ST,0,1.0,12.0,,2004.0,2.0,-76.171779381804,43.04189882989039,844
1073865600000,GRANT BLVD & WOODRUFF AVE,0,1.0,12.0,,2004.0,2.0,-76.13806117959841,43.072340145529395,845
1073952000000,721 EMERSON AVE,0,1.0,13.0,,2004.0,2.0,-76.1891387856805,43.0553541387744,846
1073952000000,721 EMERSON AVE,0,1.0,13.0,,2004.0,2.0,-76.1891387856805,43.0553541387744,847
1074038400000,103 GIFFORD PKWY,0,1.0,14.0,,2004.0,2.0,-76.0855508998769,43.0435126066908,848
1074124800000,1770 ERIE BLVD E,0,1.0,15.0,,2004.0,3.0,-76.1185121654545,43.0499617134974,849
1074297600000,SOLAR ST & W BEAR ST,0,1.0,17.0,,2004.0,3.0,-76.1661864133529,43.064232218830604,850
1074384000000,ERIE BLVD W & EMERSON AVE,0,1.0,18.0,,2004.0,3.0,-76.1966963274371,43.0599445510374,851
1074470400000,SUNSET AVE & TURTLE ST,0,1.0,19.0,,2004.0,3.0,-76.1620076294159,43.06611647476849,852
1074470400000,SUNSET AVE & BEAR ST,0,1.0,19.0,,2004.0,3.0,-76.16346445516,43.0667753856468,853
1074556800000,301 BOYDEN ST,0,1.0,20.0,,2004.0,3.0,-76.1248209348802,43.060928249875204,854
1074556800000,400 W ONONDAGA ST,0,1.0,20.0,,2004.0,3.0,-76.1573771366215,43.04067554686711,855
1074643200000,1909 BELLEVUE AVE,0,1.0,21.0,,2004.0,3.0,-76.18549062939529,43.0324162188675,856
1074816000000,351 KENSINGTON PL,0,1.0,23.0,,2004.0,4.0,-76.11938163942821,43.0268650364061,857
1074816000000,RUGBY RD & DURSTON AVE,0,1.0,23.0,,2004.0,4.0,-76.12718429908651,43.0673796455382,858
1074988800000,107 GLENWOOD AVE,0,1.0,25.0,,2004.0,4.0,-76.161481141201,43.0186424490514,859
1075161600000,SMITH LN,0,1.0,27.0,,2004.0,4.0,-76.1357702770962,43.021407035100296,860
1075248000000,1250 CANAL ST,0,1.0,28.0,,2004.0,4.0,-76.11170072664359,43.054699897525204,861
1075248000000,701 GRANT BLVD,0,1.0,28.0,,2004.0,4.0,-76.1264767230867,43.07284648002889,862
1075161600000,409 LAFORTE AVE,0,1.0,27.0,,2004.0,4.0,-76.1770457901915,43.0308640019934,863
1075334400000,WESTMORELAND AVE & HARVARD PL,0,1.0,29.0,,2004.0,5.0,-76.11430150569801,43.0417565270794,864
1075420800000,S STATE ST & E WASHINGTON ST,0,1.0,30.0,,2004.0,5.0,-76.1474022526898,43.04951975249539,865
1075507200000,347 N EDWARDS AVE,0,1.0,31.0,,2004.0,5.0,-76.1068845898092,43.074981167396295,866
1075593600000,236 SENECA DR,0,2.0,1.0,,2004.0,5.0,-76.13987885320209,43.003713957280205,867
1075593600000,2620 ERIE BLVD E,0,2.0,1.0,,2004.0,5.0,-76.10013133757421,43.0539277970306,868
1075680000000,410 ENGLEWOOD AVE,0,2.0,2.0,,2004.0,5.0,-76.15766859860871,43.0042686974761,869
1075680000000,SHIRLEY RD & EUCLID AVE,0,2.0,2.0,,2004.0,5.0,-76.1034794583511,43.0359060153553,870
1075680000000,508 HILLSBORO PKWY,0,2.0,2.0,,2004.0,5.0,-76.08591685196409,43.04039627039929,871
1075680000000,321 RUGBY RD,0,2.0,2.0,,2004.0,5.0,-76.1254374684227,43.0675713153888,872
1075766400000,900 EMERSON AVE,0,2.0,3.0,,2004.0,5.0,-76.1930104239437,43.058439206240394,873
1075766400000,869 EMERSON AVE,0,2.0,3.0,,2004.0,5.0,-76.1928844424116,43.058267878060704,874
1075852800000,340 N EDWARDS AVE,0,2.0,4.0,,2004.0,5.0,-76.1067256877169,43.0748193345182,875
1075852800000,841 EMERSON AVE,0,2.0,4.0,,2004.0,5.0,-76.19258749890459,43.058245999514796,876
1075852800000,224 LUDDINGTON ST,0,2.0,4.0,,2004.0,5.0,-76.0971732167846,43.0614208346993,877
1075852800000,178 COLBY AVE,0,2.0,4.0,,2004.0,5.0,-76.1030088839743,43.073146932739,878
1075852800000,2250 PARK ST,0,2.0,4.0,,2004.0,5.0,-76.1726481694648,43.076006024229706,879
1075939200000,508 N TOWNSEND ST,0,2.0,5.0,,2004.0,6.0,-76.1472942698027,43.055331445916394,880
1076025600000,300 N TOWNSEND ST,0,2.0,6.0,,2004.0,6.0,-76.1459363934872,43.0536573472773,881
1076112000000,1020 SUNNYCREST RD,0,2.0,7.0,,2004.0,6.0,-76.1022402261285,43.0619585135265,882
1076198400000,UNIVERSITY AVE & ERIE BLVD E,0,2.0,8.0,,2004.0,6.0,-76.1342425086992,43.0506869262284,883
1076198400000,W BEAR ST & PULASKI ST,0,2.0,8.0,,2004.0,6.0,-76.1725507795115,43.0593994246586,884
1076198400000,1 BRATTLE RD,0,2.0,8.0,,2004.0,6.0,-76.132322826005,43.061975927094295,885
1076457600000,232 HAZELWOOD AVE,0,2.0,11.0,,2004.0,6.0,-76.10290123975221,43.0513138939711,886
1076457600000,500 S BEECH ST,0,2.0,11.0,,2004.0,6.0,-76.1254234933318,43.045258322390005,887
1076457600000,HILLSBORO PKWY & ENFIELD PL,0,2.0,11.0,,2004.0,6.0,-76.09200051346109,43.0405483885427,888
1076544000000,1601 LEMOYNE AVE,0,2.0,12.0,,2004.0,7.0,-76.14814644941049,43.0839032715708,889
1076716800000,209 HARWOOD AVE,0,2.0,14.0,,2004.0,7.0,-76.099857196004,43.0483904354548,890
1076976000000,311 CLARENCE AVE,0,2.0,17.0,,2004.0,7.0,-76.1402918940782,43.0044086887226,891
1076976000000,102 WALTER DR,0,2.0,17.0,,2004.0,7.0,-76.0985093610568,43.069340132552796,892
1077148800000,1106 MEADOWBROOK DR,0,2.0,19.0,,2004.0,8.0,-76.10994513920241,43.036770955205,893
1077148800000,VAN BUREN ST & STADIUM PL,0,2.0,19.0,,2004.0,8.0,-76.13949044053791,43.037612113874395,894
1077235200000,369 WILLUMAE DR,0,2.0,20.0,,2004.0,8.0,-76.1556511369908,43.0782731515819,895
1077494400000,530 ELM ST,0,2.0,23.0,,2004.0,8.0,-76.1305096511642,43.058650774651696,896
1077494400000,530 ELM ST,0,2.0,23.0,,2004.0,8.0,-76.1305096511642,43.058650774651696,897
1077580800000,311 PARK AVE,0,2.0,24.0,,2004.0,8.0,-76.1621132650052,43.0520026299831,898
1077580800000,143 WHEATON RD,0,2.0,24.0,,2004.0,8.0,-76.1261757551271,43.0684620280901,899
1077667200000,100 NOTTINGHAM RD,0,2.0,25.0,,2004.0,8.0,-76.11184881571491,43.0322257412469,900
1182470400000,225 BRATTLE RD,0,6.0,22.0,,2007.0,25.0,-76.12863051303209,43.0641190458743,901
1182470400000,233 BRATTLE RD,0,6.0,22.0,,2007.0,25.0,-76.1286066708461,43.06443925980639,902
1182470400000,1807 EUCLID AVE,0,6.0,22.0,,2007.0,25.0,-76.1045245008605,43.034984997210906,903
1182556800000,225 BRATTLE RD,0,6.0,23.0,,2007.0,25.0,-76.12863051303209,43.0641190458743,904
1182729600000,SCOTTHOLM BLVD & BRADFORD PKWY,0,6.0,25.0,,2007.0,26.0,-76.1067713014721,43.0415414384397,905
1182902400000,153 AINSLEY DR,0,6.0,27.0,,2007.0,26.0,-76.1320635560444,43.0112571161252,906
1182988800000,509 E SENECA TPKE,0,6.0,28.0,,2007.0,26.0,-76.13343782122391,43.002880466528104,907
1182988800000,200 ONEIDA ST,0,6.0,28.0,,2007.0,26.0,-76.1540279181033,43.04239737460521,908
1183334400000,1933 BELLEVUE AVE,0,7.0,2.0,,2007.0,27.0,-76.18584244110158,43.03239844888721,909
1183593600000,E FAYETTE ST & S WARREN ST,0,7.0,5.0,,2007.0,27.0,-76.150806797548,43.0486815011016,910
1183939200000,500 HARRISON ST,0,7.0,9.0,,2007.0,28.0,-76.1450994025943,43.044220716036605,911
1184457600000,105 DAWES AVE,0,7.0,15.0,,2007.0,28.0,-76.1427908922143,43.008787798807894,912
1184544000000,101 MACDOUGALL PL,0,7.0,16.0,,2007.0,29.0,-76.15183610426858,43.00027655808021,913
1184630400000,727 COMSTOCK AVE,0,7.0,17.0,,2007.0,29.0,-76.1299198532813,43.0385195317072,914
1184716800000,2760 ERIE BLVD E,0,7.0,18.0,,2007.0,29.0,-76.0952424246253,43.0544599509769,915
1184889600000,505 DELAWARE ST,0,7.0,20.0,,2007.0,29.0,-76.169680018985,43.037479932233104,916
1182470400000,300 N FRANKLIN ST,0,6.0,22.0,,2007.0,25.0,-76.1547637173727,43.053393759806795,917
1185235200000,207 SABINE ST,0,7.0,24.0,,2007.0,30.0,-76.1674656475552,43.03877131097429,918
1185148800000,1010 E WASHINGTON ST,0,7.0,23.0,,2007.0,30.0,-76.13428595571791,43.0493026127253,919
1185408000000,BURNET PARK,0,7.0,26.0,,2007.0,30.0,-76.1885505041537,43.0423404354687,920
1185494400000,BURNET PARK,0,7.0,27.0,,2007.0,30.0,-76.1885505041537,43.0423404354687,921
1185840000000,100 ROCKLAND AVE,0,7.0,31.0,,2007.0,31.0,-76.1555866640045,43.0240892808748,922
1186012800000,427 FELLOWS AVE,0,8.0,2.0,,2007.0,31.0,-76.1150438788387,43.0366364979656,923
1186358400000,COMSTOCK AVE & COMSTOCK PL,0,8.0,6.0,,2007.0,32.0,-76.1307094095339,43.046317246489494,924
1186358400000,626 ROBERTS AVE,0,8.0,6.0,,2007.0,32.0,-76.1703064348939,43.0258506567944,925
1186790400000,EASTVIEW AVE & ONONDAGA AVE,0,8.0,11.0,,2007.0,32.0,-76.16354647134541,43.0283873105354,926
1186963200000,481 BRATTLE RD,0,8.0,13.0,,2007.0,33.0,-76.1287381770172,43.0708751074459,927
1187654400000,100 DELL ST,0,8.0,21.0,,2007.0,34.0,-76.1211158900848,43.0417623538676,928
1187913600000,ELLIS ST & E GENESEE ST,0,8.0,24.0,,2007.0,34.0,-76.1134178572076,43.045078215378894,929
1188000000000,444 S SALINA ST,0,8.0,25.0,,2007.0,34.0,-76.15233718183909,43.0458526731534,930
1188259200000,425 N STATE ST,0,8.0,28.0,,2007.0,35.0,-76.1500517608568,43.054383375543296,931
1188345600000,5414 S SALINA ST,0,8.0,29.0,,2007.0,35.0,-76.1440058357882,42.99218466754021,932
1188691200000,322 KIMBER RD,0,9.0,2.0,,2007.0,35.0,-76.093513086855,43.0381293921194,933
1188950400000,225 DELRAY AVE,0,9.0,5.0,,2007.0,36.0,-76.09960748501629,43.049995396026404,934
1189036800000,S CROUSE AVE & E ADAMS ST,0,9.0,6.0,,2007.0,36.0,-76.1366460563448,43.04267486145571,935
1189382400000,809 NORTHWAY ST,0,9.0,10.0,,2007.0,37.0,-76.09392902839109,43.052793773216,936
1189555200000,201 CROYDEN RD,0,9.0,12.0,,2007.0,37.0,-76.10827135414759,43.030836742222995,937
1189641600000,453 W CASTLE ST,0,9.0,13.0,,2007.0,37.0,-76.1554115464231,43.0313204130529,938
1189728000000,ERIE BLVD E & LIME ST,0,9.0,14.0,,2007.0,37.0,-76.0942435411485,43.054619694458104,939
1189728000000,ERIE BLVD E & LIME ST,0,9.0,14.0,,2007.0,37.0,-76.0942435411485,43.054619694458104,940
1189814400000,321 ALLEN ST,0,9.0,15.0,,2007.0,37.0,-76.1169288084095,43.046838528116595,941
1189987200000,100 GORLAND AVE,0,9.0,17.0,,2007.0,38.0,-76.101474299161,43.0465398929487,942
1190073600000,107 ROCKLAND AVE,0,9.0,18.0,,2007.0,38.0,-76.1556530090798,43.0239785576516,943
1190073600000,SAND ST & SPENCER ST,0,9.0,18.0,,2007.0,38.0,-76.1675856813418,43.0569775976029,944
1190160000000,ALMOND ST & MONROE ST,0,9.0,19.0,,2007.0,38.0,-76.1421818317567,43.0427193268841,945
1190332800000,1160 WESTMORELAND AVE,0,9.0,21.0,,2007.0,38.0,-76.1136251192049,43.03119581007629,946
1190592000000,GARY AVE & EDNA RD,0,9.0,24.0,,2007.0,39.0,-76.1423039226853,42.9850962244621,947
1190851200000,249 ROCKLAND AVE,0,9.0,27.0,,2007.0,39.0,-76.15799830996241,43.023946746967496,948
1191369600000,100 PEAT ST,0,10.0,3.0,,2007.0,40.0,-76.1149487256906,43.051094390149295,949
1191456000000,711 ERIE BLVD E,0,10.0,4.0,,2007.0,40.0,-76.14183687958591,43.05084329229529,950
1191542400000,100 PEAT ST,0,10.0,5.0,,2007.0,40.0,-76.1149487256906,43.051094390149295,951
1191888000000,200 LAMSON ST,0,10.0,9.0,,2007.0,41.0,-76.1000563246547,43.071145415634696,952
1192060800000,1520 COMSTOCK AVE,0,10.0,11.0,,2007.0,41.0,-76.1280910558393,43.0168158444969,953
1192060800000,1003 JAMESVILLE AVE,0,10.0,11.0,,2007.0,41.0,-76.12891836828341,43.0168952398567,954
1192406400000,129 ROCKLAND AVE,0,10.0,15.0,,2007.0,42.0,-76.1559069915567,43.0239749147715,955
1193097600000,306 BARNES AVE,0,10.0,23.0,,2007.0,43.0,-76.1605582704685,43.0105903431138,956
1193184000000,S CROUSE AVE & E WATER ST,0,10.0,24.0,,2007.0,43.0,-76.1364731162795,43.0503022396663,957
1193788800000,1100 E WATER ST,0,10.0,31.0,,2007.0,44.0,-76.1341883250162,43.0502240638704,958
1193961600000,100 TRACY ST,0,11.0,2.0,,2007.0,44.0,-76.1591656742673,43.05098792408629,959
1194220800000,3600 E GENESEE ST,0,11.0,5.0,,2007.0,45.0,-76.0858345797588,43.0413918058057,960
1194220800000,700 GRAND AVE,0,11.0,5.0,,2007.0,45.0,-76.182416762478,43.038312388769505,961
1194393600000,FORMAN AVE & WELLINGTON PL,0,11.0,7.0,,2007.0,45.0,-76.1399461873226,43.047666870241606,962
1194393600000,100 TRACY ST,0,11.0,7.0,,2007.0,45.0,-76.1591656742673,43.05098792408629,963
1194566400000,991 CANAL ST,0,11.0,9.0,,2007.0,45.0,-76.12538842400141,43.051541964795106,964
1194912000000,100 MANILLA ST,0,11.0,13.0,,2007.0,46.0,-76.13305503021671,43.053103875756506,965
1193875200000,120 MANILLA ST,0,11.0,1.0,,2007.0,44.0,-76.1326977091428,43.05311880270221,966
1194998400000,WESTMORELAND AVE & DAKIN ST,0,11.0,14.0,,2007.0,46.0,-76.11497174052809,43.05042747670421,967
1195084800000,100 PHILLIPS RD,0,11.0,15.0,,2007.0,46.0,-76.09350849017571,43.046818131119394,968
1195344000000,115 CONAN ST,0,11.0,18.0,,2007.0,46.0,-76.1497315833232,43.011640274619296,969
1195344000000,320 PUTNAM ST,0,11.0,18.0,,2007.0,46.0,-76.1723140806207,43.0367577242002,970
1195430400000,263 ROCKLAND AVE,0,11.0,19.0,,2007.0,47.0,-76.1583397488221,43.0239423488459,971
1195689600000,108 CONKLIN AVE,0,11.0,22.0,,2007.0,47.0,-76.0893333507038,43.0655093830236,972
1196035200000,101 BLAINE ST,0,11.0,26.0,,2007.0,48.0,-76.1524324589547,43.033231155588396,973
1196035200000,178 COLBY AVE,0,11.0,26.0,,2007.0,48.0,-76.1030088839743,43.073146932739,974
1196208000000,FIRST NORTH ST & CLEVELAND AVE,0,11.0,28.0,,2007.0,48.0,-76.1465854855688,43.0684225531054,975
1196380800000,3538 E GENESEE ST,0,11.0,30.0,,2007.0,48.0,-76.0884930917399,43.0420283640483,976
1196640000000,115 HAMPTON RD,0,12.0,3.0,,2007.0,49.0,-76.12375749397549,43.0648829555009,977
1196812800000,400 TRACY ST,0,12.0,5.0,,2007.0,49.0,-76.1633270686171,43.0499855269357,978
1196812800000,1153 W FAYETTE ST,0,12.0,5.0,,2007.0,49.0,-76.1733104308484,43.0462815688336,979
1196726400000,1153 W FAYETTE ST,0,12.0,4.0,,2007.0,49.0,-76.1733104308484,43.0462815688336,980
1196812800000,PARKWAY DR & TEMPLE PL,0,12.0,5.0,,2007.0,49.0,-76.1598973727275,43.0245893165682,981
1196899200000,PARKWAY DR & TEMPLE PL,0,12.0,6.0,,2007.0,49.0,-76.1598973727275,43.0245893165682,982
1196985600000,351 N EDWARDS AVE,0,12.0,7.0,,2007.0,49.0,-76.106890803456,43.075092058436496,983
1197072000000,98 S CLINTON ST,0,12.0,8.0,,2007.0,49.0,-76.15361983682591,43.0509166693711,984
1197244800000,900 S CLINTON ST,0,12.0,10.0,,2007.0,50.0,-76.1520118659421,43.040430028432,985
1197504000000,867 EMERSON AVE,0,12.0,13.0,,2007.0,50.0,-76.1928710727853,43.0583069152273,986
1197590400000,103 DORCHESTER AVE,0,12.0,14.0,,2007.0,50.0,-76.12547699878671,43.0678968099294,987
1197676800000,E WATER ST & S STATE ST,0,12.0,15.0,,2007.0,50.0,-76.1473660442956,43.0504531260425,988
1197936000000,1100 E WASHINGTON ST,0,12.0,18.0,,2007.0,51.0,-76.1342070054826,43.0493204198237,989
1197936000000,ERIE BLVD E & SEELEY RD,0,12.0,18.0,,2007.0,51.0,-76.1040910538544,43.053528731709996,990
1197936000000,900 EMERSON AVE,0,12.0,18.0,,2007.0,51.0,-76.1930104239437,43.058439206240394,991
1195516800000,SALT SPRINGS RD & ALBERT RD,0,11.0,20.0,,2007.0,47.0,-76.09161692385159,43.0476586308072,992
1198195200000,825 HIAWATHA BLVD E,0,12.0,21.0,,2007.0,51.0,-76.1602011865499,43.079418860382994,993
1198281600000,268 BOSTON ST,0,12.0,22.0,,2007.0,51.0,-76.0905709650607,43.065565773656104,994
1198195200000,135 CRESCENT AVE,0,12.0,21.0,,2007.0,51.0,-76.15836690668971,43.0285441373009,995
1198368000000,W ONONDAGA ST & RICH ST,0,12.0,23.0,,2007.0,51.0,-76.1622239347532,43.037067740382994,996
1198368000000,3100 BURNET AVE,0,12.0,23.0,,2007.0,51.0,-76.09452093282341,43.06070155813621,997
1198972800000,264 BOSTON ST,0,12.0,30.0,,2007.0,52.0,-76.0905778030366,43.0656529308274,998
1165536000000,HIAWATHA BLVD W & DUKE DR,0,12.0,8.0,,2006.0,49.0,-76.1835818576386,43.0567374532074,999
1165536000000,1225 COMSTOCK AVE,0,12.0,8.0,,2006.0,49.0,-76.128343872303,43.02127584047271,1000
